{
"type": "FeatureCollection",
"crs": { "type": "name", "properties": { "name": "urn:ogc:def:crs:OGC:1.3:CRS84" } },
                                                                                
"features": [
{ "type": "Feature", "properties": { "rte": 100, "dir": 1, "rte_desc": "MAX Blue Line", "dir_desc": "To Hillsboro", "type": "MAX", "stop_seq": 4400, "stop_id": 9818, "stop_name": "Beaverton TC MAX Station", "jurisdic": "Beaverton", "zipcode": "97005", "frequent": "True" }, "geometry": { "type": "Point", "coordinates": [ -122.801723195366137, 45.491335049557321 ] } },
{ "type": "Feature", "properties": { "rte": 100, "dir": 1, "rte_desc": "MAX Blue Line", "dir_desc": "To Hillsboro", "type": "MAX", "stop_seq": 4500, "stop_id": 9823, "stop_name": "Beaverton Central MAX Station", "jurisdic": "Beaverton", "zipcode": "97005", "frequent": "True" }, "geometry": { "type": "Point", "coordinates": [ -122.807441379921485, 45.490424949883213 ] } },
{ "type": "Feature", "properties": { "rte": 100, "dir": 1, "rte_desc": "MAX Blue Line", "dir_desc": "To Hillsboro", "type": "MAX", "stop_seq": 4550, "stop_id": 9825, "stop_name": "Millikan Way MAX Station", "jurisdic": "Beaverton", "zipcode": "97005", "frequent": "True" }, "geometry": { "type": "Point", "coordinates": [ -122.821805927903085, 45.495421123311928 ] } },
{ "type": "Feature", "properties": { "rte": 100, "dir": 1, "rte_desc": "MAX Blue Line", "dir_desc": "To Hillsboro", "type": "MAX", "stop_seq": 5150, "stop_id": 9829, "stop_name": "Elmonica\/SW 170th Ave MAX Station", "jurisdic": "Beaverton", "zipcode": "97006", "frequent": "True" }, "geometry": { "type": "Point", "coordinates": [ -122.851732209874868, 45.510138658187827 ] } },
{ "type": "Feature", "properties": { "rte": 100, "dir": 1, "rte_desc": "MAX Blue Line", "dir_desc": "To Hillsboro", "type": "MAX", "stop_seq": 5300, "stop_id": 9832, "stop_name": "Willow Creek\/SW 185th Ave TC MAX Station", "jurisdic": "Hillsboro", "zipcode": "97006", "frequent": "True" }, "geometry": { "type": "Point", "coordinates": [ -122.870517927845455, 45.517380522915445 ] } },
{ "type": "Feature", "properties": { "rte": 100, "dir": 1, "rte_desc": "MAX Blue Line", "dir_desc": "To Hillsboro", "type": "MAX", "stop_seq": 5550, "stop_id": 9836, "stop_name": "Orenco\/NW 231st Ave MAX Station", "jurisdic": "Hillsboro", "zipcode": "97124", "frequent": "True" }, "geometry": { "type": "Point", "coordinates": [ -122.916198426406694, 45.530304042625978 ] } },
{ "type": "Feature", "properties": { "rte": 100, "dir": 1, "rte_desc": "MAX Blue Line", "dir_desc": "To Hillsboro", "type": "MAX", "stop_seq": 5850, "stop_id": 9837, "stop_name": "Fair Complex\/Hillsboro Airport MAX Stn", "jurisdic": "Hillsboro", "zipcode": "97124", "frequent": "True" }, "geometry": { "type": "Point", "coordinates": [ -122.946499148570581, 45.526923627143077 ] } },
{ "type": "Feature", "properties": { "rte": 100, "dir": 1, "rte_desc": "MAX Blue Line", "dir_desc": "To Hillsboro", "type": "MAX", "stop_seq": 6050, "stop_id": 9842, "stop_name": "Washington\/SE 12th Ave MAX Station", "jurisdic": "Hillsboro", "zipcode": "97123", "frequent": "True" }, "geometry": { "type": "Point", "coordinates": [ -122.969867228076041, 45.521237269382048 ] } },
{ "type": "Feature", "properties": { "rte": 100, "dir": 1, "rte_desc": "MAX Blue Line", "dir_desc": "To Hillsboro", "type": "MAX", "stop_seq": 6200, "stop_id": 9845, "stop_name": "Hillsboro Central\/SE 3rd TC MAX Station", "jurisdic": "Hillsboro", "zipcode": "97123", "frequent": "True" }, "geometry": { "type": "Point", "coordinates": [ -122.985596480892255, 45.521384829374874 ] } },
{ "type": "Feature", "properties": { "rte": 100, "dir": 1, "rte_desc": "MAX Blue Line", "dir_desc": "To Hillsboro", "type": "MAX", "stop_seq": 6450, "stop_id": 9848, "stop_name": "Hatfield Government Center MAX Station", "jurisdic": "Hillsboro", "zipcode": "97123", "frequent": "True" }, "geometry": { "type": "Point", "coordinates": [ -122.991022247599261, 45.52220367077976 ] } },
{ "type": "Feature", "properties": { "rte": 100, "dir": 1, "rte_desc": "MAX Blue Line", "dir_desc": "To Hillsboro", "type": "MAX", "stop_seq": 6100, "stop_id": 9844, "stop_name": "Tuality Hospital\/SE 8th Ave MAX Station", "jurisdic": "Hillsboro", "zipcode": "97123", "frequent": "True" }, "geometry": { "type": "Point", "coordinates": [ -122.978728436005539, 45.521321146206013 ] } },
{ "type": "Feature", "properties": { "rte": 100, "dir": 1, "rte_desc": "MAX Blue Line", "dir_desc": "To Hillsboro", "type": "MAX", "stop_seq": 4000, "stop_id": 10117, "stop_name": "Goose Hollow\/SW Jefferson St MAX Station", "jurisdic": "Portland", "zipcode": "97201", "frequent": "True" }, "geometry": { "type": "Point", "coordinates": [ -122.694089415186568, 45.518235629805723 ] } },
{ "type": "Feature", "properties": { "rte": 100, "dir": 1, "rte_desc": "MAX Blue Line", "dir_desc": "To Hillsboro", "type": "MAX", "stop_seq": 4050, "stop_id": 10121, "stop_name": "Washington Park MAX Station", "jurisdic": "Portland", "zipcode": "97221", "frequent": "True" }, "geometry": { "type": "Point", "coordinates": [ -122.717244395714303, 45.510665353802779 ] } },
{ "type": "Feature", "properties": { "rte": 100, "dir": 1, "rte_desc": "MAX Blue Line", "dir_desc": "To Hillsboro", "type": "MAX", "stop_seq": 50, "stop_id": 8359, "stop_name": "Cleveland Ave MAX Station", "jurisdic": "Gresham", "zipcode": "97030", "frequent": "True" }, "geometry": { "type": "Point", "coordinates": [ -122.418449724912875, 45.501772334264267 ] } },
{ "type": "Feature", "properties": { "rte": 100, "dir": 1, "rte_desc": "MAX Blue Line", "dir_desc": "To Hillsboro", "type": "MAX", "stop_seq": 200, "stop_id": 8361, "stop_name": "Gresham City Hall MAX Station", "jurisdic": "Gresham", "zipcode": "97030", "frequent": "True" }, "geometry": { "type": "Point", "coordinates": [ -122.436284811002992, 45.5059809967048 ] } },
{ "type": "Feature", "properties": { "rte": 100, "dir": 1, "rte_desc": "MAX Blue Line", "dir_desc": "To Hillsboro", "type": "MAX", "stop_seq": 400, "stop_id": 8362, "stop_name": "Ruby Junction\/E 197th Ave MAX Station", "jurisdic": "Gresham", "zipcode": "97233", "frequent": "True" }, "geometry": { "type": "Point", "coordinates": [ -122.461119426765919, 45.516502040075061 ] } },
{ "type": "Feature", "properties": { "rte": 100, "dir": 1, "rte_desc": "MAX Blue Line", "dir_desc": "To Hillsboro", "type": "MAX", "stop_seq": 500, "stop_id": 8363, "stop_name": "Rockwood\/E 188th Ave MAX Station", "jurisdic": "Gresham", "zipcode": "97233", "frequent": "True" }, "geometry": { "type": "Point", "coordinates": [ -122.471092944093058, 45.520723379124007 ] } },
{ "type": "Feature", "properties": { "rte": 100, "dir": 1, "rte_desc": "MAX Blue Line", "dir_desc": "To Hillsboro", "type": "MAX", "stop_seq": 800, "stop_id": 8366, "stop_name": "E 162nd Ave MAX Station", "jurisdic": "Gresham", "zipcode": "97233", "frequent": "True" }, "geometry": { "type": "Point", "coordinates": [ -122.49743715520934, 45.522222757115159 ] } },
{ "type": "Feature", "properties": { "rte": 100, "dir": 1, "rte_desc": "MAX Blue Line", "dir_desc": "To Hillsboro", "type": "MAX", "stop_seq": 900, "stop_id": 8367, "stop_name": "E 148th Ave MAX Station", "jurisdic": "Portland", "zipcode": "97233", "frequent": "True" }, "geometry": { "type": "Point", "coordinates": [ -122.51161441555135, 45.522343505832026 ] } },
{ "type": "Feature", "properties": { "rte": 100, "dir": 1, "rte_desc": "MAX Blue Line", "dir_desc": "To Hillsboro", "type": "MAX", "stop_seq": 1000, "stop_id": 8368, "stop_name": "E 122nd Ave MAX Station", "jurisdic": "Portland", "zipcode": "97216", "frequent": "True" }, "geometry": { "type": "Point", "coordinates": [ -122.538742962693547, 45.522548197143081 ] } },
{ "type": "Feature", "properties": { "rte": 100, "dir": 1, "rte_desc": "MAX Blue Line", "dir_desc": "To Hillsboro", "type": "MAX", "stop_seq": 2100, "stop_id": 8372, "stop_name": "NE 60th Ave MAX Station", "jurisdic": "Portland", "zipcode": "97213", "frequent": "True" }, "geometry": { "type": "Point", "coordinates": [ -122.603341898282508, 45.528494427725576 ] } },
{ "type": "Feature", "properties": { "rte": 100, "dir": 1, "rte_desc": "MAX Blue Line", "dir_desc": "To Hillsboro", "type": "MAX", "stop_seq": 2300, "stop_id": 8373, "stop_name": "Hollywood\/NE 42nd Ave TC MAX Station", "jurisdic": "Portland", "zipcode": "97232", "frequent": "True" }, "geometry": { "type": "Point", "coordinates": [ -122.621366790255593, 45.532956553186843 ] } },
{ "type": "Feature", "properties": { "rte": 100, "dir": 1, "rte_desc": "MAX Blue Line", "dir_desc": "To Hillsboro", "type": "MAX", "stop_seq": 2550, "stop_id": 8374, "stop_name": "Lloyd Center\/NE 11th Ave MAX Station", "jurisdic": "Portland", "zipcode": "97232", "frequent": "True" }, "geometry": { "type": "Point", "coordinates": [ -122.654334506442638, 45.530146371409948 ] } },
{ "type": "Feature", "properties": { "rte": 100, "dir": 1, "rte_desc": "MAX Blue Line", "dir_desc": "To Hillsboro", "type": "MAX", "stop_seq": 2700, "stop_id": 8376, "stop_name": "Convention Center MAX Station", "jurisdic": "Portland", "zipcode": "97232", "frequent": "True" }, "geometry": { "type": "Point", "coordinates": [ -122.662539547292354, 45.530137848577276 ] } },
{ "type": "Feature", "properties": { "rte": 100, "dir": 1, "rte_desc": "MAX Blue Line", "dir_desc": "To Hillsboro", "type": "MAX", "stop_seq": 2950, "stop_id": 8378, "stop_name": "Old Town\/Chinatown MAX Station", "jurisdic": "Portland", "zipcode": "97209", "frequent": "True" }, "geometry": { "type": "Point", "coordinates": [ -122.671466793871858, 45.524695334643361 ] } },
{ "type": "Feature", "properties": { "rte": 100, "dir": 1, "rte_desc": "MAX Blue Line", "dir_desc": "To Hillsboro", "type": "MAX", "stop_seq": 3100, "stop_id": 8380, "stop_name": "Oak\/ SW 1st Ave MAX Station", "jurisdic": "Portland", "zipcode": "97204", "frequent": "True" }, "geometry": { "type": "Point", "coordinates": [ -122.672522990503779, 45.5198597206101 ] } },
{ "type": "Feature", "properties": { "rte": 100, "dir": 1, "rte_desc": "MAX Blue Line", "dir_desc": "To Hillsboro", "type": "MAX", "stop_seq": 3350, "stop_id": 8382, "stop_name": "Mall\/SW 5th Ave MAX Station", "jurisdic": "Portland", "zipcode": "97204", "frequent": "True" }, "geometry": { "type": "Point", "coordinates": [ -122.677402092352494, 45.518701273235884 ] } },
{ "type": "Feature", "properties": { "rte": 100, "dir": 1, "rte_desc": "MAX Blue Line", "dir_desc": "To Hillsboro", "type": "MAX", "stop_seq": 3450, "stop_id": 8383, "stop_name": "Pioneer Square North MAX Station", "jurisdic": "Portland", "zipcode": "97204", "frequent": "True" }, "geometry": { "type": "Point", "coordinates": [ -122.679474775335706, 45.51925309140244 ] } },
{ "type": "Feature", "properties": { "rte": 100, "dir": 1, "rte_desc": "MAX Blue Line", "dir_desc": "To Hillsboro", "type": "MAX", "stop_seq": 3700, "stop_id": 9757, "stop_name": "Providence Park MAX Station", "jurisdic": "Portland", "zipcode": "97205", "frequent": "True" }, "geometry": { "type": "Point", "coordinates": [ -122.689815904108698, 45.52183309010865 ] } },
{ "type": "Feature", "properties": { "rte": 100, "dir": 1, "rte_desc": "MAX Blue Line", "dir_desc": "To Hillsboro", "type": "MAX", "stop_seq": 5750, "stop_id": 9840, "stop_name": "Hawthorn Farm MAX Station", "jurisdic": "Hillsboro", "zipcode": "97124", "frequent": "True" }, "geometry": { "type": "Point", "coordinates": [ -122.931119810492717, 45.529926434701423 ] } },
{ "type": "Feature", "properties": { "rte": 100, "dir": 1, "rte_desc": "MAX Blue Line", "dir_desc": "To Hillsboro", "type": "MAX", "stop_seq": 1100, "stop_id": 8369, "stop_name": "E 102nd Ave MAX Station", "jurisdic": "Portland", "zipcode": "97216", "frequent": "True" }, "geometry": { "type": "Point", "coordinates": [ -122.559244324931669, 45.522691101271739 ] } },
{ "type": "Feature", "properties": { "rte": 100, "dir": 1, "rte_desc": "MAX Blue Line", "dir_desc": "To Hillsboro", "type": "MAX", "stop_seq": 1950, "stop_id": 8371, "stop_name": "NE 82nd Ave MAX Station", "jurisdic": "Portland", "zipcode": "97220", "frequent": "True" }, "geometry": { "type": "Point", "coordinates": [ -122.578437293811731, 45.533478203929455 ] } },
{ "type": "Feature", "properties": { "rte": 100, "dir": 1, "rte_desc": "MAX Blue Line", "dir_desc": "To Hillsboro", "type": "MAX", "stop_seq": 4700, "stop_id": 9819, "stop_name": "Beaverton Creek MAX Station", "jurisdic": "Beaverton", "zipcode": "97006", "frequent": "True" }, "geometry": { "type": "Point", "coordinates": [ -122.833325448828177, 45.500589260300714 ] } },
{ "type": "Feature", "properties": { "rte": 100, "dir": 1, "rte_desc": "MAX Blue Line", "dir_desc": "To Hillsboro", "type": "MAX", "stop_seq": 5400, "stop_id": 9833, "stop_name": "Quatama\/NW 205th Ave MAX Station", "jurisdic": "Hillsboro", "zipcode": "97006", "frequent": "True" }, "geometry": { "type": "Point", "coordinates": [ -122.889131375704068, 45.523324853385738 ] } },
{ "type": "Feature", "properties": { "rte": 100, "dir": 1, "rte_desc": "MAX Blue Line", "dir_desc": "To Hillsboro", "type": "MAX", "stop_seq": 600, "stop_id": 8364, "stop_name": "E 181st Ave MAX Station", "jurisdic": "Gresham", "zipcode": "97233", "frequent": "True" }, "geometry": { "type": "Point", "coordinates": [ -122.478074038310311, 45.52206457569784 ] } },
{ "type": "Feature", "properties": { "rte": 100, "dir": 1, "rte_desc": "MAX Blue Line", "dir_desc": "To Hillsboro", "type": "MAX", "stop_seq": 3250, "stop_id": 8381, "stop_name": "Morrison\/SW 3rd Ave MAX Station", "jurisdic": "Portland", "zipcode": "97204", "frequent": "True" }, "geometry": { "type": "Point", "coordinates": [ -122.675385864376594, 45.518181127825137 ] } },
{ "type": "Feature", "properties": { "rte": 100, "dir": 1, "rte_desc": "MAX Blue Line", "dir_desc": "To Hillsboro", "type": "MAX", "stop_seq": 100, "stop_id": 8360, "stop_name": "Gresham Central TC MAX Station", "jurisdic": "Gresham", "zipcode": "97030", "frequent": "True" }, "geometry": { "type": "Point", "coordinates": [ -122.427348081543911, 45.502704859761025 ] } },
{ "type": "Feature", "properties": { "rte": 100, "dir": 1, "rte_desc": "MAX Blue Line", "dir_desc": "To Hillsboro", "type": "MAX", "stop_seq": 700, "stop_id": 8365, "stop_name": "E 172nd Ave MAX Station", "jurisdic": "Gresham", "zipcode": "97233", "frequent": "True" }, "geometry": { "type": "Point", "coordinates": [ -122.487140215554987, 45.522140053888691 ] } },
{ "type": "Feature", "properties": { "rte": 100, "dir": 1, "rte_desc": "MAX Blue Line", "dir_desc": "To Hillsboro", "type": "MAX", "stop_seq": 1700, "stop_id": 8370, "stop_name": "Gateway\/NE 99th Ave TC MAX Station", "jurisdic": "Portland", "zipcode": "97220", "frequent": "True" }, "geometry": { "type": "Point", "coordinates": [ -122.563626896079015, 45.530842047320171 ] } },
{ "type": "Feature", "properties": { "rte": 100, "dir": 1, "rte_desc": "MAX Blue Line", "dir_desc": "To Hillsboro", "type": "MAX", "stop_seq": 3000, "stop_id": 8379, "stop_name": "Skidmore Fountain MAX Station", "jurisdic": "Portland", "zipcode": "97204", "frequent": "True" }, "geometry": { "type": "Point", "coordinates": [ -122.671390258815677, 45.522872758344462 ] } },
{ "type": "Feature", "properties": { "rte": 100, "dir": 1, "rte_desc": "MAX Blue Line", "dir_desc": "To Hillsboro", "type": "MAX", "stop_seq": 3550, "stop_id": 8384, "stop_name": "Galleria\/SW 10th Ave MAX Station", "jurisdic": "Portland", "zipcode": "97205", "frequent": "True" }, "geometry": { "type": "Point", "coordinates": [ -122.681918751692109, 45.519909918903991 ] } },
{ "type": "Feature", "properties": { "rte": 100, "dir": 1, "rte_desc": "MAX Blue Line", "dir_desc": "To Hillsboro", "type": "MAX", "stop_seq": 2850, "stop_id": 8377, "stop_name": "Rose Quarter TC MAX Station", "jurisdic": "Portland", "zipcode": "97232", "frequent": "True" }, "geometry": { "type": "Point", "coordinates": [ -122.665534016962653, 45.530135647397898 ] } },
{ "type": "Feature", "properties": { "rte": 100, "dir": 1, "rte_desc": "MAX Blue Line", "dir_desc": "To Hillsboro", "type": "MAX", "stop_seq": 4250, "stop_id": 9624, "stop_name": "Sunset TC MAX Station", "jurisdic": "Beaverton", "zipcode": "97225", "frequent": "True" }, "geometry": { "type": "Point", "coordinates": [ -122.781299103312165, 45.510388006586069 ] } },
{ "type": "Feature", "properties": { "rte": 100, "dir": 1, "rte_desc": "MAX Blue Line", "dir_desc": "To Hillsboro", "type": "MAX", "stop_seq": 3850, "stop_id": 9820, "stop_name": "Kings Hill\/SW Salmon St MAX Station", "jurisdic": "Portland", "zipcode": "97205", "frequent": "True" }, "geometry": { "type": "Point", "coordinates": [ -122.691319815440963, 45.520206557145912 ] } },
{ "type": "Feature", "properties": { "rte": 100, "dir": 1, "rte_desc": "MAX Blue Line", "dir_desc": "To Hillsboro", "type": "MAX", "stop_seq": 4900, "stop_id": 9827, "stop_name": "Merlo Rd\/SW 158th Ave MAX Station", "jurisdic": "Beaverton", "zipcode": "97006", "frequent": "True" }, "geometry": { "type": "Point", "coordinates": [ -122.842423577610361, 45.505398884050145 ] } },
{ "type": "Feature", "properties": { "rte": 100, "dir": 1, "rte_desc": "MAX Blue Line", "dir_desc": "To Hillsboro", "type": "MAX", "stop_seq": 275, "stop_id": 13449, "stop_name": "Civic Drive MAX Station", "jurisdic": "Gresham", "zipcode": "97030", "frequent": "True" }, "geometry": { "type": "Point", "coordinates": [ -122.441819427465404, 45.508300191662912 ] } }
]
}
