{
"type": "FeatureCollection",
"crs": { "type": "name", "properties": { "name": "urn:ogc:def:crs:OGC:1.3:CRS84" } },
                                                                                
"features": [
{ "type": "Feature", "properties": { "rte": "13", "rte_desc": "13-Centennial", "dir": "0", "dir_desc": "Outbound", "stop_id": "02115", "stop_name": "Eugene Station, Bay O", "stop_seq": "1" }, "geometry": { "type": "Point", "coordinates": [ -123.092988799999986, 44.0481334 ] } },
{ "type": "Feature", "properties": { "rte": "13", "rte_desc": "13-Centennial", "dir": "0", "dir_desc": "Outbound", "stop_id": "01184", "stop_name": "S\/S of 10th W of Pearl", "stop_seq": "2" }, "geometry": { "type": "Point", "coordinates": [ -123.0902378, 44.0487489 ] } },
{ "type": "Feature", "properties": { "rte": "13", "rte_desc": "13-Centennial", "dir": "0", "dir_desc": "Outbound", "stop_id": "01179", "stop_name": "E\/S of High S of 8th", "stop_seq": "3" }, "geometry": { "type": "Point", "coordinates": [ -123.088049, 44.0506178 ] } },
{ "type": "Feature", "properties": { "rte": "13", "rte_desc": "13-Centennial", "dir": "0", "dir_desc": "Outbound", "stop_id": "02133", "stop_name": "S\/S of MLK Blvd W of Centennial Lp", "stop_seq": "4" }, "geometry": { "type": "Point", "coordinates": [ -123.080950299999984, 44.0594379 ] } },
{ "type": "Feature", "properties": { "rte": "13", "rte_desc": "13-Centennial", "dir": "0", "dir_desc": "Outbound", "stop_id": "01330", "stop_name": "S\/S of MLK Blvd E of Centennial Lp", "stop_seq": "5" }, "geometry": { "type": "Point", "coordinates": [ -123.0783862, 44.059559 ] } },
{ "type": "Feature", "properties": { "rte": "13", "rte_desc": "13-Centennial", "dir": "0", "dir_desc": "Outbound", "stop_id": "00549", "stop_name": "S\/S of MLK Blvd E of Centennial Lp", "stop_seq": "6" }, "geometry": { "type": "Point", "coordinates": [ -123.0755651, 44.0596386 ] } },
{ "type": "Feature", "properties": { "rte": "13", "rte_desc": "13-Centennial", "dir": "0", "dir_desc": "Outbound", "stop_id": "00546", "stop_name": "S\/S of MLK Blvd Eof Scout Access", "stop_seq": "7" }, "geometry": { "type": "Point", "coordinates": [ -123.070568599999987, 44.0598044 ] } },
{ "type": "Feature", "properties": { "rte": "13", "rte_desc": "13-Centennial", "dir": "0", "dir_desc": "Outbound", "stop_id": "00545", "stop_name": "S\/S of MLK Blvd at Serbu Center", "stop_seq": "8" }, "geometry": { "type": "Point", "coordinates": [ -123.0670708, 44.0599293 ] } },
{ "type": "Feature", "properties": { "rte": "13", "rte_desc": "13-Centennial", "dir": "0", "dir_desc": "Outbound", "stop_id": "00543", "stop_name": "W\/S of MLK Blvd S of Kinsrow", "stop_seq": "9" }, "geometry": { "type": "Point", "coordinates": [ -123.0623298, 44.0577581 ] } },
{ "type": "Feature", "properties": { "rte": "13", "rte_desc": "13-Centennial", "dir": "0", "dir_desc": "Outbound", "stop_id": "00541", "stop_name": "S\/S of MLK Blvd E of Chevy Chase", "stop_seq": "10" }, "geometry": { "type": "Point", "coordinates": [ -123.058437399999988, 44.0554471 ] } },
{ "type": "Feature", "properties": { "rte": "13", "rte_desc": "13-Centennial", "dir": "0", "dir_desc": "Outbound", "stop_id": "00539", "stop_name": "S\/S of MLK Blvd W of Lindley", "stop_seq": "11" }, "geometry": { "type": "Point", "coordinates": [ -123.0532691, 44.0556034 ] } },
{ "type": "Feature", "properties": { "rte": "13", "rte_desc": "13-Centennial", "dir": "0", "dir_desc": "Outbound", "stop_id": "00184", "stop_name": "S\/S of Centennial E of Anderson", "stop_seq": "12" }, "geometry": { "type": "Point", "coordinates": [ -123.047316099999989, 44.0557961 ] } },
{ "type": "Feature", "properties": { "rte": "13", "rte_desc": "13-Centennial", "dir": "0", "dir_desc": "Outbound", "stop_id": "00182", "stop_name": "S\/S of Centennial E of Aspen", "stop_seq": "13" }, "geometry": { "type": "Point", "coordinates": [ -123.0422375, 44.0556428 ] } },
{ "type": "Feature", "properties": { "rte": "13", "rte_desc": "13-Centennial", "dir": "0", "dir_desc": "Outbound", "stop_id": "00181", "stop_name": "S\/S of Centennial W of Rainbow Dr", "stop_seq": "14" }, "geometry": { "type": "Point", "coordinates": [ -123.0382322, 44.0560014 ] } },
{ "type": "Feature", "properties": { "rte": "13", "rte_desc": "13-Centennial", "dir": "0", "dir_desc": "Outbound", "stop_id": "00179", "stop_name": "S\/S of Centennial E of Prescott", "stop_seq": "15" }, "geometry": { "type": "Point", "coordinates": [ -123.032894400000018, 44.0571951 ] } },
{ "type": "Feature", "properties": { "rte": "13", "rte_desc": "13-Centennial", "dir": "0", "dir_desc": "Outbound", "stop_id": "00245", "stop_name": "S\/S of Centennial W of Laura", "stop_seq": "16" }, "geometry": { "type": "Point", "coordinates": [ -123.030591199999989, 44.0572042 ] } },
{ "type": "Feature", "properties": { "rte": "13", "rte_desc": "13-Centennial", "dir": "0", "dir_desc": "Outbound", "stop_id": "00243", "stop_name": "S\/S of Centennial W of Mill", "stop_seq": "17" }, "geometry": { "type": "Point", "coordinates": [ -123.0280262, 44.0571783 ] } },
{ "type": "Feature", "properties": { "rte": "13", "rte_desc": "13-Centennial", "dir": "0", "dir_desc": "Outbound", "stop_id": "00177", "stop_name": "S\/S of Centennial W of Pioneer Pkwy W", "stop_seq": "18" }, "geometry": { "type": "Point", "coordinates": [ -123.0252498, 44.0569156 ] } },
{ "type": "Feature", "properties": { "rte": "13", "rte_desc": "13-Centennial", "dir": "0", "dir_desc": "Outbound", "stop_id": "00175", "stop_name": "S\/S of Centennial E of Custom", "stop_seq": "19" }, "geometry": { "type": "Point", "coordinates": [ -123.0225293, 44.0563029 ] } },
{ "type": "Feature", "properties": { "rte": "13", "rte_desc": "13-Centennial", "dir": "0", "dir_desc": "Outbound", "stop_id": "00239", "stop_name": "S\/S of Centennial W of 6th", "stop_seq": "20" }, "geometry": { "type": "Point", "coordinates": [ -123.0183154, 44.0562719 ] } },
{ "type": "Feature", "properties": { "rte": "13", "rte_desc": "13-Centennial", "dir": "0", "dir_desc": "Outbound", "stop_id": "00172", "stop_name": "S\/S of Centennial E of 7th", "stop_seq": "21" }, "geometry": { "type": "Point", "coordinates": [ -123.0163733, 44.0562044 ] } },
{ "type": "Feature", "properties": { "rte": "13", "rte_desc": "13-Centennial", "dir": "0", "dir_desc": "Outbound", "stop_id": "00170", "stop_name": "S\/S of Centennial E of 10th", "stop_seq": "22" }, "geometry": { "type": "Point", "coordinates": [ -123.0115501, 44.056193 ] } },
{ "type": "Feature", "properties": { "rte": "13", "rte_desc": "13-Centennial", "dir": "0", "dir_desc": "Outbound", "stop_id": "00168", "stop_name": "S\/S of Centennial E of 12th", "stop_seq": "23" }, "geometry": { "type": "Point", "coordinates": [ -123.008559799999986, 44.0562167 ] } },
{ "type": "Feature", "properties": { "rte": "13", "rte_desc": "13-Centennial", "dir": "0", "dir_desc": "Outbound", "stop_id": "00166", "stop_name": "S\/S of Centennial W of Market", "stop_seq": "24" }, "geometry": { "type": "Point", "coordinates": [ -123.0035789, 44.0561743 ] } },
{ "type": "Feature", "properties": { "rte": "13", "rte_desc": "13-Centennial", "dir": "0", "dir_desc": "Outbound", "stop_id": "00164", "stop_name": "S\/S of Centennial E of 16th", "stop_seq": "25" }, "geometry": { "type": "Point", "coordinates": [ -123.0001673, 44.0561184 ] } },
{ "type": "Feature", "properties": { "rte": "13", "rte_desc": "13-Centennial", "dir": "0", "dir_desc": "Outbound", "stop_id": "00162", "stop_name": "S\/S of Centennial E of 18th", "stop_seq": "26" }, "geometry": { "type": "Point", "coordinates": [ -122.9975575, 44.0560715 ] } },
{ "type": "Feature", "properties": { "rte": "13", "rte_desc": "13-Centennial", "dir": "0", "dir_desc": "Outbound", "stop_id": "00160", "stop_name": "S\/S of Centennial W of 21st", "stop_seq": "27" }, "geometry": { "type": "Point", "coordinates": [ -122.9946912, 44.0559851 ] } },
{ "type": "Feature", "properties": { "rte": "13", "rte_desc": "13-Centennial", "dir": "0", "dir_desc": "Outbound", "stop_id": "00147", "stop_name": "E\/S of 21st N of L", "stop_seq": "28" }, "geometry": { "type": "Point", "coordinates": [ -122.994275300000012, 44.0576052 ] } },
{ "type": "Feature", "properties": { "rte": "13", "rte_desc": "13-Centennial", "dir": "0", "dir_desc": "Outbound", "stop_id": "00061", "stop_name": "N\/S of Olympic E of 18th", "stop_seq": "29" }, "geometry": { "type": "Point", "coordinates": [ -122.9961045, 44.0597624 ] } }
]
}
