{
"type": "FeatureCollection",
"crs": { "type": "name", "properties": { "name": "urn:ogc:def:crs:OGC:1.3:CRS84" } },
                                                                                
"features": [
{ "type": "Feature", "properties": { "rte": 14, "dir": 0, "rte_desc": "14-Hawthorne", "dir_desc": "To Foster & 94th", "type": "BUS", "stop_seq": 2050, "stop_id": 1775, "stop_name": "SE Foster & Gladstone", "jurisdic": "Portland", "zipcode": "97206", "frequent": "True" }, "geometry": { "type": "Point", "coordinates": [ -122.603335452256331, 45.492843604142912 ] } },
{ "type": "Feature", "properties": { "rte": 14, "dir": 0, "rte_desc": "14-Hawthorne", "dir_desc": "To Foster & 94th", "type": "BUS", "stop_seq": 1900, "stop_id": 1792, "stop_name": "SE Foster & Powell", "jurisdic": "Portland", "zipcode": "97206", "frequent": "True" }, "geometry": { "type": "Point", "coordinates": [ -122.611345631422694, 45.497260161455181 ] } },
{ "type": "Feature", "properties": { "rte": 14, "dir": 0, "rte_desc": "14-Hawthorne", "dir_desc": "To Foster & 94th", "type": "BUS", "stop_seq": 1950, "stop_id": 1794, "stop_name": "SE Foster & 52nd", "jurisdic": "Portland", "zipcode": "97206", "frequent": "True" }, "geometry": { "type": "Point", "coordinates": [ -122.608652766401121, 45.495391938415104 ] } },
{ "type": "Feature", "properties": { "rte": 14, "dir": 0, "rte_desc": "14-Hawthorne", "dir_desc": "To Foster & 94th", "type": "BUS", "stop_seq": 2200, "stop_id": 1802, "stop_name": "SE Foster & 65th", "jurisdic": "Portland", "zipcode": "97206", "frequent": "True" }, "geometry": { "type": "Point", "coordinates": [ -122.595630778965116, 45.489075593675949 ] } },
{ "type": "Feature", "properties": { "rte": 14, "dir": 0, "rte_desc": "14-Hawthorne", "dir_desc": "To Foster & 94th", "type": "BUS", "stop_seq": 2300, "stop_id": 1808, "stop_name": "SE Foster & 70th", "jurisdic": "Portland", "zipcode": "97206", "frequent": "True" }, "geometry": { "type": "Point", "coordinates": [ -122.591509359412157, 45.487347635922795 ] } },
{ "type": "Feature", "properties": { "rte": 14, "dir": 0, "rte_desc": "14-Hawthorne", "dir_desc": "To Foster & 94th", "type": "BUS", "stop_seq": 2350, "stop_id": 1810, "stop_name": "SE Foster & 72nd", "jurisdic": "Portland", "zipcode": "97206", "frequent": "True" }, "geometry": { "type": "Point", "coordinates": [ -122.588742941481243, 45.486253515814425 ] } },
{ "type": "Feature", "properties": { "rte": 14, "dir": 0, "rte_desc": "14-Hawthorne", "dir_desc": "To Foster & 94th", "type": "BUS", "stop_seq": 2400, "stop_id": 1812, "stop_name": "SE Foster & 75th", "jurisdic": "Portland", "zipcode": "97206", "frequent": "True" }, "geometry": { "type": "Point", "coordinates": [ -122.586218333138945, 45.48541128850534 ] } },
{ "type": "Feature", "properties": { "rte": 14, "dir": 0, "rte_desc": "14-Hawthorne", "dir_desc": "To Foster & 94th", "type": "BUS", "stop_seq": 2450, "stop_id": 1814, "stop_name": "SE Foster & 77th", "jurisdic": "Portland", "zipcode": "97206", "frequent": "True" }, "geometry": { "type": "Point", "coordinates": [ -122.58375813706273, 45.484568284184682 ] } },
{ "type": "Feature", "properties": { "rte": 14, "dir": 0, "rte_desc": "14-Hawthorne", "dir_desc": "To Foster & 94th", "type": "BUS", "stop_seq": 2500, "stop_id": 1816, "stop_name": "SE Foster & 79th", "jurisdic": "Portland", "zipcode": "97206", "frequent": "True" }, "geometry": { "type": "Point", "coordinates": [ -122.582026112068419, 45.483908762825614 ] } },
{ "type": "Feature", "properties": { "rte": 14, "dir": 0, "rte_desc": "14-Hawthorne", "dir_desc": "To Foster & 94th", "type": "BUS", "stop_seq": 2550, "stop_id": 1819, "stop_name": "SE Foster & 82nd", "jurisdic": "Portland", "zipcode": "97206", "frequent": "True" }, "geometry": { "type": "Point", "coordinates": [ -122.579387328612214, 45.482899165255134 ] } },
{ "type": "Feature", "properties": { "rte": 14, "dir": 0, "rte_desc": "14-Hawthorne", "dir_desc": "To Foster & 94th", "type": "BUS", "stop_seq": 2600, "stop_id": 1821, "stop_name": "SE Foster & 85th", "jurisdic": "Portland", "zipcode": "97266", "frequent": "True" }, "geometry": { "type": "Point", "coordinates": [ -122.576020589786836, 45.481828050896006 ] } },
{ "type": "Feature", "properties": { "rte": 14, "dir": 0, "rte_desc": "14-Hawthorne", "dir_desc": "To Foster & 94th", "type": "BUS", "stop_seq": 2650, "stop_id": 1823, "stop_name": "SE Foster & 86th", "jurisdic": "Portland", "zipcode": "97266", "frequent": "True" }, "geometry": { "type": "Point", "coordinates": [ -122.574397265523842, 45.481429767409558 ] } },
{ "type": "Feature", "properties": { "rte": 14, "dir": 0, "rte_desc": "14-Hawthorne", "dir_desc": "To Foster & 94th", "type": "BUS", "stop_seq": 2700, "stop_id": 1827, "stop_name": "SE Foster & 89th", "jurisdic": "Portland", "zipcode": "97266", "frequent": "True" }, "geometry": { "type": "Point", "coordinates": [ -122.571108452567628, 45.48048292741391 ] } },
{ "type": "Feature", "properties": { "rte": 14, "dir": 0, "rte_desc": "14-Hawthorne", "dir_desc": "To Foster & 94th", "type": "BUS", "stop_seq": 400, "stop_id": 3639, "stop_name": "SW Madison & 4th", "jurisdic": "Portland", "zipcode": "97204", "frequent": "True" }, "geometry": { "type": "Point", "coordinates": [ -122.67857274754661, 45.515189181049628 ] } },
{ "type": "Feature", "properties": { "rte": 14, "dir": 0, "rte_desc": "14-Hawthorne", "dir_desc": "To Foster & 94th", "type": "BUS", "stop_seq": 550, "stop_id": 2594, "stop_name": "SE Hawthorne & 6th", "jurisdic": "Portland", "zipcode": "97214", "frequent": "True" }, "geometry": { "type": "Point", "coordinates": [ -122.659893779551169, 45.51216771152518 ] } },
{ "type": "Feature", "properties": { "rte": 14, "dir": 0, "rte_desc": "14-Hawthorne", "dir_desc": "To Foster & 94th", "type": "BUS", "stop_seq": 800, "stop_id": 2596, "stop_name": "SE Hawthorne & Poplar", "jurisdic": "Portland", "zipcode": "97214", "frequent": "True" }, "geometry": { "type": "Point", "coordinates": [ -122.647128409763653, 45.512118556543513 ] } },
{ "type": "Feature", "properties": { "rte": 14, "dir": 0, "rte_desc": "14-Hawthorne", "dir_desc": "To Foster & 94th", "type": "BUS", "stop_seq": 600, "stop_id": 2597, "stop_name": "SE Hawthorne & 9th", "jurisdic": "Portland", "zipcode": "97214", "frequent": "True" }, "geometry": { "type": "Point", "coordinates": [ -122.656877650244141, 45.5121561190617 ] } },
{ "type": "Feature", "properties": { "rte": 14, "dir": 0, "rte_desc": "14-Hawthorne", "dir_desc": "To Foster & 94th", "type": "BUS", "stop_seq": 850, "stop_id": 2607, "stop_name": "SE Hawthorne & 20th", "jurisdic": "Portland", "zipcode": "97214", "frequent": "True" }, "geometry": { "type": "Point", "coordinates": [ -122.644674715898972, 45.512010036965144 ] } },
{ "type": "Feature", "properties": { "rte": 14, "dir": 0, "rte_desc": "14-Hawthorne", "dir_desc": "To Foster & 94th", "type": "BUS", "stop_seq": 900, "stop_id": 2608, "stop_name": "SE Hawthorne & 23rd", "jurisdic": "Portland", "zipcode": "97214", "frequent": "True" }, "geometry": { "type": "Point", "coordinates": [ -122.642332695463125, 45.51200682772312 ] } },
{ "type": "Feature", "properties": { "rte": 14, "dir": 0, "rte_desc": "14-Hawthorne", "dir_desc": "To Foster & 94th", "type": "BUS", "stop_seq": 950, "stop_id": 2612, "stop_name": "SE Hawthorne & 25th", "jurisdic": "Portland", "zipcode": "97214", "frequent": "True" }, "geometry": { "type": "Point", "coordinates": [ -122.640090799424428, 45.512015380906334 ] } },
{ "type": "Feature", "properties": { "rte": 14, "dir": 0, "rte_desc": "14-Hawthorne", "dir_desc": "To Foster & 94th", "type": "BUS", "stop_seq": 1050, "stop_id": 2615, "stop_name": "SE Hawthorne & 30th", "jurisdic": "Portland", "zipcode": "97214", "frequent": "True" }, "geometry": { "type": "Point", "coordinates": [ -122.634913952912257, 45.512005579441009 ] } },
{ "type": "Feature", "properties": { "rte": 14, "dir": 0, "rte_desc": "14-Hawthorne", "dir_desc": "To Foster & 94th", "type": "BUS", "stop_seq": 1100, "stop_id": 2617, "stop_name": "SE Hawthorne & 32nd Pl", "jurisdic": "Portland", "zipcode": "97214", "frequent": "True" }, "geometry": { "type": "Point", "coordinates": [ -122.631285624735128, 45.511992677784185 ] } },
{ "type": "Feature", "properties": { "rte": 14, "dir": 0, "rte_desc": "14-Hawthorne", "dir_desc": "To Foster & 94th", "type": "BUS", "stop_seq": 1150, "stop_id": 2620, "stop_name": "SE Hawthorne & 34th", "jurisdic": "Portland", "zipcode": "97214", "frequent": "True" }, "geometry": { "type": "Point", "coordinates": [ -122.629337879419452, 45.511998699416459 ] } },
{ "type": "Feature", "properties": { "rte": 14, "dir": 0, "rte_desc": "14-Hawthorne", "dir_desc": "To Foster & 94th", "type": "BUS", "stop_seq": 1200, "stop_id": 2623, "stop_name": "SE Hawthorne & 37th", "jurisdic": "Portland", "zipcode": "97214", "frequent": "True" }, "geometry": { "type": "Point", "coordinates": [ -122.625457457091329, 45.511977959171396 ] } },
{ "type": "Feature", "properties": { "rte": 14, "dir": 0, "rte_desc": "14-Hawthorne", "dir_desc": "To Foster & 94th", "type": "BUS", "stop_seq": 1300, "stop_id": 2628, "stop_name": "SE Hawthorne & 41st", "jurisdic": "Portland", "zipcode": "97214", "frequent": "True" }, "geometry": { "type": "Point", "coordinates": [ -122.620348525627065, 45.511975645205368 ] } },
{ "type": "Feature", "properties": { "rte": 14, "dir": 0, "rte_desc": "14-Hawthorne", "dir_desc": "To Foster & 94th", "type": "BUS", "stop_seq": 1350, "stop_id": 2630, "stop_name": "SE Hawthorne & 44th", "jurisdic": "Portland", "zipcode": "97215", "frequent": "True" }, "geometry": { "type": "Point", "coordinates": [ -122.617292527749115, 45.511974062354192 ] } },
{ "type": "Feature", "properties": { "rte": 14, "dir": 0, "rte_desc": "14-Hawthorne", "dir_desc": "To Foster & 94th", "type": "BUS", "stop_seq": 1400, "stop_id": 2633, "stop_name": "SE Hawthorne & 47th", "jurisdic": "Portland", "zipcode": "97215", "frequent": "True" }, "geometry": { "type": "Point", "coordinates": [ -122.613831649707791, 45.511961265080593 ] } },
{ "type": "Feature", "properties": { "rte": 14, "dir": 0, "rte_desc": "14-Hawthorne", "dir_desc": "To Foster & 94th", "type": "BUS", "stop_seq": 500, "stop_id": 2641, "stop_name": "Hawthorne Bridge", "jurisdic": "Portland", "zipcode": "97214", "frequent": "True" }, "geometry": { "type": "Point", "coordinates": [ -122.665111779537924, 45.512157008407463 ] } },
{ "type": "Feature", "properties": { "rte": 14, "dir": 0, "rte_desc": "14-Hawthorne", "dir_desc": "To Foster & 94th", "type": "BUS", "stop_seq": 1750, "stop_id": 8241, "stop_name": "SE 50th & Brooklyn", "jurisdic": "Portland", "zipcode": "97206", "frequent": "True" }, "geometry": { "type": "Point", "coordinates": [ -122.6114643306978, 45.500690071958026 ] } },
{ "type": "Feature", "properties": { "rte": 14, "dir": 0, "rte_desc": "14-Hawthorne", "dir_desc": "To Foster & 94th", "type": "BUS", "stop_seq": 2750, "stop_id": 6427, "stop_name": "SE Woodstock & 92nd", "jurisdic": "Portland", "zipcode": "97266", "frequent": "True" }, "geometry": { "type": "Point", "coordinates": [ -122.568789631471986, 45.479066485406875 ] } },
{ "type": "Feature", "properties": { "rte": 14, "dir": 0, "rte_desc": "14-Hawthorne", "dir_desc": "To Foster & 94th", "type": "BUS", "stop_seq": 1450, "stop_id": 7651, "stop_name": "SE 50th & Clay", "jurisdic": "Portland", "zipcode": "97215", "frequent": "True" }, "geometry": { "type": "Point", "coordinates": [ -122.611615248389924, 45.511383808292941 ] } },
{ "type": "Feature", "properties": { "rte": 14, "dir": 0, "rte_desc": "14-Hawthorne", "dir_desc": "To Foster & 94th", "type": "BUS", "stop_seq": 1700, "stop_id": 7653, "stop_name": "SE 50th & Clinton", "jurisdic": "Portland", "zipcode": "97206", "frequent": "True" }, "geometry": { "type": "Point", "coordinates": [ -122.61108438881827, 45.503588795775023 ] } },
{ "type": "Feature", "properties": { "rte": 14, "dir": 0, "rte_desc": "14-Hawthorne", "dir_desc": "To Foster & 94th", "type": "BUS", "stop_seq": 1800, "stop_id": 7666, "stop_name": "SE 50th & Kelly", "jurisdic": "Portland", "zipcode": "97206", "frequent": "True" }, "geometry": { "type": "Point", "coordinates": [ -122.611442878229468, 45.499435685656543 ] } },
{ "type": "Feature", "properties": { "rte": 14, "dir": 0, "rte_desc": "14-Hawthorne", "dir_desc": "To Foster & 94th", "type": "BUS", "stop_seq": 1550, "stop_id": 7660, "stop_name": "SE 50th & Lincoln", "jurisdic": "Portland", "zipcode": "97215", "frequent": "True" }, "geometry": { "type": "Point", "coordinates": [ -122.611380077401705, 45.508110507186721 ] } },
{ "type": "Feature", "properties": { "rte": 14, "dir": 0, "rte_desc": "14-Hawthorne", "dir_desc": "To Foster & 94th", "type": "BUS", "stop_seq": 650, "stop_id": 2599, "stop_name": "SE Hawthorne & 12th", "jurisdic": "Portland", "zipcode": "97214", "frequent": "True" }, "geometry": { "type": "Point", "coordinates": [ -122.65387065934803, 45.512135914648404 ] } },
{ "type": "Feature", "properties": { "rte": 14, "dir": 0, "rte_desc": "14-Hawthorne", "dir_desc": "To Foster & 94th", "type": "BUS", "stop_seq": 1650, "stop_id": 7655, "stop_name": "SE 50th & Division", "jurisdic": "Portland", "zipcode": "97206", "frequent": "True" }, "geometry": { "type": "Point", "coordinates": [ -122.611283821362221, 45.505510804854893 ] } },
{ "type": "Feature", "properties": { "rte": 14, "dir": 0, "rte_desc": "14-Hawthorne", "dir_desc": "To Foster & 94th", "type": "BUS", "stop_seq": 450, "stop_id": 3635, "stop_name": "SW Madison & 1st", "jurisdic": "Portland", "zipcode": "97204", "frequent": "True" }, "geometry": { "type": "Point", "coordinates": [ -122.675838874220844, 45.514455223325101 ] } },
{ "type": "Feature", "properties": { "rte": 14, "dir": 0, "rte_desc": "14-Hawthorne", "dir_desc": "To Foster & 94th", "type": "BUS", "stop_seq": 2850, "stop_id": 8134, "stop_name": "SE 97th & Foster", "jurisdic": "Portland", "zipcode": "97266", "frequent": "True" }, "geometry": { "type": "Point", "coordinates": [ -122.563368449586818, 45.478176491196123 ] } },
{ "type": "Feature", "properties": { "rte": 14, "dir": 0, "rte_desc": "14-Hawthorne", "dir_desc": "To Foster & 94th", "type": "BUS", "stop_seq": 2150, "stop_id": 10196, "stop_name": "SE Foster & 63rd", "jurisdic": "Portland", "zipcode": "97206", "frequent": "True" }, "geometry": { "type": "Point", "coordinates": [ -122.598098039556845, 45.490101803419343 ] } },
{ "type": "Feature", "properties": { "rte": 14, "dir": 0, "rte_desc": "14-Hawthorne", "dir_desc": "To Foster & 94th", "type": "BUS", "stop_seq": 2250, "stop_id": 1804, "stop_name": "SE Foster & 67th", "jurisdic": "Portland", "zipcode": "97206", "frequent": "True" }, "geometry": { "type": "Point", "coordinates": [ -122.593837113302712, 45.488339340751146 ] } },
{ "type": "Feature", "properties": { "rte": 14, "dir": 0, "rte_desc": "14-Hawthorne", "dir_desc": "To Foster & 94th", "type": "BUS", "stop_seq": 2900, "stop_id": 1831, "stop_name": "SE Foster & 94th (I-205 Overpass)", "jurisdic": "Portland", "zipcode": "97266", "frequent": "True" }, "geometry": { "type": "Point", "coordinates": [ -122.56624631178272, 45.479259380523082 ] } },
{ "type": "Feature", "properties": { "rte": 14, "dir": 0, "rte_desc": "14-Hawthorne", "dir_desc": "To Foster & 94th", "type": "BUS", "stop_seq": 2800, "stop_id": 6398, "stop_name": "SE Woodstock & 94th (I-205 West End)", "jurisdic": "Portland", "zipcode": "97266", "frequent": "True" }, "geometry": { "type": "Point", "coordinates": [ -122.566121324760417, 45.478268697229751 ] } },
{ "type": "Feature", "properties": { "rte": 14, "dir": 0, "rte_desc": "14-Hawthorne", "dir_desc": "To Foster & 94th", "type": "BUS", "stop_seq": 2000, "stop_id": 12946, "stop_name": "SE Foster & 56th", "jurisdic": "Portland", "zipcode": "97206", "frequent": "True" }, "geometry": { "type": "Point", "coordinates": [ -122.60494864926001, 45.493682592284472 ] } },
{ "type": "Feature", "properties": { "rte": 14, "dir": 0, "rte_desc": "14-Hawthorne", "dir_desc": "To Foster & 94th", "type": "BUS", "stop_seq": 700, "stop_id": 2595, "stop_name": "SE Hawthorne & Maple", "jurisdic": "Portland", "zipcode": "97214", "frequent": "True" }, "geometry": { "type": "Point", "coordinates": [ -122.651570937538793, 45.512136075744898 ] } },
{ "type": "Feature", "properties": { "rte": 14, "dir": 0, "rte_desc": "14-Hawthorne", "dir_desc": "To Foster & 94th", "type": "BUS", "stop_seq": 1250, "stop_id": 2625, "stop_name": "SE Hawthorne & Cesar Chavez Blvd", "jurisdic": "Portland", "zipcode": "97214", "frequent": "True" }, "geometry": { "type": "Point", "coordinates": [ -122.623079750795853, 45.511959484190363 ] } },
{ "type": "Feature", "properties": { "rte": 14, "dir": 0, "rte_desc": "14-Hawthorne", "dir_desc": "To Foster & 94th", "type": "BUS", "stop_seq": 750, "stop_id": 2603, "stop_name": "SE Hawthorne & 16th", "jurisdic": "Portland", "zipcode": "97214", "frequent": "True" }, "geometry": { "type": "Point", "coordinates": [ -122.64912509948968, 45.512128940221892 ] } },
{ "type": "Feature", "properties": { "rte": 14, "dir": 0, "rte_desc": "14-Hawthorne", "dir_desc": "To Foster & 94th", "type": "BUS", "stop_seq": 2100, "stop_id": 12947, "stop_name": "SE Foster & 61st", "jurisdic": "Portland", "zipcode": "97206", "frequent": "True" }, "geometry": { "type": "Point", "coordinates": [ -122.600330061550466, 45.491168028676114 ] } },
{ "type": "Feature", "properties": { "rte": 14, "dir": 0, "rte_desc": "14-Hawthorne", "dir_desc": "To Foster & 94th", "type": "BUS", "stop_seq": 1500, "stop_id": 7662, "stop_name": "SE 50th & Mill", "jurisdic": "Portland", "zipcode": "97215", "frequent": "True" }, "geometry": { "type": "Point", "coordinates": [ -122.611513965511008, 45.510091232424067 ] } },
{ "type": "Feature", "properties": { "rte": 14, "dir": 0, "rte_desc": "14-Hawthorne", "dir_desc": "To Foster & 94th", "type": "BUS", "stop_seq": 1000, "stop_id": 2614, "stop_name": "SE Hawthorne & 28th", "jurisdic": "Portland", "zipcode": "97214", "frequent": "True" }, "geometry": { "type": "Point", "coordinates": [ -122.637048014974241, 45.512010605501743 ] } }
]
}
