{
"type": "FeatureCollection",
"crs": { "type": "name", "properties": { "name": "urn:ogc:def:crs:OGC:1.3:CRS84" } },
                                                                                
"features": [
{ "type": "Feature", "properties": { "rte": 152, "dir": 1, "rte_desc": "152-Milwaukie", "dir_desc": "To Milwaukie", "type": "BUS", "stop_seq": 695, "stop_id": 2570, "stop_name": "SE Harrison & 24th", "jurisdic": "Milwaukie", "zipcode": "97222", "frequent": "False" }, "geometry": { "type": "Point", "coordinates": [ -122.638044743482524, 45.446469062472005 ] } },
{ "type": "Feature", "properties": { "rte": 152, "dir": 1, "rte_desc": "152-Milwaukie", "dir_desc": "To Milwaukie", "type": "BUS", "stop_seq": 693, "stop_id": 2571, "stop_name": "2700 Block SE Harrison", "jurisdic": "Milwaukie", "zipcode": "97222", "frequent": "False" }, "geometry": { "type": "Point", "coordinates": [ -122.635709427033547, 45.446515396574576 ] } },
{ "type": "Feature", "properties": { "rte": 152, "dir": 1, "rte_desc": "152-Milwaukie", "dir_desc": "To Milwaukie", "type": "BUS", "stop_seq": 350, "stop_id": 3323, "stop_name": "6200 Block SE Lake", "jurisdic": "Clackamas Co.", "zipcode": "97222", "frequent": "False" }, "geometry": { "type": "Point", "coordinates": [ -122.599071995337411, 45.429534369638311 ] } },
{ "type": "Feature", "properties": { "rte": 152, "dir": 1, "rte_desc": "152-Milwaukie", "dir_desc": "To Milwaukie", "type": "BUS", "stop_seq": 450, "stop_id": 3329, "stop_name": "SE Lake & Harmony", "jurisdic": "Clackamas Co.", "zipcode": "97222", "frequent": "False" }, "geometry": { "type": "Point", "coordinates": [ -122.603276896494094, 45.43048249118096 ] } },
{ "type": "Feature", "properties": { "rte": 152, "dir": 1, "rte_desc": "152-Milwaukie", "dir_desc": "To Milwaukie", "type": "BUS", "stop_seq": 400, "stop_id": 3340, "stop_name": "SE Lake & Rusk", "jurisdic": "Clackamas Co.", "zipcode": "97222", "frequent": "False" }, "geometry": { "type": "Point", "coordinates": [ -122.600873255325411, 45.430242613714995 ] } },
{ "type": "Feature", "properties": { "rte": 152, "dir": 1, "rte_desc": "152-Milwaukie", "dir_desc": "To Milwaukie", "type": "BUS", "stop_seq": 475, "stop_id": 10939, "stop_name": "5600 Block SE International Way", "jurisdic": "Milwaukie", "zipcode": "97222", "frequent": "False" }, "geometry": { "type": "Point", "coordinates": [ -122.605918465365221, 45.431687895209102 ] } },
{ "type": "Feature", "properties": { "rte": 152, "dir": 1, "rte_desc": "152-Milwaukie", "dir_desc": "To Milwaukie", "type": "BUS", "stop_seq": 125, "stop_id": 10942, "stop_name": "SE Lake & Tiara Dr", "jurisdic": "Clackamas Co.", "zipcode": "97267", "frequent": "False" }, "geometry": { "type": "Point", "coordinates": [ -122.58714671151948, 45.423087886258422 ] } },
{ "type": "Feature", "properties": { "rte": 152, "dir": 1, "rte_desc": "152-Milwaukie", "dir_desc": "To Milwaukie", "type": "BUS", "stop_seq": 150, "stop_id": 8162, "stop_name": "SE Lake & Matilda", "jurisdic": "Clackamas Co.", "zipcode": "97267", "frequent": "False" }, "geometry": { "type": "Point", "coordinates": [ -122.588843552397805, 45.423175498696096 ] } },
{ "type": "Feature", "properties": { "rte": 152, "dir": 1, "rte_desc": "152-Milwaukie", "dir_desc": "To Milwaukie", "type": "BUS", "stop_seq": 200, "stop_id": 8163, "stop_name": "6900 Block SE Lake", "jurisdic": "Clackamas Co.", "zipcode": "97267", "frequent": "False" }, "geometry": { "type": "Point", "coordinates": [ -122.592040906195294, 45.423427112867131 ] } },
{ "type": "Feature", "properties": { "rte": 152, "dir": 1, "rte_desc": "152-Milwaukie", "dir_desc": "To Milwaukie", "type": "BUS", "stop_seq": 600, "stop_id": 8166, "stop_name": "4500 Block SE International Way", "jurisdic": "Milwaukie", "zipcode": "97222", "frequent": "False" }, "geometry": { "type": "Point", "coordinates": [ -122.616751649139104, 45.435961658854353 ] } },
{ "type": "Feature", "properties": { "rte": 152, "dir": 1, "rte_desc": "152-Milwaukie", "dir_desc": "To Milwaukie", "type": "BUS", "stop_seq": 650, "stop_id": 8167, "stop_name": "SE International Way & 40th", "jurisdic": "Milwaukie", "zipcode": "97222", "frequent": "False" }, "geometry": { "type": "Point", "coordinates": [ -122.621964809083707, 45.439560235996915 ] } },
{ "type": "Feature", "properties": { "rte": 152, "dir": 1, "rte_desc": "152-Milwaukie", "dir_desc": "To Milwaukie", "type": "BUS", "stop_seq": 410, "stop_id": 9258, "stop_name": "5700 Block SE Kellogg Creek Dr", "jurisdic": "Clackamas Co.", "zipcode": "97222", "frequent": "False" }, "geometry": { "type": "Point", "coordinates": [ -122.604646512572828, 45.426125557468367 ] } },
{ "type": "Feature", "properties": { "rte": 152, "dir": 1, "rte_desc": "152-Milwaukie", "dir_desc": "To Milwaukie", "type": "BUS", "stop_seq": 700, "stop_id": 8225, "stop_name": "SE Jackson & 21st", "jurisdic": "Milwaukie", "zipcode": "97222", "frequent": "False" }, "geometry": { "type": "Point", "coordinates": [ -122.640490505678372, 45.444826836377771 ] } },
{ "type": "Feature", "properties": { "rte": 152, "dir": 1, "rte_desc": "152-Milwaukie", "dir_desc": "To Milwaukie", "type": "BUS", "stop_seq": 675, "stop_id": 9329, "stop_name": "Milwaukie Marketplace & Albertsons", "jurisdic": "Milwaukie", "zipcode": "97222", "frequent": "False" }, "geometry": { "type": "Point", "coordinates": [ -122.62750754463444, 45.44376399180284 ] } },
{ "type": "Feature", "properties": { "rte": 152, "dir": 1, "rte_desc": "152-Milwaukie", "dir_desc": "To Milwaukie", "type": "BUS", "stop_seq": 225, "stop_id": 10644, "stop_name": "SE Lake & Hwy 224", "jurisdic": "Clackamas Co.", "zipcode": "97222", "frequent": "False" }, "geometry": { "type": "Point", "coordinates": [ -122.592875764744932, 45.424974626129277 ] } },
{ "type": "Feature", "properties": { "rte": 152, "dir": 1, "rte_desc": "152-Milwaukie", "dir_desc": "To Milwaukie", "type": "BUS", "stop_seq": 50, "stop_id": 8006, "stop_name": "SE 82nd & McBride", "jurisdic": "Clackamas Co.", "zipcode": "97222", "frequent": "False" }, "geometry": { "type": "Point", "coordinates": [ -122.579260427224071, 45.43593930435523 ] } },
{ "type": "Feature", "properties": { "rte": 152, "dir": 1, "rte_desc": "152-Milwaukie", "dir_desc": "To Milwaukie", "type": "BUS", "stop_seq": 690, "stop_id": 2573, "stop_name": "SE Harrison & 29th", "jurisdic": "Milwaukie", "zipcode": "97222", "frequent": "False" }, "geometry": { "type": "Point", "coordinates": [ -122.633353580176305, 45.44659236769553 ] } },
{ "type": "Feature", "properties": { "rte": 152, "dir": 1, "rte_desc": "152-Milwaukie", "dir_desc": "To Milwaukie", "type": "BUS", "stop_seq": 660, "stop_id": 9810, "stop_name": "Milwaukie Marketplace & 37th", "jurisdic": "Milwaukie", "zipcode": "97222", "frequent": "False" }, "geometry": { "type": "Point", "coordinates": [ -122.625324941904836, 45.441732898923185 ] } },
{ "type": "Feature", "properties": { "rte": 152, "dir": 1, "rte_desc": "152-Milwaukie", "dir_desc": "To Milwaukie", "type": "BUS", "stop_seq": 70, "stop_id": 7975, "stop_name": "SE 82nd & Harmony", "jurisdic": "Clackamas Co.", "zipcode": "97015", "frequent": "False" }, "geometry": { "type": "Point", "coordinates": [ -122.579440408021256, 45.432221527659792 ] } },
{ "type": "Feature", "properties": { "rte": 152, "dir": 1, "rte_desc": "152-Milwaukie", "dir_desc": "To Milwaukie", "type": "BUS", "stop_seq": 550, "stop_id": 8165, "stop_name": "4900 Block SE International Way (Blount)", "jurisdic": "Milwaukie", "zipcode": "97222", "frequent": "False" }, "geometry": { "type": "Point", "coordinates": [ -122.613661376439055, 45.434010448830271 ] } },
{ "type": "Feature", "properties": { "rte": 152, "dir": 1, "rte_desc": "152-Milwaukie", "dir_desc": "To Milwaukie", "type": "BUS", "stop_seq": 500, "stop_id": 8164, "stop_name": "SE International Way & Mallard", "jurisdic": "Milwaukie", "zipcode": "97222", "frequent": "False" }, "geometry": { "type": "Point", "coordinates": [ -122.609437978162049, 45.432938691604534 ] } },
{ "type": "Feature", "properties": { "rte": 152, "dir": 1, "rte_desc": "152-Milwaukie", "dir_desc": "To Milwaukie", "type": "BUS", "stop_seq": 250, "stop_id": 3337, "stop_name": "6600 Block SE Lake", "jurisdic": "Clackamas Co.", "zipcode": "97222", "frequent": "False" }, "geometry": { "type": "Point", "coordinates": [ -122.595897163033285, 45.426642114237012 ] } },
{ "type": "Feature", "properties": { "rte": 152, "dir": 1, "rte_desc": "152-Milwaukie", "dir_desc": "To Milwaukie", "type": "BUS", "stop_seq": 300, "stop_id": 9615, "stop_name": "6400 Block SE Lake", "jurisdic": "Clackamas Co.", "zipcode": "97222", "frequent": "False" }, "geometry": { "type": "Point", "coordinates": [ -122.596882235565104, 45.42756539174011 ] } },
{ "type": "Feature", "properties": { "rte": 152, "dir": 1, "rte_desc": "152-Milwaukie", "dir_desc": "To Milwaukie", "type": "BUS", "stop_seq": 85, "stop_id": 10446, "stop_name": "SE 82nd & Sunnybrook", "jurisdic": "Clackamas Co.", "zipcode": "97015", "frequent": "False" }, "geometry": { "type": "Point", "coordinates": [ -122.579328924243256, 45.430332496234676 ] } },
{ "type": "Feature", "properties": { "rte": 152, "dir": 1, "rte_desc": "152-Milwaukie", "dir_desc": "To Milwaukie", "type": "BUS", "stop_seq": 630, "stop_id": 10490, "stop_name": "SE International Way & Criterion Ct", "jurisdic": "Milwaukie", "zipcode": "97222", "frequent": "False" }, "geometry": { "type": "Point", "coordinates": [ -122.618632653985415, 45.438173484336268 ] } },
{ "type": "Feature", "properties": { "rte": 152, "dir": 1, "rte_desc": "152-Milwaukie", "dir_desc": "To Milwaukie", "type": "BUS", "stop_seq": 403, "stop_id": 10504, "stop_name": "Milwaukie Center\/North Clackamas Park", "jurisdic": "Milwaukie", "zipcode": "97222", "frequent": "False" }, "geometry": { "type": "Point", "coordinates": [ -122.606423513770395, 45.426602930436076 ] } },
{ "type": "Feature", "properties": { "rte": 152, "dir": 1, "rte_desc": "152-Milwaukie", "dir_desc": "To Milwaukie", "type": "BUS", "stop_seq": 510, "stop_id": 9412, "stop_name": "Exceed Enterprises", "jurisdic": "Milwaukie", "zipcode": "97222", "frequent": "False" }, "geometry": { "type": "Point", "coordinates": [ -122.610061267075395, 45.435440076900967 ] } },
{ "type": "Feature", "properties": { "rte": 152, "dir": 1, "rte_desc": "152-Milwaukie", "dir_desc": "To Milwaukie", "type": "BUS", "stop_seq": 15, "stop_id": 13248, "stop_name": "Clackamas Town Center Transit Center", "jurisdic": "Clackamas Co.", "zipcode": "97086", "frequent": "False" }, "geometry": { "type": "Point", "coordinates": [ -122.568707452947379, 45.435669419483048 ] } },
{ "type": "Feature", "properties": { "rte": 152, "dir": 1, "rte_desc": "152-Milwaukie", "dir_desc": "To Milwaukie", "type": "BUS", "stop_seq": 100, "stop_id": 8161, "stop_name": "SE Lake & Johnson", "jurisdic": "Clackamas Co.", "zipcode": "97267", "frequent": "False" }, "geometry": { "type": "Point", "coordinates": [ -122.583025170147749, 45.42245631600683 ] } },
{ "type": "Feature", "properties": { "rte": 152, "dir": 1, "rte_desc": "152-Milwaukie", "dir_desc": "To Milwaukie", "type": "BUS", "stop_seq": 25, "stop_id": 12922, "stop_name": "Clackamas Town Center Mall", "jurisdic": "Clackamas Co.", "zipcode": "97086", "frequent": "False" }, "geometry": { "type": "Point", "coordinates": [ -122.574003185804656, 45.437506594559366 ] } },
{ "type": "Feature", "properties": { "rte": 152, "dir": 1, "rte_desc": "152-Milwaukie", "dir_desc": "To Milwaukie", "type": "BUS", "stop_seq": 65, "stop_id": 8050, "stop_name": "SE 82nd & Sunnyside Dr", "jurisdic": "Clackamas Co.", "zipcode": "97222", "frequent": "False" }, "geometry": { "type": "Point", "coordinates": [ -122.579366489749205, 45.433749620366022 ] } }
]
}
