{
"type": "FeatureCollection",
"crs": { "type": "name", "properties": { "name": "urn:ogc:def:crs:OGC:1.3:CRS84" } },
                                                                                
"features": [
{ "type": "Feature", "properties": { "rte": 155, "dir": 1, "rte_desc": "155-Sunnyside", "dir_desc": "To Clackamas Town Center", "type": "BUS", "stop_seq": 40, "stop_id": 10135, "stop_name": "SE Sunnyside & 122nd", "jurisdic": "Happy Valley", "zipcode": "97086", "frequent": "False" }, "geometry": { "type": "Point", "coordinates": [ -122.537611593116708, 45.428882576350013 ] } },
{ "type": "Feature", "properties": { "rte": 155, "dir": 1, "rte_desc": "155-Sunnyside", "dir_desc": "To Clackamas Town Center", "type": "BUS", "stop_seq": 30, "stop_id": 10139, "stop_name": "SE Sunnyside & 132nd", "jurisdic": "Happy Valley", "zipcode": "97086", "frequent": "False" }, "geometry": { "type": "Point", "coordinates": [ -122.527412350772337, 45.426809516981194 ] } },
{ "type": "Feature", "properties": { "rte": 155, "dir": 1, "rte_desc": "155-Sunnyside", "dir_desc": "To Clackamas Town Center", "type": "BUS", "stop_seq": 20, "stop_id": 10143, "stop_name": "SE Sunnyside & 142nd", "jurisdic": "Happy Valley", "zipcode": "97086", "frequent": "False" }, "geometry": { "type": "Point", "coordinates": [ -122.516664971746351, 45.425036626543161 ] } },
{ "type": "Feature", "properties": { "rte": 155, "dir": 1, "rte_desc": "155-Sunnyside", "dir_desc": "To Clackamas Town Center", "type": "BUS", "stop_seq": 15, "stop_id": 10145, "stop_name": "SE Sunnyside & 145th", "jurisdic": "Happy Valley", "zipcode": "97015", "frequent": "False" }, "geometry": { "type": "Point", "coordinates": [ -122.514539683718596, 45.425012830459295 ] } },
{ "type": "Feature", "properties": { "rte": 155, "dir": 1, "rte_desc": "155-Sunnyside", "dir_desc": "To Clackamas Town Center", "type": "BUS", "stop_seq": 50, "stop_id": 10214, "stop_name": "SE Sunnyside & Valley View Terr", "jurisdic": "Happy Valley", "zipcode": "97086", "frequent": "False" }, "geometry": { "type": "Point", "coordinates": [ -122.548461227343452, 45.433421943729478 ] } },
{ "type": "Feature", "properties": { "rte": 155, "dir": 1, "rte_desc": "155-Sunnyside", "dir_desc": "To Clackamas Town Center", "type": "BUS", "stop_seq": 45, "stop_id": 10216, "stop_name": "SE Sunnyside & 119th", "jurisdic": "Happy Valley", "zipcode": "97015", "frequent": "False" }, "geometry": { "type": "Point", "coordinates": [ -122.540856415331774, 45.430451188892867 ] } },
{ "type": "Feature", "properties": { "rte": 155, "dir": 1, "rte_desc": "155-Sunnyside", "dir_desc": "To Clackamas Town Center", "type": "BUS", "stop_seq": 100, "stop_id": 11928, "stop_name": "SE Sunnyside & Sunnybrook", "jurisdic": "Clackamas Co.", "zipcode": "97086", "frequent": "False" }, "geometry": { "type": "Point", "coordinates": [ -122.551781341987052, 45.433842607731727 ] } },
{ "type": "Feature", "properties": { "rte": 155, "dir": 1, "rte_desc": "155-Sunnyside", "dir_desc": "To Clackamas Town Center", "type": "BUS", "stop_seq": 225, "stop_id": 11927, "stop_name": "SE Bob Schumacher & Monterey", "jurisdic": "Clackamas Co.", "zipcode": "97086", "frequent": "False" }, "geometry": { "type": "Point", "coordinates": [ -122.566416659151713, 45.437325442812266 ] } },
{ "type": "Feature", "properties": { "rte": 155, "dir": 1, "rte_desc": "155-Sunnyside", "dir_desc": "To Clackamas Town Center", "type": "BUS", "stop_seq": 200, "stop_id": 11454, "stop_name": "10100 Block SE Stevens Rd", "jurisdic": "Clackamas Co.", "zipcode": "97086", "frequent": "False" }, "geometry": { "type": "Point", "coordinates": [ -122.562141223564922, 45.435185229016199 ] } },
{ "type": "Feature", "properties": { "rte": 155, "dir": 1, "rte_desc": "155-Sunnyside", "dir_desc": "To Clackamas Town Center", "type": "BUS", "stop_seq": 25, "stop_id": 10141, "stop_name": "SE Sunnyside & 140th", "jurisdic": "Happy Valley", "zipcode": "97086", "frequent": "False" }, "geometry": { "type": "Point", "coordinates": [ -122.520573577501665, 45.425133478914837 ] } },
{ "type": "Feature", "properties": { "rte": 155, "dir": 1, "rte_desc": "155-Sunnyside", "dir_desc": "To Clackamas Town Center", "type": "BUS", "stop_seq": 150, "stop_id": 11929, "stop_name": "SE Sunnyside & 105th", "jurisdic": "Clackamas Co.", "zipcode": "97086", "frequent": "False" }, "geometry": { "type": "Point", "coordinates": [ -122.555089017968456, 45.433788249995629 ] } },
{ "type": "Feature", "properties": { "rte": 155, "dir": 1, "rte_desc": "155-Sunnyside", "dir_desc": "To Clackamas Town Center", "type": "BUS", "stop_seq": 46, "stop_id": 10592, "stop_name": "SE Sunnyside & 117th", "jurisdic": "Clackamas Co.", "zipcode": "97086", "frequent": "False" }, "geometry": { "type": "Point", "coordinates": [ -122.543586727582309, 45.431781496247801 ] } },
{ "type": "Feature", "properties": { "rte": 155, "dir": 1, "rte_desc": "155-Sunnyside", "dir_desc": "To Clackamas Town Center", "type": "BUS", "stop_seq": 1, "stop_id": 12902, "stop_name": "SE Sunnyside & 157th", "jurisdic": "Happy Valley", "zipcode": "97086", "frequent": "False" }, "geometry": { "type": "Point", "coordinates": [ -122.501338656253324, 45.426983648537416 ] } },
{ "type": "Feature", "properties": { "rte": 155, "dir": 1, "rte_desc": "155-Sunnyside", "dir_desc": "To Clackamas Town Center", "type": "BUS", "stop_seq": 2, "stop_id": 12903, "stop_name": "SE Sunnyside & 152nd", "jurisdic": "Happy Valley", "zipcode": "97086", "frequent": "False" }, "geometry": { "type": "Point", "coordinates": [ -122.507814007730971, 45.425259370008334 ] } },
{ "type": "Feature", "properties": { "rte": 155, "dir": 1, "rte_desc": "155-Sunnyside", "dir_desc": "To Clackamas Town Center", "type": "BUS", "stop_seq": 175, "stop_id": 13077, "stop_name": "Kaiser Sunnyside Medical Center", "jurisdic": "Clackamas Co.", "zipcode": "97015", "frequent": "False" }, "geometry": { "type": "Point", "coordinates": [ -122.56069211012364, 45.432106670296349 ] } },
{ "type": "Feature", "properties": { "rte": 155, "dir": 1, "rte_desc": "155-Sunnyside", "dir_desc": "To Clackamas Town Center", "type": "BUS", "stop_seq": 300, "stop_id": 13247, "stop_name": "Clackamas Town Center TC", "jurisdic": "Clackamas Co.", "zipcode": "97086", "frequent": "False" }, "geometry": { "type": "Point", "coordinates": [ -122.56813401888509, 45.435555074164469 ] } },
{ "type": "Feature", "properties": { "rte": 155, "dir": 1, "rte_desc": "155-Sunnyside", "dir_desc": "To Clackamas Town Center", "type": "BUS", "stop_seq": 400, "stop_id": 13248, "stop_name": "Clackamas Town Center Transit Center", "jurisdic": "Clackamas Co.", "zipcode": "97086", "frequent": "False" }, "geometry": { "type": "Point", "coordinates": [ -122.568707452947379, 45.435669419483048 ] } },
{ "type": "Feature", "properties": { "rte": 155, "dir": 1, "rte_desc": "155-Sunnyside", "dir_desc": "To Clackamas Town Center", "type": "BUS", "stop_seq": 250, "stop_id": 12921, "stop_name": "Clackamas Town Center Mall", "jurisdic": "Clackamas Co.", "zipcode": "97086", "frequent": "False" }, "geometry": { "type": "Point", "coordinates": [ -122.57331242700954, 45.437310329219926 ] } },
{ "type": "Feature", "properties": { "rte": 155, "dir": 1, "rte_desc": "155-Sunnyside", "dir_desc": "To Clackamas Town Center", "type": "BUS", "stop_seq": 10, "stop_id": 12923, "stop_name": "SE Sunnyside & Misty Dr", "jurisdic": "Happy Valley", "zipcode": "97015", "frequent": "False" }, "geometry": { "type": "Point", "coordinates": [ -122.513077698698865, 45.425008755412406 ] } },
{ "type": "Feature", "properties": { "rte": 155, "dir": 1, "rte_desc": "155-Sunnyside", "dir_desc": "To Clackamas Town Center", "type": "BUS", "stop_seq": 35, "stop_id": 10137, "stop_name": "SE Sunnyside & 128th", "jurisdic": "Happy Valley", "zipcode": "97086", "frequent": "False" }, "geometry": { "type": "Point", "coordinates": [ -122.531870718220006, 45.427452361619956 ] } }
]
}
