{
"type": "FeatureCollection",
"crs": { "type": "name", "properties": { "name": "urn:ogc:def:crs:OGC:1.3:CRS84" } },
                                                                                
"features": [
{ "type": "Feature", "properties": { "rte": 15, "dir": 1, "rte_desc": "15-Belmont\/NW 23rd", "dir_desc": "To Gateway Transit Center", "type": "BUS", "stop_seq": 3650, "stop_id": 6165, "stop_name": "SE Washington & 80th", "jurisdic": "Portland", "zipcode": "97215", "frequent": "True" }, "geometry": { "type": "Point", "coordinates": [ -122.581153340787409, 45.518343297110583 ] } },
{ "type": "Feature", "properties": { "rte": 15, "dir": 1, "rte_desc": "15-Belmont\/NW 23rd", "dir_desc": "To Gateway Transit Center", "type": "BUS", "stop_seq": 3700, "stop_id": 6166, "stop_name": "SE Washington & 82nd", "jurisdic": "Portland", "zipcode": "97216", "frequent": "True" }, "geometry": { "type": "Point", "coordinates": [ -122.578258457932378, 45.518326897999962 ] } },
{ "type": "Feature", "properties": { "rte": 15, "dir": 1, "rte_desc": "15-Belmont\/NW 23rd", "dir_desc": "To Gateway Transit Center", "type": "BUS", "stop_seq": 3750, "stop_id": 6167, "stop_name": "SE Washington & 86th", "jurisdic": "Portland", "zipcode": "97216", "frequent": "True" }, "geometry": { "type": "Point", "coordinates": [ -122.575140927391473, 45.518325893119716 ] } },
{ "type": "Feature", "properties": { "rte": 15, "dir": 1, "rte_desc": "15-Belmont\/NW 23rd", "dir_desc": "To Gateway Transit Center", "type": "BUS", "stop_seq": 3850, "stop_id": 6170, "stop_name": "SE Washington & 90th", "jurisdic": "Portland", "zipcode": "97216", "frequent": "True" }, "geometry": { "type": "Point", "coordinates": [ -122.571473165693519, 45.51829061595766 ] } },
{ "type": "Feature", "properties": { "rte": 15, "dir": 1, "rte_desc": "15-Belmont\/NW 23rd", "dir_desc": "To Gateway Transit Center", "type": "BUS", "stop_seq": 3950, "stop_id": 6171, "stop_name": "SE Washington & 92nd", "jurisdic": "Portland", "zipcode": "97216", "frequent": "True" }, "geometry": { "type": "Point", "coordinates": [ -122.568760965955761, 45.518270485254561 ] } },
{ "type": "Feature", "properties": { "rte": 15, "dir": 1, "rte_desc": "15-Belmont\/NW 23rd", "dir_desc": "To Gateway Transit Center", "type": "BUS", "stop_seq": 2000, "stop_id": 4028, "stop_name": "Morrison Bridge", "jurisdic": "Portland", "zipcode": "97214", "frequent": "True" }, "geometry": { "type": "Point", "coordinates": [ -122.666133922262134, 45.516465072145493 ] } },
{ "type": "Feature", "properties": { "rte": 15, "dir": 1, "rte_desc": "15-Belmont\/NW 23rd", "dir_desc": "To Gateway Transit Center", "type": "BUS", "stop_seq": 1200, "stop_id": 718, "stop_name": "W Burnside & SW St Clair", "jurisdic": "Portland", "zipcode": "97210", "frequent": "True" }, "geometry": { "type": "Point", "coordinates": [ -122.69699621827121, 45.523287559506493 ] } },
{ "type": "Feature", "properties": { "rte": 15, "dir": 1, "rte_desc": "15-Belmont\/NW 23rd", "dir_desc": "To Gateway Transit Center", "type": "BUS", "stop_seq": 1250, "stop_id": 749, "stop_name": "W Burnside & SW 21st", "jurisdic": "Portland", "zipcode": "97210", "frequent": "True" }, "geometry": { "type": "Point", "coordinates": [ -122.694488607853728, 45.523145449495949 ] } },
{ "type": "Feature", "properties": { "rte": 15, "dir": 1, "rte_desc": "15-Belmont\/NW 23rd", "dir_desc": "To Gateway Transit Center", "type": "BUS", "stop_seq": 2150, "stop_id": 400, "stop_name": "SE Belmont & 11th", "jurisdic": "Portland", "zipcode": "97214", "frequent": "True" }, "geometry": { "type": "Point", "coordinates": [ -122.65443325119962, 45.516433638707724 ] } },
{ "type": "Feature", "properties": { "rte": 15, "dir": 1, "rte_desc": "15-Belmont\/NW 23rd", "dir_desc": "To Gateway Transit Center", "type": "BUS", "stop_seq": 2250, "stop_id": 404, "stop_name": "SE Belmont & 17th", "jurisdic": "Portland", "zipcode": "97214", "frequent": "True" }, "geometry": { "type": "Point", "coordinates": [ -122.648674099338663, 45.516431052189802 ] } },
{ "type": "Feature", "properties": { "rte": 15, "dir": 1, "rte_desc": "15-Belmont\/NW 23rd", "dir_desc": "To Gateway Transit Center", "type": "BUS", "stop_seq": 2350, "stop_id": 408, "stop_name": "SE Belmont & 23rd", "jurisdic": "Portland", "zipcode": "97214", "frequent": "True" }, "geometry": { "type": "Point", "coordinates": [ -122.642598644194621, 45.516433488913179 ] } },
{ "type": "Feature", "properties": { "rte": 15, "dir": 1, "rte_desc": "15-Belmont\/NW 23rd", "dir_desc": "To Gateway Transit Center", "type": "BUS", "stop_seq": 2450, "stop_id": 414, "stop_name": "SE Belmont & 28th", "jurisdic": "Portland", "zipcode": "97214", "frequent": "True" }, "geometry": { "type": "Point", "coordinates": [ -122.636819339811851, 45.51636904182557 ] } },
{ "type": "Feature", "properties": { "rte": 15, "dir": 1, "rte_desc": "15-Belmont\/NW 23rd", "dir_desc": "To Gateway Transit Center", "type": "BUS", "stop_seq": 2550, "stop_id": 420, "stop_name": "SE Belmont & 32nd", "jurisdic": "Portland", "zipcode": "97214", "frequent": "True" }, "geometry": { "type": "Point", "coordinates": [ -122.631937042488858, 45.516407226225169 ] } },
{ "type": "Feature", "properties": { "rte": 15, "dir": 1, "rte_desc": "15-Belmont\/NW 23rd", "dir_desc": "To Gateway Transit Center", "type": "BUS", "stop_seq": 2600, "stop_id": 422, "stop_name": "SE Belmont & 34th", "jurisdic": "Portland", "zipcode": "97214", "frequent": "True" }, "geometry": { "type": "Point", "coordinates": [ -122.629205593436552, 45.516394974179782 ] } },
{ "type": "Feature", "properties": { "rte": 15, "dir": 1, "rte_desc": "15-Belmont\/NW 23rd", "dir_desc": "To Gateway Transit Center", "type": "BUS", "stop_seq": 2650, "stop_id": 425, "stop_name": "SE Belmont & 37th", "jurisdic": "Portland", "zipcode": "97214", "frequent": "True" }, "geometry": { "type": "Point", "coordinates": [ -122.625573794623705, 45.516378028157881 ] } },
{ "type": "Feature", "properties": { "rte": 15, "dir": 1, "rte_desc": "15-Belmont\/NW 23rd", "dir_desc": "To Gateway Transit Center", "type": "BUS", "stop_seq": 2700, "stop_id": 427, "stop_name": "SE Belmont & Cesar Chavez Blvd", "jurisdic": "Portland", "zipcode": "97214", "frequent": "True" }, "geometry": { "type": "Point", "coordinates": [ -122.62221806111657, 45.516503839849278 ] } },
{ "type": "Feature", "properties": { "rte": 15, "dir": 1, "rte_desc": "15-Belmont\/NW 23rd", "dir_desc": "To Gateway Transit Center", "type": "BUS", "stop_seq": 2850, "stop_id": 436, "stop_name": "SE Belmont & 46th", "jurisdic": "Portland", "zipcode": "97215", "frequent": "True" }, "geometry": { "type": "Point", "coordinates": [ -122.615013433509574, 45.516472655626771 ] } },
{ "type": "Feature", "properties": { "rte": 15, "dir": 1, "rte_desc": "15-Belmont\/NW 23rd", "dir_desc": "To Gateway Transit Center", "type": "BUS", "stop_seq": 2900, "stop_id": 439, "stop_name": "SE Belmont & 49th", "jurisdic": "Portland", "zipcode": "97215", "frequent": "True" }, "geometry": { "type": "Point", "coordinates": [ -122.612647978928891, 45.516476213210453 ] } },
{ "type": "Feature", "properties": { "rte": 15, "dir": 1, "rte_desc": "15-Belmont\/NW 23rd", "dir_desc": "To Gateway Transit Center", "type": "BUS", "stop_seq": 2950, "stop_id": 442, "stop_name": "SE Belmont & 50th", "jurisdic": "Portland", "zipcode": "97215", "frequent": "True" }, "geometry": { "type": "Point", "coordinates": [ -122.610883091493875, 45.516489199524734 ] } },
{ "type": "Feature", "properties": { "rte": 15, "dir": 1, "rte_desc": "15-Belmont\/NW 23rd", "dir_desc": "To Gateway Transit Center", "type": "BUS", "stop_seq": 3000, "stop_id": 443, "stop_name": "SE Belmont & 53rd", "jurisdic": "Portland", "zipcode": "97215", "frequent": "True" }, "geometry": { "type": "Point", "coordinates": [ -122.608503242314825, 45.51649132837462 ] } },
{ "type": "Feature", "properties": { "rte": 15, "dir": 1, "rte_desc": "15-Belmont\/NW 23rd", "dir_desc": "To Gateway Transit Center", "type": "BUS", "stop_seq": 3050, "stop_id": 445, "stop_name": "SE Belmont & 55th", "jurisdic": "Portland", "zipcode": "97215", "frequent": "True" }, "geometry": { "type": "Point", "coordinates": [ -122.606931024823112, 45.516481488036767 ] } },
{ "type": "Feature", "properties": { "rte": 15, "dir": 1, "rte_desc": "15-Belmont\/NW 23rd", "dir_desc": "To Gateway Transit Center", "type": "BUS", "stop_seq": 3100, "stop_id": 448, "stop_name": "SE Belmont & 58th", "jurisdic": "Portland", "zipcode": "97215", "frequent": "True" }, "geometry": { "type": "Point", "coordinates": [ -122.604096876488725, 45.516678560162248 ] } },
{ "type": "Feature", "properties": { "rte": 15, "dir": 1, "rte_desc": "15-Belmont\/NW 23rd", "dir_desc": "To Gateway Transit Center", "type": "BUS", "stop_seq": 3150, "stop_id": 450, "stop_name": "SE Belmont & 60th", "jurisdic": "Portland", "zipcode": "97215", "frequent": "True" }, "geometry": { "type": "Point", "coordinates": [ -122.601694707260663, 45.516698325036792 ] } },
{ "type": "Feature", "properties": { "rte": 15, "dir": 1, "rte_desc": "15-Belmont\/NW 23rd", "dir_desc": "To Gateway Transit Center", "type": "BUS", "stop_seq": 3250, "stop_id": 456, "stop_name": "SE Belmont & 65th", "jurisdic": "Portland", "zipcode": "97215", "frequent": "True" }, "geometry": { "type": "Point", "coordinates": [ -122.596984446376055, 45.516900148662046 ] } },
{ "type": "Feature", "properties": { "rte": 15, "dir": 1, "rte_desc": "15-Belmont\/NW 23rd", "dir_desc": "To Gateway Transit Center", "type": "BUS", "stop_seq": 3300, "stop_id": 459, "stop_name": "SE Belmont & 67th", "jurisdic": "Portland", "zipcode": "97215", "frequent": "True" }, "geometry": { "type": "Point", "coordinates": [ -122.594284682566794, 45.516896378389511 ] } },
{ "type": "Feature", "properties": { "rte": 15, "dir": 1, "rte_desc": "15-Belmont\/NW 23rd", "dir_desc": "To Gateway Transit Center", "type": "BUS", "stop_seq": 2100, "stop_id": 465, "stop_name": "SE Belmont & 9th", "jurisdic": "Portland", "zipcode": "97214", "frequent": "True" }, "geometry": { "type": "Point", "coordinates": [ -122.656804732009121, 45.516428330779149 ] } },
{ "type": "Feature", "properties": { "rte": 15, "dir": 1, "rte_desc": "15-Belmont\/NW 23rd", "dir_desc": "To Gateway Transit Center", "type": "BUS", "stop_seq": 750, "stop_id": 5832, "stop_name": "NW Thurman & 26th", "jurisdic": "Portland", "zipcode": "97210", "frequent": "False" }, "geometry": { "type": "Point", "coordinates": [ -122.704515742602325, 45.535341963475581 ] } },
{ "type": "Feature", "properties": { "rte": 15, "dir": 1, "rte_desc": "15-Belmont\/NW 23rd", "dir_desc": "To Gateway Transit Center", "type": "BUS", "stop_seq": 250, "stop_id": 5835, "stop_name": "NW Thurman & 27th", "jurisdic": "Portland", "zipcode": "97210", "frequent": "False" }, "geometry": { "type": "Point", "coordinates": [ -122.707124801011346, 45.535382637293573 ] } },
{ "type": "Feature", "properties": { "rte": 15, "dir": 1, "rte_desc": "15-Belmont\/NW 23rd", "dir_desc": "To Gateway Transit Center", "type": "BUS", "stop_seq": 700, "stop_id": 5836, "stop_name": "NW Thurman & 27th", "jurisdic": "Portland", "zipcode": "97210", "frequent": "False" }, "geometry": { "type": "Point", "coordinates": [ -122.706505150899929, 45.535293100366985 ] } },
{ "type": "Feature", "properties": { "rte": 15, "dir": 1, "rte_desc": "15-Belmont\/NW 23rd", "dir_desc": "To Gateway Transit Center", "type": "BUS", "stop_seq": 350, "stop_id": 5839, "stop_name": "NW Thurman & 29th", "jurisdic": "Portland", "zipcode": "97210", "frequent": "False" }, "geometry": { "type": "Point", "coordinates": [ -122.711068942954228, 45.535337201408836 ] } },
{ "type": "Feature", "properties": { "rte": 15, "dir": 1, "rte_desc": "15-Belmont\/NW 23rd", "dir_desc": "To Gateway Transit Center", "type": "BUS", "stop_seq": 400, "stop_id": 5841, "stop_name": "NW Thurman & 32nd", "jurisdic": "Portland", "zipcode": "97210", "frequent": "False" }, "geometry": { "type": "Point", "coordinates": [ -122.714553713746383, 45.535969767841749 ] } },
{ "type": "Feature", "properties": { "rte": 15, "dir": 1, "rte_desc": "15-Belmont\/NW 23rd", "dir_desc": "To Gateway Transit Center", "type": "BUS", "stop_seq": 450, "stop_id": 5843, "stop_name": "NW Thurman & 34th", "jurisdic": "Portland", "zipcode": "97210", "frequent": "False" }, "geometry": { "type": "Point", "coordinates": [ -122.716539443996353, 45.535959223168554 ] } },
{ "type": "Feature", "properties": { "rte": 15, "dir": 1, "rte_desc": "15-Belmont\/NW 23rd", "dir_desc": "To Gateway Transit Center", "type": "BUS", "stop_seq": 200, "stop_id": 6013, "stop_name": "NW Vaughn & 24th", "jurisdic": "Portland", "zipcode": "97210", "frequent": "False" }, "geometry": { "type": "Point", "coordinates": [ -122.700951666529676, 45.53680313313324 ] } },
{ "type": "Feature", "properties": { "rte": 15, "dir": 1, "rte_desc": "15-Belmont\/NW 23rd", "dir_desc": "To Gateway Transit Center", "type": "BUS", "stop_seq": 1600, "stop_id": 5007, "stop_name": "SW Salmon & Park", "jurisdic": "Portland", "zipcode": "97205", "frequent": "True" }, "geometry": { "type": "Point", "coordinates": [ -122.681844324576105, 45.517596126673084 ] } },
{ "type": "Feature", "properties": { "rte": 15, "dir": 1, "rte_desc": "15-Belmont\/NW 23rd", "dir_desc": "To Gateway Transit Center", "type": "BUS", "stop_seq": 1550, "stop_id": 5009, "stop_name": "SW Salmon & 10th", "jurisdic": "Portland", "zipcode": "97205", "frequent": "True" }, "geometry": { "type": "Point", "coordinates": [ -122.683474788038595, 45.518026165856185 ] } },
{ "type": "Feature", "properties": { "rte": 15, "dir": 1, "rte_desc": "15-Belmont\/NW 23rd", "dir_desc": "To Gateway Transit Center", "type": "BUS", "stop_seq": 1500, "stop_id": 5012, "stop_name": "SW Salmon & 12th", "jurisdic": "Portland", "zipcode": "97205", "frequent": "True" }, "geometry": { "type": "Point", "coordinates": [ -122.684797188096738, 45.518386379283513 ] } },
{ "type": "Feature", "properties": { "rte": 15, "dir": 1, "rte_desc": "15-Belmont\/NW 23rd", "dir_desc": "To Gateway Transit Center", "type": "BUS", "stop_seq": 1450, "stop_id": 5014, "stop_name": "SW Salmon & 14th", "jurisdic": "Portland", "zipcode": "97205", "frequent": "True" }, "geometry": { "type": "Point", "coordinates": [ -122.687478506439035, 45.519106330007894 ] } },
{ "type": "Feature", "properties": { "rte": 15, "dir": 1, "rte_desc": "15-Belmont\/NW 23rd", "dir_desc": "To Gateway Transit Center", "type": "BUS", "stop_seq": 1400, "stop_id": 5016, "stop_name": "SW Salmon & 16th", "jurisdic": "Portland", "zipcode": "97205", "frequent": "True" }, "geometry": { "type": "Point", "coordinates": [ -122.689311765277552, 45.519577748402433 ] } },
{ "type": "Feature", "properties": { "rte": 15, "dir": 1, "rte_desc": "15-Belmont\/NW 23rd", "dir_desc": "To Gateway Transit Center", "type": "BUS", "stop_seq": 1650, "stop_id": 5020, "stop_name": "SW Salmon & 5th", "jurisdic": "Portland", "zipcode": "97204", "frequent": "True" }, "geometry": { "type": "Point", "coordinates": [ -122.678854098849143, 45.51679365250741 ] } },
{ "type": "Feature", "properties": { "rte": 15, "dir": 1, "rte_desc": "15-Belmont\/NW 23rd", "dir_desc": "To Gateway Transit Center", "type": "BUS", "stop_seq": 4450, "stop_id": 10910, "stop_name": "SE 103rd Dr & Stark", "jurisdic": "Portland", "zipcode": "97216", "frequent": "True" }, "geometry": { "type": "Point", "coordinates": [ -122.557664595370582, 45.519437144529988 ] } },
{ "type": "Feature", "properties": { "rte": 15, "dir": 1, "rte_desc": "15-Belmont\/NW 23rd", "dir_desc": "To Gateway Transit Center", "type": "BUS", "stop_seq": 4300, "stop_id": 11027, "stop_name": "SE 106th & Cherry Blossom", "jurisdic": "Portland", "zipcode": "97216", "frequent": "True" }, "geometry": { "type": "Point", "coordinates": [ -122.554501660690121, 45.514673882927219 ] } },
{ "type": "Feature", "properties": { "rte": 15, "dir": 1, "rte_desc": "15-Belmont\/NW 23rd", "dir_desc": "To Gateway Transit Center", "type": "BUS", "stop_seq": 1350, "stop_id": 6911, "stop_name": "SW 18th & Morrison", "jurisdic": "Portland", "zipcode": "97205", "frequent": "True" }, "geometry": { "type": "Point", "coordinates": [ -122.690433111585136, 45.521901477853099 ] } },
{ "type": "Feature", "properties": { "rte": 15, "dir": 1, "rte_desc": "15-Belmont\/NW 23rd", "dir_desc": "To Gateway Transit Center", "type": "BUS", "stop_seq": 4200, "stop_id": 9218, "stop_name": "SE Main & 100th", "jurisdic": "Portland", "zipcode": "97216", "frequent": "True" }, "geometry": { "type": "Point", "coordinates": [ -122.561106262403527, 45.513954890303197 ] } },
{ "type": "Feature", "properties": { "rte": 15, "dir": 1, "rte_desc": "15-Belmont\/NW 23rd", "dir_desc": "To Gateway Transit Center", "type": "BUS", "stop_seq": 950, "stop_id": 10287, "stop_name": "NW 23rd & Overton", "jurisdic": "Portland", "zipcode": "97210", "frequent": "True" }, "geometry": { "type": "Point", "coordinates": [ -122.698762732359057, 45.532032631956071 ] } },
{ "type": "Feature", "properties": { "rte": 15, "dir": 1, "rte_desc": "15-Belmont\/NW 23rd", "dir_desc": "To Gateway Transit Center", "type": "BUS", "stop_seq": 1950, "stop_id": 7095, "stop_name": "SW 2nd & Alder", "jurisdic": "Portland", "zipcode": "97204", "frequent": "True" }, "geometry": { "type": "Point", "coordinates": [ -122.674134209744565, 45.518531740381462 ] } },
{ "type": "Feature", "properties": { "rte": 15, "dir": 1, "rte_desc": "15-Belmont\/NW 23rd", "dir_desc": "To Gateway Transit Center", "type": "BUS", "stop_seq": 4750, "stop_id": 8321, "stop_name": "9800 Block NE Pacific St", "jurisdic": "Portland", "zipcode": "97220", "frequent": "True" }, "geometry": { "type": "Point", "coordinates": [ -122.562787347235286, 45.529562267573048 ] } },
{ "type": "Feature", "properties": { "rte": 15, "dir": 1, "rte_desc": "15-Belmont\/NW 23rd", "dir_desc": "To Gateway Transit Center", "type": "BUS", "stop_seq": 3350, "stop_id": 7853, "stop_name": "SE 69th & Yamhill", "jurisdic": "Portland", "zipcode": "97215", "frequent": "True" }, "geometry": { "type": "Point", "coordinates": [ -122.592284389290583, 45.516250490697523 ] } },
{ "type": "Feature", "properties": { "rte": 15, "dir": 1, "rte_desc": "15-Belmont\/NW 23rd", "dir_desc": "To Gateway Transit Center", "type": "BUS", "stop_seq": 4100, "stop_id": 8912, "stop_name": "SE 96th & Mall 205", "jurisdic": "Portland", "zipcode": "97216", "frequent": "True" }, "geometry": { "type": "Point", "coordinates": [ -122.564068702737046, 45.515824378962044 ] } },
{ "type": "Feature", "properties": { "rte": 15, "dir": 1, "rte_desc": "15-Belmont\/NW 23rd", "dir_desc": "To Gateway Transit Center", "type": "BUS", "stop_seq": 4150, "stop_id": 8913, "stop_name": "SE Main & 96th", "jurisdic": "Portland", "zipcode": "97216", "frequent": "True" }, "geometry": { "type": "Point", "coordinates": [ -122.563561086679215, 45.513937108376098 ] } },
{ "type": "Feature", "properties": { "rte": 15, "dir": 1, "rte_desc": "15-Belmont\/NW 23rd", "dir_desc": "To Gateway Transit Center", "type": "BUS", "stop_seq": 4350, "stop_id": 8915, "stop_name": "10500 Block SE Cherry Blossom", "jurisdic": "Portland", "zipcode": "97216", "frequent": "True" }, "geometry": { "type": "Point", "coordinates": [ -122.555589594241923, 45.51566063954035 ] } },
{ "type": "Feature", "properties": { "rte": 15, "dir": 1, "rte_desc": "15-Belmont\/NW 23rd", "dir_desc": "To Gateway Transit Center", "type": "BUS", "stop_seq": 4050, "stop_id": 8935, "stop_name": "SE Washington & 99th", "jurisdic": "Portland", "zipcode": "97216", "frequent": "True" }, "geometry": { "type": "Point", "coordinates": [ -122.563146887975677, 45.518265782267889 ] } },
{ "type": "Feature", "properties": { "rte": 15, "dir": 1, "rte_desc": "15-Belmont\/NW 23rd", "dir_desc": "To Gateway Transit Center", "type": "BUS", "stop_seq": 1100, "stop_id": 8963, "stop_name": "NW 23rd & Flanders", "jurisdic": "Portland", "zipcode": "97210", "frequent": "True" }, "geometry": { "type": "Point", "coordinates": [ -122.698513487216246, 45.525596752246997 ] } },
{ "type": "Feature", "properties": { "rte": 15, "dir": 1, "rte_desc": "15-Belmont\/NW 23rd", "dir_desc": "To Gateway Transit Center", "type": "BUS", "stop_seq": 850, "stop_id": 8986, "stop_name": "NW 23rd & Thurman", "jurisdic": "Portland", "zipcode": "97210", "frequent": "True" }, "geometry": { "type": "Point", "coordinates": [ -122.698885834739599, 45.535234790272256 ] } },
{ "type": "Feature", "properties": { "rte": 15, "dir": 1, "rte_desc": "15-Belmont\/NW 23rd", "dir_desc": "To Gateway Transit Center", "type": "BUS", "stop_seq": 1000, "stop_id": 8989, "stop_name": "NW 23rd & Marshall", "jurisdic": "Portland", "zipcode": "97210", "frequent": "True" }, "geometry": { "type": "Point", "coordinates": [ -122.698688376768075, 45.530615542466258 ] } },
{ "type": "Feature", "properties": { "rte": 15, "dir": 1, "rte_desc": "15-Belmont\/NW 23rd", "dir_desc": "To Gateway Transit Center", "type": "BUS", "stop_seq": 3400, "stop_id": 6443, "stop_name": "SE Yamhill & 71st", "jurisdic": "Portland", "zipcode": "97215", "frequent": "True" }, "geometry": { "type": "Point", "coordinates": [ -122.589853856902451, 45.51611399187906 ] } },
{ "type": "Feature", "properties": { "rte": 15, "dir": 1, "rte_desc": "15-Belmont\/NW 23rd", "dir_desc": "To Gateway Transit Center", "type": "BUS", "stop_seq": 3450, "stop_id": 6445, "stop_name": "SE Yamhill & 73rd", "jurisdic": "Portland", "zipcode": "97215", "frequent": "True" }, "geometry": { "type": "Point", "coordinates": [ -122.58770250523915, 45.516274607749011 ] } },
{ "type": "Feature", "properties": { "rte": 15, "dir": 1, "rte_desc": "15-Belmont\/NW 23rd", "dir_desc": "To Gateway Transit Center", "type": "BUS", "stop_seq": 3550, "stop_id": 7897, "stop_name": "SE 76th & Washington", "jurisdic": "Portland", "zipcode": "97215", "frequent": "True" }, "geometry": { "type": "Point", "coordinates": [ -122.585155886967499, 45.518269378571368 ] } },
{ "type": "Feature", "properties": { "rte": 15, "dir": 1, "rte_desc": "15-Belmont\/NW 23rd", "dir_desc": "To Gateway Transit Center", "type": "BUS", "stop_seq": 3500, "stop_id": 6447, "stop_name": "SE Yamhill & 76th", "jurisdic": "Portland", "zipcode": "97215", "frequent": "True" }, "geometry": { "type": "Point", "coordinates": [ -122.585360411899615, 45.516241208330008 ] } },
{ "type": "Feature", "properties": { "rte": 15, "dir": 1, "rte_desc": "15-Belmont\/NW 23rd", "dir_desc": "To Gateway Transit Center", "type": "BUS", "stop_seq": 4, "stop_id": 6463, "stop_name": "3900 Block NW Yeon Frontage Rd", "jurisdic": "Portland", "zipcode": "97210", "frequent": "False" }, "geometry": { "type": "Point", "coordinates": [ -122.721598500511888, 45.550087268670467 ] } },
{ "type": "Feature", "properties": { "rte": 15, "dir": 1, "rte_desc": "15-Belmont\/NW 23rd", "dir_desc": "To Gateway Transit Center", "type": "BUS", "stop_seq": 1, "stop_id": 6470, "stop_name": "NW Yeon & 44th", "jurisdic": "Portland", "zipcode": "97210", "frequent": "False" }, "geometry": { "type": "Point", "coordinates": [ -122.730611665672143, 45.553682530052114 ] } },
{ "type": "Feature", "properties": { "rte": 15, "dir": 1, "rte_desc": "15-Belmont\/NW 23rd", "dir_desc": "To Gateway Transit Center", "type": "BUS", "stop_seq": 4550, "stop_id": 6504, "stop_name": "NE 102nd & Davis", "jurisdic": "Portland", "zipcode": "97216", "frequent": "True" }, "geometry": { "type": "Point", "coordinates": [ -122.558059034367517, 45.523828614365215 ] } },
{ "type": "Feature", "properties": { "rte": 15, "dir": 1, "rte_desc": "15-Belmont\/NW 23rd", "dir_desc": "To Gateway Transit Center", "type": "BUS", "stop_seq": 4600, "stop_id": 6516, "stop_name": "NE 102nd & Glisan", "jurisdic": "Portland", "zipcode": "97220", "frequent": "True" }, "geometry": { "type": "Point", "coordinates": [ -122.558015200243361, 45.526113936964215 ] } },
{ "type": "Feature", "properties": { "rte": 15, "dir": 1, "rte_desc": "15-Belmont\/NW 23rd", "dir_desc": "To Gateway Transit Center", "type": "BUS", "stop_seq": 800, "stop_id": 10808, "stop_name": "NW Thurman & 24th", "jurisdic": "Portland", "zipcode": "97210", "frequent": "False" }, "geometry": { "type": "Point", "coordinates": [ -122.700963603986793, 45.535396480382808 ] } },
{ "type": "Feature", "properties": { "rte": 15, "dir": 1, "rte_desc": "15-Belmont\/NW 23rd", "dir_desc": "To Gateway Transit Center", "type": "BUS", "stop_seq": 650, "stop_id": 5840, "stop_name": "NW Thurman & 29th", "jurisdic": "Portland", "zipcode": "97210", "frequent": "False" }, "geometry": { "type": "Point", "coordinates": [ -122.71107006448122, 45.535205509869868 ] } },
{ "type": "Feature", "properties": { "rte": 15, "dir": 1, "rte_desc": "15-Belmont\/NW 23rd", "dir_desc": "To Gateway Transit Center", "type": "BUS", "stop_seq": 300, "stop_id": 5837, "stop_name": "NW Thurman & 28th", "jurisdic": "Portland", "zipcode": "97210", "frequent": "False" }, "geometry": { "type": "Point", "coordinates": [ -122.708616285312928, 45.535375071910458 ] } },
{ "type": "Feature", "properties": { "rte": 15, "dir": 1, "rte_desc": "15-Belmont\/NW 23rd", "dir_desc": "To Gateway Transit Center", "type": "BUS", "stop_seq": 13, "stop_id": 8809, "stop_name": "2500 Block NW 29th", "jurisdic": "Portland", "zipcode": "97210", "frequent": "False" }, "geometry": { "type": "Point", "coordinates": [ -122.711148682569004, 45.540279057809187 ] } },
{ "type": "Feature", "properties": { "rte": 15, "dir": 1, "rte_desc": "15-Belmont\/NW 23rd", "dir_desc": "To Gateway Transit Center", "type": "BUS", "stop_seq": 1050, "stop_id": 7162, "stop_name": "NW 23rd & Irving", "jurisdic": "Portland", "zipcode": "97210", "frequent": "True" }, "geometry": { "type": "Point", "coordinates": [ -122.698583225689561, 45.527740909312271 ] } },
{ "type": "Feature", "properties": { "rte": 15, "dir": 1, "rte_desc": "15-Belmont\/NW 23rd", "dir_desc": "To Gateway Transit Center", "type": "BUS", "stop_seq": 3, "stop_id": 6460, "stop_name": "4000 Block NW Yeon Frontage Rd", "jurisdic": "Portland", "zipcode": "97210", "frequent": "False" }, "geometry": { "type": "Point", "coordinates": [ -122.723275236133787, 45.550702818921287 ] } },
{ "type": "Feature", "properties": { "rte": 15, "dir": 1, "rte_desc": "15-Belmont\/NW 23rd", "dir_desc": "To Gateway Transit Center", "type": "BUS", "stop_seq": 4500, "stop_id": 6510, "stop_name": "SE 102nd & E Burnside", "jurisdic": "Portland", "zipcode": "97216", "frequent": "True" }, "geometry": { "type": "Point", "coordinates": [ -122.558132045058002, 45.522437388907171 ] } },
{ "type": "Feature", "properties": { "rte": 15, "dir": 1, "rte_desc": "15-Belmont\/NW 23rd", "dir_desc": "To Gateway Transit Center", "type": "BUS", "stop_seq": 4400, "stop_id": 11005, "stop_name": "SE 103rd Dr & Washington", "jurisdic": "Portland", "zipcode": "97216", "frequent": "True" }, "geometry": { "type": "Point", "coordinates": [ -122.557494753895114, 45.518206440918853 ] } },
{ "type": "Feature", "properties": { "rte": 15, "dir": 1, "rte_desc": "15-Belmont\/NW 23rd", "dir_desc": "To Gateway Transit Center", "type": "BUS", "stop_seq": 17, "stop_id": 8483, "stop_name": "NW 27th & Wilson", "jurisdic": "Portland", "zipcode": "97210", "frequent": "False" }, "geometry": { "type": "Point", "coordinates": [ -122.706987454716057, 45.537794934787939 ] } },
{ "type": "Feature", "properties": { "rte": 15, "dir": 1, "rte_desc": "15-Belmont\/NW 23rd", "dir_desc": "To Gateway Transit Center", "type": "BUS", "stop_seq": 550, "stop_id": 5844, "stop_name": "NW Thurman & 34th", "jurisdic": "Portland", "zipcode": "97210", "frequent": "False" }, "geometry": { "type": "Point", "coordinates": [ -122.716746543330771, 45.535865027872099 ] } },
{ "type": "Feature", "properties": { "rte": 15, "dir": 1, "rte_desc": "15-Belmont\/NW 23rd", "dir_desc": "To Gateway Transit Center", "type": "BUS", "stop_seq": 3800, "stop_id": 6168, "stop_name": "SE Washington & 88th", "jurisdic": "Portland", "zipcode": "97216", "frequent": "True" }, "geometry": { "type": "Point", "coordinates": [ -122.573118711666282, 45.518303430592219 ] } },
{ "type": "Feature", "properties": { "rte": 15, "dir": 1, "rte_desc": "15-Belmont\/NW 23rd", "dir_desc": "To Gateway Transit Center", "type": "BUS", "stop_seq": 900, "stop_id": 9030, "stop_name": "NW 23rd & Raleigh", "jurisdic": "Portland", "zipcode": "97210", "frequent": "True" }, "geometry": { "type": "Point", "coordinates": [ -122.698810543078494, 45.533887863579935 ] } },
{ "type": "Feature", "properties": { "rte": 15, "dir": 1, "rte_desc": "15-Belmont\/NW 23rd", "dir_desc": "To Gateway Transit Center", "type": "BUS", "stop_seq": 500, "stop_id": 5824, "stop_name": "NW Thurman & Gordon", "jurisdic": "Portland", "zipcode": "97210", "frequent": "False" }, "geometry": { "type": "Point", "coordinates": [ -122.719477386760403, 45.538474156287634 ] } },
{ "type": "Feature", "properties": { "rte": 15, "dir": 1, "rte_desc": "15-Belmont\/NW 23rd", "dir_desc": "To Gateway Transit Center", "type": "BUS", "stop_seq": 4000, "stop_id": 6173, "stop_name": "SE Washington & 94th", "jurisdic": "Portland", "zipcode": "97216", "frequent": "True" }, "geometry": { "type": "Point", "coordinates": [ -122.56633258391949, 45.518262596114859 ] } },
{ "type": "Feature", "properties": { "rte": 15, "dir": 1, "rte_desc": "15-Belmont\/NW 23rd", "dir_desc": "To Gateway Transit Center", "type": "BUS", "stop_seq": 600, "stop_id": 5842, "stop_name": "NW Thurman & 32nd", "jurisdic": "Portland", "zipcode": "97210", "frequent": "False" }, "geometry": { "type": "Point", "coordinates": [ -122.714774784673779, 45.535863128711625 ] } },
{ "type": "Feature", "properties": { "rte": 15, "dir": 1, "rte_desc": "15-Belmont\/NW 23rd", "dir_desc": "To Gateway Transit Center", "type": "BUS", "stop_seq": 1700, "stop_id": 7098, "stop_name": "SW 2nd & Taylor", "jurisdic": "Portland", "zipcode": "97204", "frequent": "True" }, "geometry": { "type": "Point", "coordinates": [ -122.675240268904204, 45.516533981239206 ] } },
{ "type": "Feature", "properties": { "rte": 15, "dir": 1, "rte_desc": "15-Belmont\/NW 23rd", "dir_desc": "To Gateway Transit Center", "type": "BUS", "stop_seq": 12, "stop_id": 7313, "stop_name": "NW 29th & Industrial", "jurisdic": "Portland", "zipcode": "97210", "frequent": "False" }, "geometry": { "type": "Point", "coordinates": [ -122.711095642374801, 45.541393765475298 ] } },
{ "type": "Feature", "properties": { "rte": 15, "dir": 1, "rte_desc": "15-Belmont\/NW 23rd", "dir_desc": "To Gateway Transit Center", "type": "BUS", "stop_seq": 11, "stop_id": 7315, "stop_name": "NW 29th & Nela", "jurisdic": "Portland", "zipcode": "97210", "frequent": "False" }, "geometry": { "type": "Point", "coordinates": [ -122.711067096692261, 45.543641912809484 ] } },
{ "type": "Feature", "properties": { "rte": 15, "dir": 1, "rte_desc": "15-Belmont\/NW 23rd", "dir_desc": "To Gateway Transit Center", "type": "BUS", "stop_seq": 14, "stop_id": 7316, "stop_name": "NW 29th & Nicolai", "jurisdic": "Portland", "zipcode": "97210", "frequent": "False" }, "geometry": { "type": "Point", "coordinates": [ -122.711170038887545, 45.5387910976836 ] } },
{ "type": "Feature", "properties": { "rte": 15, "dir": 1, "rte_desc": "15-Belmont\/NW 23rd", "dir_desc": "To Gateway Transit Center", "type": "BUS", "stop_seq": 100, "stop_id": 8385, "stop_name": "NW Vaughn & 26th", "jurisdic": "Portland", "zipcode": "97210", "frequent": "False" }, "geometry": { "type": "Point", "coordinates": [ -122.705091283329992, 45.536754847420937 ] } },
{ "type": "Feature", "properties": { "rte": 15, "dir": 1, "rte_desc": "15-Belmont\/NW 23rd", "dir_desc": "To Gateway Transit Center", "type": "BUS", "stop_seq": 3600, "stop_id": 8426, "stop_name": "SE Washington & 78th", "jurisdic": "Portland", "zipcode": "97215", "frequent": "True" }, "geometry": { "type": "Point", "coordinates": [ -122.582911186233346, 45.518327900423465 ] } },
{ "type": "Feature", "properties": { "rte": 15, "dir": 1, "rte_desc": "15-Belmont\/NW 23rd", "dir_desc": "To Gateway Transit Center", "type": "BUS", "stop_seq": 50, "stop_id": 8484, "stop_name": "NW 27th & Vaughn at Montgomery Park", "jurisdic": "Portland", "zipcode": "97210", "frequent": "False" }, "geometry": { "type": "Point", "coordinates": [ -122.706951341908464, 45.537042938543244 ] } },
{ "type": "Feature", "properties": { "rte": 15, "dir": 1, "rte_desc": "15-Belmont\/NW 23rd", "dir_desc": "To Gateway Transit Center", "type": "BUS", "stop_seq": 3900, "stop_id": 10434, "stop_name": "SE 92nd & Stark", "jurisdic": "Portland", "zipcode": "97216", "frequent": "True" }, "geometry": { "type": "Point", "coordinates": [ -122.56903681022888, 45.518688999584782 ] } },
{ "type": "Feature", "properties": { "rte": 15, "dir": 1, "rte_desc": "15-Belmont\/NW 23rd", "dir_desc": "To Gateway Transit Center", "type": "BUS", "stop_seq": 2750, "stop_id": 429, "stop_name": "SE Belmont & 42nd", "jurisdic": "Portland", "zipcode": "97215", "frequent": "True" }, "geometry": { "type": "Point", "coordinates": [ -122.619492760841936, 45.516525810784621 ] } },
{ "type": "Feature", "properties": { "rte": 15, "dir": 1, "rte_desc": "15-Belmont\/NW 23rd", "dir_desc": "To Gateway Transit Center", "type": "BUS", "stop_seq": 4800, "stop_id": 8194, "stop_name": "Gateway Transit Center", "jurisdic": "Portland", "zipcode": "97220", "frequent": "True" }, "geometry": { "type": "Point", "coordinates": [ -122.563773464516075, 45.530571493870696 ] } },
{ "type": "Feature", "properties": { "rte": 15, "dir": 1, "rte_desc": "15-Belmont\/NW 23rd", "dir_desc": "To Gateway Transit Center", "type": "BUS", "stop_seq": 1300, "stop_id": 8511, "stop_name": "W Burnside & SW 20th", "jurisdic": "Portland", "zipcode": "97209", "frequent": "True" }, "geometry": { "type": "Point", "coordinates": [ -122.692568842044139, 45.523058251500309 ] } },
{ "type": "Feature", "properties": { "rte": 15, "dir": 1, "rte_desc": "15-Belmont\/NW 23rd", "dir_desc": "To Gateway Transit Center", "type": "BUS", "stop_seq": 4700, "stop_id": 4288, "stop_name": "10000 Block NE Pacific St", "jurisdic": "Portland", "zipcode": "97220", "frequent": "True" }, "geometry": { "type": "Point", "coordinates": [ -122.560464796485732, 45.529563493180511 ] } },
{ "type": "Feature", "properties": { "rte": 15, "dir": 1, "rte_desc": "15-Belmont\/NW 23rd", "dir_desc": "To Gateway Transit Center", "type": "BUS", "stop_seq": 1150, "stop_id": 7174, "stop_name": "NW 23rd & Westover", "jurisdic": "Portland", "zipcode": "97210", "frequent": "True" }, "geometry": { "type": "Point", "coordinates": [ -122.698465815108662, 45.524138993513375 ] } },
{ "type": "Feature", "properties": { "rte": 15, "dir": 1, "rte_desc": "15-Belmont\/NW 23rd", "dir_desc": "To Gateway Transit Center", "type": "BUS", "stop_seq": 2, "stop_id": 12754, "stop_name": "4200 Block NW Yeon", "jurisdic": "Portland", "zipcode": "97210", "frequent": "False" }, "geometry": { "type": "Point", "coordinates": [ -122.727805098190203, 45.552547022349181 ] } },
{ "type": "Feature", "properties": { "rte": 15, "dir": 1, "rte_desc": "15-Belmont\/NW 23rd", "dir_desc": "To Gateway Transit Center", "type": "BUS", "stop_seq": 2050, "stop_id": 13689, "stop_name": "Morrison Bridge\/Belmont & Grand", "jurisdic": "Portland", "zipcode": "97214", "frequent": "True" }, "geometry": { "type": "Point", "coordinates": [ -122.660955563478964, 45.516483113982851 ] } },
{ "type": "Feature", "properties": { "rte": 15, "dir": 1, "rte_desc": "15-Belmont\/NW 23rd", "dir_desc": "To Gateway Transit Center", "type": "BUS", "stop_seq": 15, "stop_id": 8482, "stop_name": "NW Nicolai & Wardway", "jurisdic": "Portland", "zipcode": "97210", "frequent": "False" }, "geometry": { "type": "Point", "coordinates": [ -122.71020677756114, 45.538599604476452 ] } },
{ "type": "Feature", "properties": { "rte": 15, "dir": 1, "rte_desc": "15-Belmont\/NW 23rd", "dir_desc": "To Gateway Transit Center", "type": "BUS", "stop_seq": 2200, "stop_id": 402, "stop_name": "SE Belmont & 14th", "jurisdic": "Portland", "zipcode": "97214", "frequent": "True" }, "geometry": { "type": "Point", "coordinates": [ -122.651720369033811, 45.516417563349435 ] } },
{ "type": "Feature", "properties": { "rte": 15, "dir": 1, "rte_desc": "15-Belmont\/NW 23rd", "dir_desc": "To Gateway Transit Center", "type": "BUS", "stop_seq": 2500, "stop_id": 418, "stop_name": "SE Belmont & 30th", "jurisdic": "Portland", "zipcode": "97214", "frequent": "True" }, "geometry": { "type": "Point", "coordinates": [ -122.634455575066866, 45.516389011059282 ] } },
{ "type": "Feature", "properties": { "rte": 15, "dir": 1, "rte_desc": "15-Belmont\/NW 23rd", "dir_desc": "To Gateway Transit Center", "type": "BUS", "stop_seq": 2300, "stop_id": 406, "stop_name": "SE Belmont & 20th", "jurisdic": "Portland", "zipcode": "97214", "frequent": "True" }, "geometry": { "type": "Point", "coordinates": [ -122.645656915858069, 45.516432527632723 ] } },
{ "type": "Feature", "properties": { "rte": 15, "dir": 1, "rte_desc": "15-Belmont\/NW 23rd", "dir_desc": "To Gateway Transit Center", "type": "BUS", "stop_seq": 16, "stop_id": 4105, "stop_name": "NW Nicolai & 27th", "jurisdic": "Portland", "zipcode": "97210", "frequent": "False" }, "geometry": { "type": "Point", "coordinates": [ -122.707673120608362, 45.539413118490486 ] } },
{ "type": "Feature", "properties": { "rte": 15, "dir": 1, "rte_desc": "15-Belmont\/NW 23rd", "dir_desc": "To Gateway Transit Center", "type": "BUS", "stop_seq": 5, "stop_id": 13237, "stop_name": "NW 35th & Yeon", "jurisdic": "Portland", "zipcode": "97210", "frequent": "False" }, "geometry": { "type": "Point", "coordinates": [ -122.719002672914428, 45.54860775934516 ] } },
{ "type": "Feature", "properties": { "rte": 15, "dir": 1, "rte_desc": "15-Belmont\/NW 23rd", "dir_desc": "To Gateway Transit Center", "type": "BUS", "stop_seq": 6, "stop_id": 13238, "stop_name": "3300 Block NW 35th", "jurisdic": "Portland", "zipcode": "97210", "frequent": "False" }, "geometry": { "type": "Point", "coordinates": [ -122.719018506095622, 45.546131506123686 ] } },
{ "type": "Feature", "properties": { "rte": 15, "dir": 1, "rte_desc": "15-Belmont\/NW 23rd", "dir_desc": "To Gateway Transit Center", "type": "BUS", "stop_seq": 7, "stop_id": 13239, "stop_name": "NW 35th & Guam", "jurisdic": "Portland", "zipcode": "97210", "frequent": "False" }, "geometry": { "type": "Point", "coordinates": [ -122.719027580886419, 45.544361906522937 ] } },
{ "type": "Feature", "properties": { "rte": 15, "dir": 1, "rte_desc": "15-Belmont\/NW 23rd", "dir_desc": "To Gateway Transit Center", "type": "BUS", "stop_seq": 8, "stop_id": 13240, "stop_name": "3300 Block NW Guam", "jurisdic": "Portland", "zipcode": "97210", "frequent": "False" }, "geometry": { "type": "Point", "coordinates": [ -122.715163489451896, 45.544178425426423 ] } },
{ "type": "Feature", "properties": { "rte": 15, "dir": 1, "rte_desc": "15-Belmont\/NW 23rd", "dir_desc": "To Gateway Transit Center", "type": "BUS", "stop_seq": 9, "stop_id": 13241, "stop_name": "NW Guam & 31st", "jurisdic": "Portland", "zipcode": "97210", "frequent": "False" }, "geometry": { "type": "Point", "coordinates": [ -122.713413598738939, 45.544167208155557 ] } },
{ "type": "Feature", "properties": { "rte": 15, "dir": 1, "rte_desc": "15-Belmont\/NW 23rd", "dir_desc": "To Gateway Transit Center", "type": "BUS", "stop_seq": 10, "stop_id": 13242, "stop_name": "3100 Block NW 31st", "jurisdic": "Portland", "zipcode": "97210", "frequent": "False" }, "geometry": { "type": "Point", "coordinates": [ -122.71173866109541, 45.544859860559377 ] } },
{ "type": "Feature", "properties": { "rte": 15, "dir": 1, "rte_desc": "15-Belmont\/NW 23rd", "dir_desc": "To Gateway Transit Center", "type": "BUS", "stop_seq": 4250, "stop_id": 8914, "stop_name": "10000 Block SE Main", "jurisdic": "Portland", "zipcode": "97216", "frequent": "True" }, "geometry": { "type": "Point", "coordinates": [ -122.559380522294504, 45.514013914009311 ] } },
{ "type": "Feature", "properties": { "rte": 15, "dir": 1, "rte_desc": "15-Belmont\/NW 23rd", "dir_desc": "To Gateway Transit Center", "type": "BUS", "stop_seq": 3200, "stop_id": 453, "stop_name": "SE Belmont & 62nd", "jurisdic": "Portland", "zipcode": "97215", "frequent": "True" }, "geometry": { "type": "Point", "coordinates": [ -122.600325557267951, 45.516716630166222 ] } },
{ "type": "Feature", "properties": { "rte": 15, "dir": 1, "rte_desc": "15-Belmont\/NW 23rd", "dir_desc": "To Gateway Transit Center", "type": "BUS", "stop_seq": 2400, "stop_id": 13043, "stop_name": "SE Belmont & 26th Ave", "jurisdic": "Portland", "zipcode": "97214", "frequent": "True" }, "geometry": { "type": "Point", "coordinates": [ -122.639231357970445, 45.516386374500776 ] } }
]
}
