{
"type": "FeatureCollection",
"crs": { "type": "name", "properties": { "name": "urn:ogc:def:crs:OGC:1.3:CRS84" } },
                                                                                
"features": [
{ "type": "Feature", "properties": { "rte": 16, "dir": 0, "rte_desc": "16-Front Ave\/St Helens Rd", "dir_desc": "To St Johns and Sauvie Island", "type": "BUS", "stop_seq": 1800, "stop_id": 596, "stop_name": "NW Bridge Ave & St Helens", "jurisdic": "Portland", "zipcode": "97231", "frequent": "False" }, "geometry": { "type": "Point", "coordinates": [ -122.773681695236959, 45.587369205800449 ] } },
{ "type": "Feature", "properties": { "rte": 16, "dir": 0, "rte_desc": "16-Front Ave\/St Helens Rd", "dir_desc": "To St Johns and Sauvie Island", "type": "BUS", "stop_seq": 1700, "stop_id": 599, "stop_name": "NW Bridge Ave & Springville", "jurisdic": "Portland", "zipcode": "97231", "frequent": "False" }, "geometry": { "type": "Point", "coordinates": [ -122.771427935683477, 45.585256412154479 ] } },
{ "type": "Feature", "properties": { "rte": 16, "dir": 0, "rte_desc": "16-Front Ave\/St Helens Rd", "dir_desc": "To St Johns and Sauvie Island", "type": "BUS", "stop_seq": 850, "stop_id": 1924, "stop_name": "4500 Block NW Front", "jurisdic": "Portland", "zipcode": "97210", "frequent": "False" }, "geometry": { "type": "Point", "coordinates": [ -122.723822423393756, 45.555210131235285 ] } },
{ "type": "Feature", "properties": { "rte": 16, "dir": 0, "rte_desc": "16-Front Ave\/St Helens Rd", "dir_desc": "To St Johns and Sauvie Island", "type": "BUS", "stop_seq": 650, "stop_id": 1931, "stop_name": "3700 Block NW Front", "jurisdic": "Portland", "zipcode": "97210", "frequent": "False" }, "geometry": { "type": "Point", "coordinates": [ -122.7065463012257, 45.548847497692101 ] } },
{ "type": "Feature", "properties": { "rte": 16, "dir": 0, "rte_desc": "16-Front Ave\/St Helens Rd", "dir_desc": "To St Johns and Sauvie Island", "type": "BUS", "stop_seq": 1200, "stop_id": 5329, "stop_name": "6600 Block NW St Helens", "jurisdic": "Portland", "zipcode": "97210", "frequent": "False" }, "geometry": { "type": "Point", "coordinates": [ -122.754865749340993, 45.570086476374406 ] } },
{ "type": "Feature", "properties": { "rte": 16, "dir": 0, "rte_desc": "16-Front Ave\/St Helens Rd", "dir_desc": "To St Johns and Sauvie Island", "type": "BUS", "stop_seq": 1950, "stop_id": 5332, "stop_name": "NW St Helens & Milepost 8", "jurisdic": "Portland", "zipcode": "97231", "frequent": "False" }, "geometry": { "type": "Point", "coordinates": [ -122.782766741204924, 45.594885291283397 ] } },
{ "type": "Feature", "properties": { "rte": 16, "dir": 0, "rte_desc": "16-Front Ave\/St Helens Rd", "dir_desc": "To St Johns and Sauvie Island", "type": "BUS", "stop_seq": 1900, "stop_id": 5345, "stop_name": "NW St Helens & Hoge", "jurisdic": "Portland", "zipcode": "97231", "frequent": "False" }, "geometry": { "type": "Point", "coordinates": [ -122.780925293924639, 45.592792475215269 ] } },
{ "type": "Feature", "properties": { "rte": 16, "dir": 0, "rte_desc": "16-Front Ave\/St Helens Rd", "dir_desc": "To St Johns and Sauvie Island", "type": "BUS", "stop_seq": 1850, "stop_id": 5350, "stop_name": "9400 Block NW St Helens", "jurisdic": "Portland", "zipcode": "97231", "frequent": "False" }, "geometry": { "type": "Point", "coordinates": [ -122.776248792063541, 45.5892416788001 ] } },
{ "type": "Feature", "properties": { "rte": 16, "dir": 0, "rte_desc": "16-Front Ave\/St Helens Rd", "dir_desc": "To St Johns and Sauvie Island", "type": "BUS", "stop_seq": 1300, "stop_id": 5352, "stop_name": "NW St Helens & Front", "jurisdic": "Portland", "zipcode": "97210", "frequent": "False" }, "geometry": { "type": "Point", "coordinates": [ -122.759117650586973, 45.575056885878595 ] } },
{ "type": "Feature", "properties": { "rte": 16, "dir": 0, "rte_desc": "16-Front Ave\/St Helens Rd", "dir_desc": "To St Johns and Sauvie Island", "type": "BUS", "stop_seq": 2050, "stop_id": 5356, "stop_name": "NW St Helens & 107th", "jurisdic": "Portland", "zipcode": "97231", "frequent": "False" }, "geometry": { "type": "Point", "coordinates": [ -122.785552861474969, 45.598595490031549 ] } },
{ "type": "Feature", "properties": { "rte": 16, "dir": 0, "rte_desc": "16-Front Ave\/St Helens Rd", "dir_desc": "To St Johns and Sauvie Island", "type": "BUS", "stop_seq": 1100, "stop_id": 5361, "stop_name": "NW St Helens & 56th", "jurisdic": "Portland", "zipcode": "97210", "frequent": "False" }, "geometry": { "type": "Point", "coordinates": [ -122.744460093628476, 45.562749130475723 ] } },
{ "type": "Feature", "properties": { "rte": 16, "dir": 0, "rte_desc": "16-Front Ave\/St Helens Rd", "dir_desc": "To St Johns and Sauvie Island", "type": "BUS", "stop_seq": 1350, "stop_id": 4440, "stop_name": "N Philadelphia & Ivanhoe", "jurisdic": "Portland", "zipcode": "97203", "frequent": "False" }, "geometry": { "type": "Point", "coordinates": [ -122.755562382505218, 45.589345140067785 ] } },
{ "type": "Feature", "properties": { "rte": 16, "dir": 0, "rte_desc": "16-Front Ave\/St Helens Rd", "dir_desc": "To St Johns and Sauvie Island", "type": "BUS", "stop_seq": 150, "stop_id": 1612, "stop_name": "NW Everett & 2nd", "jurisdic": "Portland", "zipcode": "97209", "frequent": "False" }, "geometry": { "type": "Point", "coordinates": [ -122.672585529106996, 45.525212629501617 ] } },
{ "type": "Feature", "properties": { "rte": 16, "dir": 0, "rte_desc": "16-Front Ave\/St Helens Rd", "dir_desc": "To St Johns and Sauvie Island", "type": "BUS", "stop_seq": 1550, "stop_id": 3467, "stop_name": "N Lombard & Burlington", "jurisdic": "Portland", "zipcode": "97203", "frequent": "False" }, "geometry": { "type": "Point", "coordinates": [ -122.754282684795513, 45.590102478492128 ] } },
{ "type": "Feature", "properties": { "rte": 16, "dir": 0, "rte_desc": "16-Front Ave\/St Helens Rd", "dir_desc": "To St Johns and Sauvie Island", "type": "BUS", "stop_seq": 1500, "stop_id": 3509, "stop_name": "N Lombard & John", "jurisdic": "Portland", "zipcode": "97203", "frequent": "False" }, "geometry": { "type": "Point", "coordinates": [ -122.752679565241365, 45.58958863790518 ] } },
{ "type": "Feature", "properties": { "rte": 16, "dir": 0, "rte_desc": "16-Front Ave\/St Helens Rd", "dir_desc": "To St Johns and Sauvie Island", "type": "BUS", "stop_seq": 2350, "stop_id": 11016, "stop_name": "NW St Helens & Riverview Drive", "jurisdic": "Multnomah Co.", "zipcode": "97231", "frequent": "False" }, "geometry": { "type": "Point", "coordinates": [ -122.81096798990194, 45.620762167654128 ] } },
{ "type": "Feature", "properties": { "rte": 16, "dir": 0, "rte_desc": "16-Front Ave\/St Helens Rd", "dir_desc": "To St Johns and Sauvie Island", "type": "BUS", "stop_seq": 250, "stop_id": 9874, "stop_name": "900 Block NW Naito Parkway", "jurisdic": "Portland", "zipcode": "97209", "frequent": "False" }, "geometry": { "type": "Point", "coordinates": [ -122.675158223607312, 45.529925573907619 ] } },
{ "type": "Feature", "properties": { "rte": 16, "dir": 0, "rte_desc": "16-Front Ave\/St Helens Rd", "dir_desc": "To St Johns and Sauvie Island", "type": "BUS", "stop_seq": 300, "stop_id": 9875, "stop_name": "NW Naito Parkway & 9th", "jurisdic": "Portland", "zipcode": "97209", "frequent": "False" }, "geometry": { "type": "Point", "coordinates": [ -122.67996756998447, 45.533070680061734 ] } },
{ "type": "Feature", "properties": { "rte": 16, "dir": 0, "rte_desc": "16-Front Ave\/St Helens Rd", "dir_desc": "To St Johns and Sauvie Island", "type": "BUS", "stop_seq": 500, "stop_id": 9879, "stop_name": "NW Front & 21st", "jurisdic": "Portland", "zipcode": "97209", "frequent": "False" }, "geometry": { "type": "Point", "coordinates": [ -122.693793681022868, 45.541271489675147 ] } },
{ "type": "Feature", "properties": { "rte": 16, "dir": 0, "rte_desc": "16-Front Ave\/St Helens Rd", "dir_desc": "To St Johns and Sauvie Island", "type": "BUS", "stop_seq": 550, "stop_id": 9880, "stop_name": "NW Front & Nicolai", "jurisdic": "Portland", "zipcode": "97210", "frequent": "False" }, "geometry": { "type": "Point", "coordinates": [ -122.695684261701231, 45.542449185189881 ] } },
{ "type": "Feature", "properties": { "rte": 16, "dir": 0, "rte_desc": "16-Front Ave\/St Helens Rd", "dir_desc": "To St Johns and Sauvie Island", "type": "BUS", "stop_seq": 600, "stop_id": 9881, "stop_name": "3000 Block NW Front", "jurisdic": "Portland", "zipcode": "97210", "frequent": "False" }, "geometry": { "type": "Point", "coordinates": [ -122.698910646526755, 45.544443127000974 ] } },
{ "type": "Feature", "properties": { "rte": 16, "dir": 0, "rte_desc": "16-Front Ave\/St Helens Rd", "dir_desc": "To St Johns and Sauvie Island", "type": "BUS", "stop_seq": 2250, "stop_id": 10291, "stop_name": "NW St Helens & Marina Way", "jurisdic": "Portland", "zipcode": "97231", "frequent": "False" }, "geometry": { "type": "Point", "coordinates": [ -122.79602919692411, 45.610648567302171 ] } },
{ "type": "Feature", "properties": { "rte": 16, "dir": 0, "rte_desc": "16-Front Ave\/St Helens Rd", "dir_desc": "To St Johns and Sauvie Island", "type": "BUS", "stop_seq": 1050, "stop_id": 5338, "stop_name": "NW St Helens & Doane", "jurisdic": "Portland", "zipcode": "97210", "frequent": "False" }, "geometry": { "type": "Point", "coordinates": [ -122.742772708813774, 45.561420276143473 ] } },
{ "type": "Feature", "properties": { "rte": 16, "dir": 0, "rte_desc": "16-Front Ave\/St Helens Rd", "dir_desc": "To St Johns and Sauvie Island", "type": "BUS", "stop_seq": 1400, "stop_id": 3009, "stop_name": "N Ivanhoe & Charleston", "jurisdic": "Portland", "zipcode": "97203", "frequent": "False" }, "geometry": { "type": "Point", "coordinates": [ -122.752711159873229, 45.588684839328408 ] } },
{ "type": "Feature", "properties": { "rte": 16, "dir": 0, "rte_desc": "16-Front Ave\/St Helens Rd", "dir_desc": "To St Johns and Sauvie Island", "type": "BUS", "stop_seq": 900, "stop_id": 1925, "stop_name": "4700 Block NW Front", "jurisdic": "Portland", "zipcode": "97210", "frequent": "False" }, "geometry": { "type": "Point", "coordinates": [ -122.727515012195767, 45.556681672952344 ] } },
{ "type": "Feature", "properties": { "rte": 16, "dir": 0, "rte_desc": "16-Front Ave\/St Helens Rd", "dir_desc": "To St Johns and Sauvie Island", "type": "BUS", "stop_seq": 750, "stop_id": 8902, "stop_name": "4200 Block NW Front", "jurisdic": "Portland", "zipcode": "97210", "frequent": "False" }, "geometry": { "type": "Point", "coordinates": [ -122.717402714002091, 45.5528618079355 ] } },
{ "type": "Feature", "properties": { "rte": 16, "dir": 0, "rte_desc": "16-Front Ave\/St Helens Rd", "dir_desc": "To St Johns and Sauvie Island", "type": "BUS", "stop_seq": 700, "stop_id": 8904, "stop_name": "3800 Block NW Front", "jurisdic": "Portland", "zipcode": "97210", "frequent": "False" }, "geometry": { "type": "Point", "coordinates": [ -122.711570225211204, 45.550850375804067 ] } },
{ "type": "Feature", "properties": { "rte": 16, "dir": 0, "rte_desc": "16-Front Ave\/St Helens Rd", "dir_desc": "To St Johns and Sauvie Island", "type": "BUS", "stop_seq": 1650, "stop_id": 11837, "stop_name": "N Ivanhoe & Baltimore", "jurisdic": "Portland", "zipcode": "97203", "frequent": "False" }, "geometry": { "type": "Point", "coordinates": [ -122.756426071701497, 45.590383461320897 ] } },
{ "type": "Feature", "properties": { "rte": 16, "dir": 0, "rte_desc": "16-Front Ave\/St Helens Rd", "dir_desc": "To St Johns and Sauvie Island", "type": "BUS", "stop_seq": 2300, "stop_id": 8744, "stop_name": "NW St Helens & Harborton Dr", "jurisdic": "Portland", "zipcode": "97231", "frequent": "False" }, "geometry": { "type": "Point", "coordinates": [ -122.80001591017475, 45.613815571303 ] } },
{ "type": "Feature", "properties": { "rte": 16, "dir": 0, "rte_desc": "16-Front Ave\/St Helens Rd", "dir_desc": "To St Johns and Sauvie Island", "type": "BUS", "stop_seq": 1450, "stop_id": 8653, "stop_name": "N Charleston & Lombard St", "jurisdic": "Portland", "zipcode": "97203", "frequent": "False" }, "geometry": { "type": "Point", "coordinates": [ -122.752121820803751, 45.58898087345024 ] } },
{ "type": "Feature", "properties": { "rte": 16, "dir": 0, "rte_desc": "16-Front Ave\/St Helens Rd", "dir_desc": "To St Johns and Sauvie Island", "type": "BUS", "stop_seq": 400, "stop_id": 9877, "stop_name": "NW Front & 15th", "jurisdic": "Portland", "zipcode": "97209", "frequent": "False" }, "geometry": { "type": "Point", "coordinates": [ -122.686225649155901, 45.536719778410543 ] } },
{ "type": "Feature", "properties": { "rte": 16, "dir": 0, "rte_desc": "16-Front Ave\/St Helens Rd", "dir_desc": "To St Johns and Sauvie Island", "type": "BUS", "stop_seq": 2200, "stop_id": 5341, "stop_name": "11400 Block NW St Helens", "jurisdic": "Portland", "zipcode": "97231", "frequent": "False" }, "geometry": { "type": "Point", "coordinates": [ -122.789120813685912, 45.603555238912534 ] } },
{ "type": "Feature", "properties": { "rte": 16, "dir": 0, "rte_desc": "16-Front Ave\/St Helens Rd", "dir_desc": "To St Johns and Sauvie Island", "type": "BUS", "stop_seq": 2150, "stop_id": 5359, "stop_name": "NW St Helens & 111th", "jurisdic": "Portland", "zipcode": "97231", "frequent": "False" }, "geometry": { "type": "Point", "coordinates": [ -122.787356651568828, 45.601229206384488 ] } },
{ "type": "Feature", "properties": { "rte": 16, "dir": 0, "rte_desc": "16-Front Ave\/St Helens Rd", "dir_desc": "To St Johns and Sauvie Island", "type": "BUS", "stop_seq": 100, "stop_id": 8886, "stop_name": "NW Everett & 5th", "jurisdic": "Portland", "zipcode": "97209", "frequent": "False" }, "geometry": { "type": "Point", "coordinates": [ -122.675621922750523, 45.525182448494625 ] } },
{ "type": "Feature", "properties": { "rte": 16, "dir": 0, "rte_desc": "16-Front Ave\/St Helens Rd", "dir_desc": "To St Johns and Sauvie Island", "type": "BUS", "stop_seq": 2000, "stop_id": 5354, "stop_name": "NW St Helens & 105th", "jurisdic": "Portland", "zipcode": "97231", "frequent": "False" }, "geometry": { "type": "Point", "coordinates": [ -122.784471272512477, 45.597130710529285 ] } },
{ "type": "Feature", "properties": { "rte": 16, "dir": 0, "rte_desc": "16-Front Ave\/St Helens Rd", "dir_desc": "To St Johns and Sauvie Island", "type": "BUS", "stop_seq": 2100, "stop_id": 5358, "stop_name": "NW St Helens & 109th", "jurisdic": "Portland", "zipcode": "97231", "frequent": "False" }, "geometry": { "type": "Point", "coordinates": [ -122.786530332127981, 45.599960521418289 ] } },
{ "type": "Feature", "properties": { "rte": 16, "dir": 0, "rte_desc": "16-Front Ave\/St Helens Rd", "dir_desc": "To St Johns and Sauvie Island", "type": "BUS", "stop_seq": 1750, "stop_id": 597, "stop_name": "NW Bridge Ave & Germantown", "jurisdic": "Portland", "zipcode": "97231", "frequent": "False" }, "geometry": { "type": "Point", "coordinates": [ -122.77245217889454, 45.586345599884105 ] } },
{ "type": "Feature", "properties": { "rte": 16, "dir": 0, "rte_desc": "16-Front Ave\/St Helens Rd", "dir_desc": "To St Johns and Sauvie Island", "type": "BUS", "stop_seq": 2450, "stop_id": 8437, "stop_name": "Gillihan Rd & Sauvie Island", "jurisdic": "Multnomah Co.", "zipcode": "97231", "frequent": "False" }, "geometry": { "type": "Point", "coordinates": [ -122.815461718053129, 45.629401637852851 ] } },
{ "type": "Feature", "properties": { "rte": 16, "dir": 0, "rte_desc": "16-Front Ave\/St Helens Rd", "dir_desc": "To St Johns and Sauvie Island", "type": "BUS", "stop_seq": 950, "stop_id": 1922, "stop_name": "4800 Block NW Front", "jurisdic": "Portland", "zipcode": "97210", "frequent": "False" }, "geometry": { "type": "Point", "coordinates": [ -122.729259188032955, 45.557321281221682 ] } },
{ "type": "Feature", "properties": { "rte": 16, "dir": 0, "rte_desc": "16-Front Ave\/St Helens Rd", "dir_desc": "To St Johns and Sauvie Island", "type": "BUS", "stop_seq": 800, "stop_id": 1921, "stop_name": "4300 Block NW Front", "jurisdic": "Portland", "zipcode": "97210", "frequent": "False" }, "geometry": { "type": "Point", "coordinates": [ -122.720328975338916, 45.55392962372639 ] } },
{ "type": "Feature", "properties": { "rte": 16, "dir": 0, "rte_desc": "16-Front Ave\/St Helens Rd", "dir_desc": "To St Johns and Sauvie Island", "type": "BUS", "stop_seq": 200, "stop_id": 9873, "stop_name": "600 Block NW Naito Parkway", "jurisdic": "Portland", "zipcode": "97209", "frequent": "False" }, "geometry": { "type": "Point", "coordinates": [ -122.672807886665396, 45.52797360852572 ] } },
{ "type": "Feature", "properties": { "rte": 16, "dir": 0, "rte_desc": "16-Front Ave\/St Helens Rd", "dir_desc": "To St Johns and Sauvie Island", "type": "BUS", "stop_seq": 50, "stop_id": 13168, "stop_name": "SW Oak & 6th", "jurisdic": "Portland", "zipcode": "97204", "frequent": "False" }, "geometry": { "type": "Point", "coordinates": [ -122.676913665734503, 45.521750880186048 ] } },
{ "type": "Feature", "properties": { "rte": 16, "dir": 0, "rte_desc": "16-Front Ave\/St Helens Rd", "dir_desc": "To St Johns and Sauvie Island", "type": "BUS", "stop_seq": 1000, "stop_id": 13637, "stop_name": "NW Yeon & 44th", "jurisdic": "Portland", "zipcode": "97210", "frequent": "False" }, "geometry": { "type": "Point", "coordinates": [ -122.731958129067692, 45.554215218984403 ] } },
{ "type": "Feature", "properties": { "rte": 16, "dir": 0, "rte_desc": "16-Front Ave\/St Helens Rd", "dir_desc": "To St Johns and Sauvie Island", "type": "BUS", "stop_seq": 1600, "stop_id": 13533, "stop_name": "N Baltimore & Ivanhoe", "jurisdic": "Portland", "zipcode": "97203", "frequent": "False" }, "geometry": { "type": "Point", "coordinates": [ -122.756573772144534, 45.59083904476627 ] } },
{ "type": "Feature", "properties": { "rte": 16, "dir": 0, "rte_desc": "16-Front Ave\/St Helens Rd", "dir_desc": "To St Johns and Sauvie Island", "type": "BUS", "stop_seq": 350, "stop_id": 13098, "stop_name": "1700 Block NW Naito Parkway", "jurisdic": "Portland", "zipcode": "97209", "frequent": "False" }, "geometry": { "type": "Point", "coordinates": [ -122.684000255335178, 45.535441674207291 ] } },
{ "type": "Feature", "properties": { "rte": 16, "dir": 0, "rte_desc": "16-Front Ave\/St Helens Rd", "dir_desc": "To St Johns and Sauvie Island", "type": "BUS", "stop_seq": 1250, "stop_id": 5330, "stop_name": "6800 Block NW St Helens", "jurisdic": "Portland", "zipcode": "97210", "frequent": "False" }, "geometry": { "type": "Point", "coordinates": [ -122.755843249024295, 45.571383078889347 ] } },
{ "type": "Feature", "properties": { "rte": 16, "dir": 0, "rte_desc": "16-Front Ave\/St Helens Rd", "dir_desc": "To St Johns and Sauvie Island", "type": "BUS", "stop_seq": 1150, "stop_id": 13293, "stop_name": "NW St Helens & Saltzman", "jurisdic": "Portland", "zipcode": "97210", "frequent": "False" }, "geometry": { "type": "Point", "coordinates": [ -122.746771596722155, 45.564539955015086 ] } },
{ "type": "Feature", "properties": { "rte": 16, "dir": 0, "rte_desc": "16-Front Ave\/St Helens Rd", "dir_desc": "To St Johns and Sauvie Island", "type": "BUS", "stop_seq": 25, "stop_id": 12798, "stop_name": "SW Oak & 1st", "jurisdic": "Portland", "zipcode": "97204", "frequent": "False" }, "geometry": { "type": "Point", "coordinates": [ -122.671968433189832, 45.520413657049026 ] } },
{ "type": "Feature", "properties": { "rte": 16, "dir": 0, "rte_desc": "16-Front Ave\/St Helens Rd", "dir_desc": "To St Johns and Sauvie Island", "type": "BUS", "stop_seq": 2400, "stop_id": 13214, "stop_name": "NW St Helens & Larson", "jurisdic": "Multnomah Co.", "zipcode": "97231", "frequent": "False" }, "geometry": { "type": "Point", "coordinates": [ -122.816601082234527, 45.625287307595372 ] } }
]
}
