{
"type": "FeatureCollection",
"crs": { "type": "name", "properties": { "name": "urn:ogc:def:crs:OGC:1.3:CRS84" } },
                                                                                
"features": [
{ "type": "Feature", "properties": { "rte": "27", "rte_desc": "27-Fairmount", "dir": "0", "dir_desc": "Outbound", "stop_id": "2112", "stop_name": "Eugene Station, Bay L", "stop_seq": "1" }, "geometry": { "type": "Point", "coordinates": [ -123.0933991, 44.0481377 ] } },
{ "type": "Feature", "properties": { "rte": "27", "rte_desc": "27-Fairmount", "dir": "0", "dir_desc": "Outbound", "stop_id": "1498", "stop_name": "S\/S of 13th W of Oak", "stop_seq": "2" }, "geometry": { "type": "Point", "coordinates": [ -123.0918141, 44.0454853 ] } },
{ "type": "Feature", "properties": { "rte": "27", "rte_desc": "27-Fairmount", "dir": "0", "dir_desc": "Outbound", "stop_id": "1077", "stop_name": "W\/S of Pearl S of 13th", "stop_seq": "3" }, "geometry": { "type": "Point", "coordinates": [ -123.0896933, 44.045194 ] } },
{ "type": "Feature", "properties": { "rte": "27", "rte_desc": "27-Fairmount", "dir": "0", "dir_desc": "Outbound", "stop_id": "1078", "stop_name": "W\/S of Pearl S of 15th", "stop_seq": "4" }, "geometry": { "type": "Point", "coordinates": [ -123.089701, 44.0430616 ] } },
{ "type": "Feature", "properties": { "rte": "27", "rte_desc": "27-Fairmount", "dir": "0", "dir_desc": "Outbound", "stop_id": "1079", "stop_name": "W\/S of Pearl S of 17th", "stop_seq": "5" }, "geometry": { "type": "Point", "coordinates": [ -123.089729399999982, 44.040818 ] } },
{ "type": "Feature", "properties": { "rte": "27", "rte_desc": "27-Fairmount", "dir": "0", "dir_desc": "Outbound", "stop_id": "1130", "stop_name": "S\/S of 19th E of Amazon Pkwy", "stop_seq": "6" }, "geometry": { "type": "Point", "coordinates": [ -123.089109799999989, 44.038902 ] } },
{ "type": "Feature", "properties": { "rte": "27", "rte_desc": "27-Fairmount", "dir": "0", "dir_desc": "Outbound", "stop_id": "1132", "stop_name": "S\/S of 19th E of Mill", "stop_seq": "7" }, "geometry": { "type": "Point", "coordinates": [ -123.0858412, 44.0389175 ] } },
{ "type": "Feature", "properties": { "rte": "27", "rte_desc": "27-Fairmount", "dir": "0", "dir_desc": "Outbound", "stop_id": "351", "stop_name": "W\/S of Patterson S of 19th", "stop_seq": "8" }, "geometry": { "type": "Point", "coordinates": [ -123.0837262, 44.0384364 ] } },
{ "type": "Feature", "properties": { "rte": "27", "rte_desc": "27-Fairmount", "dir": "0", "dir_desc": "Outbound", "stop_id": "352", "stop_name": "W\/S of Patterson N of 22nd", "stop_seq": "9" }, "geometry": { "type": "Point", "coordinates": [ -123.0837242, 44.0356661 ] } },
{ "type": "Feature", "properties": { "rte": "27", "rte_desc": "27-Fairmount", "dir": "0", "dir_desc": "Outbound", "stop_id": "1129", "stop_name": "S\/S of 24th W of Hilyard", "stop_seq": "10" }, "geometry": { "type": "Point", "coordinates": [ -123.082676099999986, 44.0333793 ] } },
{ "type": "Feature", "properties": { "rte": "27", "rte_desc": "27-Fairmount", "dir": "0", "dir_desc": "Outbound", "stop_id": "1650", "stop_name": "S\/S of 24th E of Alder", "stop_seq": "11" }, "geometry": { "type": "Point", "coordinates": [ -123.080113200000014, 44.033375 ] } },
{ "type": "Feature", "properties": { "rte": "27", "rte_desc": "27-Fairmount", "dir": "0", "dir_desc": "Outbound", "stop_id": "1651", "stop_name": "S\/S of 24th E of Harris", "stop_seq": "12" }, "geometry": { "type": "Point", "coordinates": [ -123.077299699999983, 44.0334285 ] } },
{ "type": "Feature", "properties": { "rte": "27", "rte_desc": "27-Fairmount", "dir": "0", "dir_desc": "Outbound", "stop_id": "1652", "stop_name": "S\/S of 24th E of University", "stop_seq": "13" }, "geometry": { "type": "Point", "coordinates": [ -123.0741037, 44.0333907 ] } },
{ "type": "Feature", "properties": { "rte": "27", "rte_desc": "27-Fairmount", "dir": "0", "dir_desc": "Outbound", "stop_id": "1653", "stop_name": "S\/S of 24th W of Nixon", "stop_seq": "14" }, "geometry": { "type": "Point", "coordinates": [ -123.0708465, 44.0333768 ] } },
{ "type": "Feature", "properties": { "rte": "27", "rte_desc": "27-Fairmount", "dir": "0", "dir_desc": "Outbound", "stop_id": "1654", "stop_name": "E\/S of Agate S of 21st", "stop_seq": "15" }, "geometry": { "type": "Point", "coordinates": [ -123.069642, 44.0364311 ] } },
{ "type": "Feature", "properties": { "rte": "27", "rte_desc": "27-Fairmount", "dir": "0", "dir_desc": "Outbound", "stop_id": "1141", "stop_name": "E\/S of Agate S of 20th", "stop_seq": "16" }, "geometry": { "type": "Point", "coordinates": [ -123.069595599999985, 44.0377957 ] } },
{ "type": "Feature", "properties": { "rte": "27", "rte_desc": "27-Fairmount", "dir": "0", "dir_desc": "Outbound", "stop_id": "1144", "stop_name": "S\/S of 19th E of Moss", "stop_seq": "17" }, "geometry": { "type": "Point", "coordinates": [ -123.06568, 44.0389142 ] } },
{ "type": "Feature", "properties": { "rte": "27", "rte_desc": "27-Fairmount", "dir": "0", "dir_desc": "Outbound", "stop_id": "1146", "stop_name": "S\/S of 19th W of Orchard", "stop_seq": "18" }, "geometry": { "type": "Point", "coordinates": [ -123.0635985, 44.0388875 ] } },
{ "type": "Feature", "properties": { "rte": "27", "rte_desc": "27-Fairmount", "dir": "0", "dir_desc": "Outbound", "stop_id": "1655", "stop_name": "E\/S of Walnut S of 17th", "stop_seq": "19" }, "geometry": { "type": "Point", "coordinates": [ -123.0615263, 44.0410429 ] } },
{ "type": "Feature", "properties": { "rte": "27", "rte_desc": "27-Fairmount", "dir": "0", "dir_desc": "Outbound", "stop_id": "1656", "stop_name": "E\/S of Walnut N of 15th", "stop_seq": "20" }, "geometry": { "type": "Point", "coordinates": [ -123.061496099999985, 44.0439949 ] } },
{ "type": "Feature", "properties": { "rte": "27", "rte_desc": "27-Fairmount", "dir": "0", "dir_desc": "Outbound", "stop_id": "341", "stop_name": "W\/S of Riverview N of 16th", "stop_seq": "21" }, "geometry": { "type": "Point", "coordinates": [ -123.0518358, 44.0419174 ] } },
{ "type": "Feature", "properties": { "rte": "27", "rte_desc": "27-Fairmount", "dir": "0", "dir_desc": "Outbound", "stop_id": "342", "stop_name": "W\/S of Riverview N of 18th", "stop_seq": "22" }, "geometry": { "type": "Point", "coordinates": [ -123.051874899999987, 44.0393059 ] } },
{ "type": "Feature", "properties": { "rte": "27", "rte_desc": "27-Fairmount", "dir": "0", "dir_desc": "Outbound", "stop_id": "343", "stop_name": "W\/S of Riverview 3rd stop N of 26th", "stop_seq": "23" }, "geometry": { "type": "Point", "coordinates": [ -123.051934099999983, 44.0372552 ] } },
{ "type": "Feature", "properties": { "rte": "27", "rte_desc": "27-Fairmount", "dir": "0", "dir_desc": "Outbound", "stop_id": "344", "stop_name": "W\/S of Riverview 2nd stop N of 26th", "stop_seq": "24" }, "geometry": { "type": "Point", "coordinates": [ -123.051913099999979, 44.0346511 ] } },
{ "type": "Feature", "properties": { "rte": "27", "rte_desc": "27-Fairmount", "dir": "0", "dir_desc": "Outbound", "stop_id": "345", "stop_name": "W\/S of Riverview 1st stop N of 26th", "stop_seq": "25" }, "geometry": { "type": "Point", "coordinates": [ -123.051961099999986, 44.0313577 ] } },
{ "type": "Feature", "properties": { "rte": "27", "rte_desc": "27-Fairmount", "dir": "0", "dir_desc": "Outbound", "stop_id": "346", "stop_name": "E\/S of Augusta 1st stop N of 26th", "stop_seq": "27" }, "geometry": { "type": "Point", "coordinates": [ -123.0505139, 44.0317548 ] } },
{ "type": "Feature", "properties": { "rte": "27", "rte_desc": "27-Fairmount", "dir": "0", "dir_desc": "Outbound", "stop_id": "346", "stop_name": "E\/S of Augusta 1st stop N of 26th", "stop_seq": "28" }, "geometry": { "type": "Point", "coordinates": [ -123.0505139, 44.0317548 ] } },
{ "type": "Feature", "properties": { "rte": "27", "rte_desc": "27-Fairmount", "dir": "0", "dir_desc": "Outbound", "stop_id": "347", "stop_name": "E\/S of Augusta 2nd stop N of 26th", "stop_seq": "29" }, "geometry": { "type": "Point", "coordinates": [ -123.050462499999981, 44.03468 ] } },
{ "type": "Feature", "properties": { "rte": "27", "rte_desc": "27-Fairmount", "dir": "0", "dir_desc": "Outbound", "stop_id": "348", "stop_name": "E\/S of Augusta S of Laurel Hill", "stop_seq": "30" }, "geometry": { "type": "Point", "coordinates": [ -123.050420699999989, 44.037859 ] } },
{ "type": "Feature", "properties": { "rte": "27", "rte_desc": "27-Fairmount", "dir": "0", "dir_desc": "Outbound", "stop_id": "350", "stop_name": "N\/S of 16th E of Riverview", "stop_seq": "31" }, "geometry": { "type": "Point", "coordinates": [ -123.051417799999982, 44.0416513 ] } },
{ "type": "Feature", "properties": { "rte": "27", "rte_desc": "27-Fairmount", "dir": "0", "dir_desc": "Outbound", "stop_id": "1074", "stop_name": "W\/S of Orchard S of Franklin", "stop_seq": "32" }, "geometry": { "type": "Point", "coordinates": [ -123.0632025, 44.0447551 ] } }
]
}
