{
"type": "FeatureCollection",
"crs": { "type": "name", "properties": { "name": "urn:ogc:def:crs:OGC:1.3:CRS84" } },
                                                                                
"features": [
{ "type": "Feature", "properties": { "rte": 38, "dir": 1, "rte_desc": "38-Boones Ferry Rd", "dir_desc": "To Portland City Center", "type": "BUS", "stop_seq": 2450, "stop_id": 545, "stop_name": "SW Boones Ferry Rd & Palatine", "jurisdic": "Portland", "zipcode": "97219", "frequent": "False" }, "geometry": { "type": "Point", "coordinates": [ -122.686315297679798, 45.444770505023996 ] } },
{ "type": "Feature", "properties": { "rte": 38, "dir": 1, "rte_desc": "38-Boones Ferry Rd", "dir_desc": "To Portland City Center", "type": "BUS", "stop_seq": 1400, "stop_id": 564, "stop_name": "Boones Ferry Rd & Spring Lane", "jurisdic": "Lake Oswego", "zipcode": "97035", "frequent": "False" }, "geometry": { "type": "Point", "coordinates": [ -122.714820564723581, 45.41673927392366 ] } },
{ "type": "Feature", "properties": { "rte": 38, "dir": 1, "rte_desc": "38-Boones Ferry Rd", "dir_desc": "To Portland City Center", "type": "BUS", "stop_seq": 2350, "stop_id": 565, "stop_name": "SW Boones Ferry Rd & Stephenson", "jurisdic": "Portland", "zipcode": "97219", "frequent": "False" }, "geometry": { "type": "Point", "coordinates": [ -122.686158880640832, 45.439813603646428 ] } },
{ "type": "Feature", "properties": { "rte": 38, "dir": 1, "rte_desc": "38-Boones Ferry Rd", "dir_desc": "To Portland City Center", "type": "BUS", "stop_seq": 1450, "stop_id": 569, "stop_name": "Boones Ferry Rd & Twin Fir", "jurisdic": "Lake Oswego", "zipcode": "97035", "frequent": "False" }, "geometry": { "type": "Point", "coordinates": [ -122.712711862827462, 45.418800117537607 ] } },
{ "type": "Feature", "properties": { "rte": 38, "dir": 1, "rte_desc": "38-Boones Ferry Rd", "dir_desc": "To Portland City Center", "type": "BUS", "stop_seq": 2300, "stop_id": 580, "stop_name": "SW Boones Ferry Rd & 19th", "jurisdic": "Multnomah Co.", "zipcode": "97034", "frequent": "False" }, "geometry": { "type": "Point", "coordinates": [ -122.697115148108779, 45.436068172344413 ] } },
{ "type": "Feature", "properties": { "rte": 38, "dir": 1, "rte_desc": "38-Boones Ferry Rd", "dir_desc": "To Portland City Center", "type": "BUS", "stop_seq": 2600, "stop_id": 584, "stop_name": "SW Boones Ferry Rd & 4th", "jurisdic": "Portland", "zipcode": "97219", "frequent": "False" }, "geometry": { "type": "Point", "coordinates": [ -122.683202690025595, 45.451751596668196 ] } },
{ "type": "Feature", "properties": { "rte": 38, "dir": 1, "rte_desc": "38-Boones Ferry Rd", "dir_desc": "To Portland City Center", "type": "BUS", "stop_seq": 3500, "stop_id": 1926, "stop_name": "SW Naito Parkway & Harrison", "jurisdic": "Portland", "zipcode": "97201", "frequent": "False" }, "geometry": { "type": "Point", "coordinates": [ -122.676875212131378, 45.509278640851235 ] } },
{ "type": "Feature", "properties": { "rte": 38, "dir": 1, "rte_desc": "38-Boones Ferry Rd", "dir_desc": "To Portland City Center", "type": "BUS", "stop_seq": 3450, "stop_id": 1930, "stop_name": "SW Naito Parkway & Hooker", "jurisdic": "Portland", "zipcode": "97201", "frequent": "False" }, "geometry": { "type": "Point", "coordinates": [ -122.677629970142476, 45.502166097086878 ] } },
{ "type": "Feature", "properties": { "rte": 38, "dir": 1, "rte_desc": "38-Boones Ferry Rd", "dir_desc": "To Portland City Center", "type": "BUS", "stop_seq": 3650, "stop_id": 3039, "stop_name": "SW Jefferson & Broadway", "jurisdic": "Portland", "zipcode": "97204", "frequent": "False" }, "geometry": { "type": "Point", "coordinates": [ -122.681592512030178, 45.515365868427999 ] } },
{ "type": "Feature", "properties": { "rte": 38, "dir": 1, "rte_desc": "38-Boones Ferry Rd", "dir_desc": "To Portland City Center", "type": "BUS", "stop_seq": 1900, "stop_id": 3046, "stop_name": "SW Jefferson Pkwy & McNary Pkwy", "jurisdic": "Lake Oswego", "zipcode": "97035", "frequent": "False" }, "geometry": { "type": "Point", "coordinates": [ -122.715583736064488, 45.434619370581849 ] } },
{ "type": "Feature", "properties": { "rte": 38, "dir": 1, "rte_desc": "38-Boones Ferry Rd", "dir_desc": "To Portland City Center", "type": "BUS", "stop_seq": 3700, "stop_id": 3049, "stop_name": "SW Jefferson & 10th", "jurisdic": "Portland", "zipcode": "97205", "frequent": "False" }, "geometry": { "type": "Point", "coordinates": [ -122.683763507242972, 45.515944445951916 ] } },
{ "type": "Feature", "properties": { "rte": 38, "dir": 1, "rte_desc": "38-Boones Ferry Rd", "dir_desc": "To Portland City Center", "type": "BUS", "stop_seq": 2100, "stop_id": 2248, "stop_name": "200 Block Greenridge", "jurisdic": "Lake Oswego", "zipcode": "97035", "frequent": "False" }, "geometry": { "type": "Point", "coordinates": [ -122.705557624382124, 45.430500229572871 ] } },
{ "type": "Feature", "properties": { "rte": 38, "dir": 1, "rte_desc": "38-Boones Ferry Rd", "dir_desc": "To Portland City Center", "type": "BUS", "stop_seq": 2150, "stop_id": 2249, "stop_name": "Greenridge & Greenridge Ct", "jurisdic": "Lake Oswego", "zipcode": "97035", "frequent": "False" }, "geometry": { "type": "Point", "coordinates": [ -122.704130648800202, 45.431241324671255 ] } },
{ "type": "Feature", "properties": { "rte": 38, "dir": 1, "rte_desc": "38-Boones Ferry Rd", "dir_desc": "To Portland City Center", "type": "BUS", "stop_seq": 1300, "stop_id": 3293, "stop_name": "Kruse Way & Carman", "jurisdic": "Lake Oswego", "zipcode": "97035", "frequent": "False" }, "geometry": { "type": "Point", "coordinates": [ -122.724510353314685, 45.418380543783137 ] } },
{ "type": "Feature", "properties": { "rte": 38, "dir": 1, "rte_desc": "38-Boones Ferry Rd", "dir_desc": "To Portland City Center", "type": "BUS", "stop_seq": 1250, "stop_id": 3298, "stop_name": "Kruse Way & Kruse Woods", "jurisdic": "Lake Oswego", "zipcode": "97035", "frequent": "False" }, "geometry": { "type": "Point", "coordinates": [ -122.731299532470572, 45.418830977921061 ] } },
{ "type": "Feature", "properties": { "rte": 38, "dir": 1, "rte_desc": "38-Boones Ferry Rd", "dir_desc": "To Portland City Center", "type": "BUS", "stop_seq": 3350, "stop_id": 156, "stop_name": "4900 Block SW Barbur", "jurisdic": "Portland", "zipcode": "97239", "frequent": "False" }, "geometry": { "type": "Point", "coordinates": [ -122.682514639880239, 45.487677128400847 ] } },
{ "type": "Feature", "properties": { "rte": 38, "dir": 1, "rte_desc": "38-Boones Ferry Rd", "dir_desc": "To Portland City Center", "type": "BUS", "stop_seq": 3200, "stop_id": 167, "stop_name": "SW Barbur & Brier", "jurisdic": "Portland", "zipcode": "97219", "frequent": "False" }, "geometry": { "type": "Point", "coordinates": [ -122.6793212408583, 45.472703470036741 ] } },
{ "type": "Feature", "properties": { "rte": 38, "dir": 1, "rte_desc": "38-Boones Ferry Rd", "dir_desc": "To Portland City Center", "type": "BUS", "stop_seq": 3400, "stop_id": 172, "stop_name": "SW Barbur & Hamilton", "jurisdic": "Portland", "zipcode": "97239", "frequent": "False" }, "geometry": { "type": "Point", "coordinates": [ -122.677724730057179, 45.491185992510047 ] } },
{ "type": "Feature", "properties": { "rte": 38, "dir": 1, "rte_desc": "38-Boones Ferry Rd", "dir_desc": "To Portland City Center", "type": "BUS", "stop_seq": 3100, "stop_id": 193, "stop_name": "SW Barbur & Terwilliger", "jurisdic": "Portland", "zipcode": "97219", "frequent": "False" }, "geometry": { "type": "Point", "coordinates": [ -122.684975700356532, 45.470919191202213 ] } },
{ "type": "Feature", "properties": { "rte": 38, "dir": 1, "rte_desc": "38-Boones Ferry Rd", "dir_desc": "To Portland City Center", "type": "BUS", "stop_seq": 3000, "stop_id": 5790, "stop_name": "SW Terwilliger & Carson", "jurisdic": "Portland", "zipcode": "97219", "frequent": "False" }, "geometry": { "type": "Point", "coordinates": [ -122.683568946441355, 45.46405596643617 ] } },
{ "type": "Feature", "properties": { "rte": 38, "dir": 1, "rte_desc": "38-Boones Ferry Rd", "dir_desc": "To Portland City Center", "type": "BUS", "stop_seq": 2400, "stop_id": 492, "stop_name": "11200 Block SW Boones Ferry Rd", "jurisdic": "Portland", "zipcode": "97219", "frequent": "False" }, "geometry": { "type": "Point", "coordinates": [ -122.686627618037434, 45.44367081081333 ] } },
{ "type": "Feature", "properties": { "rte": 38, "dir": 1, "rte_desc": "38-Boones Ferry Rd", "dir_desc": "To Portland City Center", "type": "BUS", "stop_seq": 2900, "stop_id": 5798, "stop_name": "SW Terwilliger & Lobelia", "jurisdic": "Portland", "zipcode": "97219", "frequent": "False" }, "geometry": { "type": "Point", "coordinates": [ -122.684848442127688, 45.461059675226245 ] } },
{ "type": "Feature", "properties": { "rte": 38, "dir": 1, "rte_desc": "38-Boones Ferry Rd", "dir_desc": "To Portland City Center", "type": "BUS", "stop_seq": 2950, "stop_id": 5806, "stop_name": "SW Terwilliger & Taylors Ferry", "jurisdic": "Portland", "zipcode": "97219", "frequent": "False" }, "geometry": { "type": "Point", "coordinates": [ -122.684834895954722, 45.462811225743792 ] } },
{ "type": "Feature", "properties": { "rte": 38, "dir": 1, "rte_desc": "38-Boones Ferry Rd", "dir_desc": "To Portland City Center", "type": "BUS", "stop_seq": 3050, "stop_id": 5809, "stop_name": "SW Terwilliger & Troy", "jurisdic": "Portland", "zipcode": "97219", "frequent": "False" }, "geometry": { "type": "Point", "coordinates": [ -122.684770697669663, 45.467537419034663 ] } },
{ "type": "Feature", "properties": { "rte": 38, "dir": 1, "rte_desc": "38-Boones Ferry Rd", "dir_desc": "To Portland City Center", "type": "BUS", "stop_seq": 2750, "stop_id": 5814, "stop_name": "SW Terwilliger & 6th", "jurisdic": "Portland", "zipcode": "97219", "frequent": "False" }, "geometry": { "type": "Point", "coordinates": [ -122.684659679581642, 45.456156338190731 ] } },
{ "type": "Feature", "properties": { "rte": 38, "dir": 1, "rte_desc": "38-Boones Ferry Rd", "dir_desc": "To Portland City Center", "type": "BUS", "stop_seq": 1950, "stop_id": 3862, "stop_name": "McNary & Churchill Downs", "jurisdic": "Lake Oswego", "zipcode": "97035", "frequent": "False" }, "geometry": { "type": "Point", "coordinates": [ -122.712115610283192, 45.433589317977223 ] } },
{ "type": "Feature", "properties": { "rte": 38, "dir": 1, "rte_desc": "38-Boones Ferry Rd", "dir_desc": "To Portland City Center", "type": "BUS", "stop_seq": 2000, "stop_id": 3864, "stop_name": "McNary & Condolea", "jurisdic": "Lake Oswego", "zipcode": "97035", "frequent": "False" }, "geometry": { "type": "Point", "coordinates": [ -122.710016275832217, 45.433887663491006 ] } },
{ "type": "Feature", "properties": { "rte": 38, "dir": 1, "rte_desc": "38-Boones Ferry Rd", "dir_desc": "To Portland City Center", "type": "BUS", "stop_seq": 2550, "stop_id": 517, "stop_name": "SW Boones Ferry Rd & Colony Dr", "jurisdic": "Portland", "zipcode": "97219", "frequent": "False" }, "geometry": { "type": "Point", "coordinates": [ -122.686123395762351, 45.448875720717972 ] } },
{ "type": "Feature", "properties": { "rte": 38, "dir": 1, "rte_desc": "38-Boones Ferry Rd", "dir_desc": "To Portland City Center", "type": "BUS", "stop_seq": 1675, "stop_id": 10305, "stop_name": "Kerr & Touchstone", "jurisdic": "Lake Oswego", "zipcode": "97035", "frequent": "False" }, "geometry": { "type": "Point", "coordinates": [ -122.714738679621149, 45.428129552078587 ] } },
{ "type": "Feature", "properties": { "rte": 38, "dir": 1, "rte_desc": "38-Boones Ferry Rd", "dir_desc": "To Portland City Center", "type": "BUS", "stop_seq": 2325, "stop_id": 9407, "stop_name": "SW Boones Ferry Rd & 13th Ct", "jurisdic": "Portland", "zipcode": "97219", "frequent": "False" }, "geometry": { "type": "Point", "coordinates": [ -122.692423520005178, 45.437758133632308 ] } },
{ "type": "Feature", "properties": { "rte": 38, "dir": 1, "rte_desc": "38-Boones Ferry Rd", "dir_desc": "To Portland City Center", "type": "BUS", "stop_seq": 1850, "stop_id": 3041, "stop_name": "Jefferson & Independence", "jurisdic": "Lake Oswego", "zipcode": "97035", "frequent": "False" }, "geometry": { "type": "Point", "coordinates": [ -122.715847435756871, 45.432044622642664 ] } },
{ "type": "Feature", "properties": { "rte": 38, "dir": 1, "rte_desc": "38-Boones Ferry Rd", "dir_desc": "To Portland City Center", "type": "BUS", "stop_seq": 1700, "stop_id": 3129, "stop_name": "Kerr & Independence", "jurisdic": "Lake Oswego", "zipcode": "97035", "frequent": "False" }, "geometry": { "type": "Point", "coordinates": [ -122.716110667327115, 45.428830508957091 ] } },
{ "type": "Feature", "properties": { "rte": 38, "dir": 1, "rte_desc": "38-Boones Ferry Rd", "dir_desc": "To Portland City Center", "type": "BUS", "stop_seq": 1600, "stop_id": 3133, "stop_name": "Kerr & McNary", "jurisdic": "Lake Oswego", "zipcode": "97035", "frequent": "False" }, "geometry": { "type": "Point", "coordinates": [ -122.70719241724268, 45.428520482281101 ] } },
{ "type": "Feature", "properties": { "rte": 38, "dir": 1, "rte_desc": "38-Boones Ferry Rd", "dir_desc": "To Portland City Center", "type": "BUS", "stop_seq": 2500, "stop_id": 507, "stop_name": "SW Boones Ferry Rd & Arnold", "jurisdic": "Portland", "zipcode": "97219", "frequent": "False" }, "geometry": { "type": "Point", "coordinates": [ -122.686984192617373, 45.446434502652203 ] } },
{ "type": "Feature", "properties": { "rte": 38, "dir": 1, "rte_desc": "38-Boones Ferry Rd", "dir_desc": "To Portland City Center", "type": "BUS", "stop_seq": 750, "stop_id": 11944, "stop_name": "16800 Block SW 72nd", "jurisdic": "Tigard", "zipcode": "97224", "frequent": "False" }, "geometry": { "type": "Point", "coordinates": [ -122.749002087386415, 45.397670005098554 ] } },
{ "type": "Feature", "properties": { "rte": 38, "dir": 1, "rte_desc": "38-Boones Ferry Rd", "dir_desc": "To Portland City Center", "type": "BUS", "stop_seq": 900, "stop_id": 7877, "stop_name": "SW 72nd & Kable", "jurisdic": "Tigard", "zipcode": "97224", "frequent": "False" }, "geometry": { "type": "Point", "coordinates": [ -122.748934754661633, 45.407907404407752 ] } },
{ "type": "Feature", "properties": { "rte": 38, "dir": 1, "rte_desc": "38-Boones Ferry Rd", "dir_desc": "To Portland City Center", "type": "BUS", "stop_seq": 700, "stop_id": 7879, "stop_name": "Tualatin Park & Ride", "jurisdic": "Tualatin", "zipcode": "97224", "frequent": "False" }, "geometry": { "type": "Point", "coordinates": [ -122.748820768416266, 45.394696549867142 ] } },
{ "type": "Feature", "properties": { "rte": 38, "dir": 1, "rte_desc": "38-Boones Ferry Rd", "dir_desc": "To Portland City Center", "type": "BUS", "stop_seq": 1100, "stop_id": 7887, "stop_name": "SW 72nd & Sandburg", "jurisdic": "Tigard", "zipcode": "97223", "frequent": "False" }, "geometry": { "type": "Point", "coordinates": [ -122.751661708021061, 45.421286412949705 ] } },
{ "type": "Feature", "properties": { "rte": 38, "dir": 1, "rte_desc": "38-Boones Ferry Rd", "dir_desc": "To Portland City Center", "type": "BUS", "stop_seq": 850, "stop_id": 7893, "stop_name": "SW 72nd & Upper Boones Ferry", "jurisdic": "Tigard", "zipcode": "97224", "frequent": "False" }, "geometry": { "type": "Point", "coordinates": [ -122.749421841673566, 45.403898715294446 ] } },
{ "type": "Feature", "properties": { "rte": 38, "dir": 1, "rte_desc": "38-Boones Ferry Rd", "dir_desc": "To Portland City Center", "type": "BUS", "stop_seq": 1150, "stop_id": 7894, "stop_name": "SW 72nd & Varns", "jurisdic": "Tigard", "zipcode": "97223", "frequent": "False" }, "geometry": { "type": "Point", "coordinates": [ -122.751484942390832, 45.424467763077466 ] } },
{ "type": "Feature", "properties": { "rte": 38, "dir": 1, "rte_desc": "38-Boones Ferry Rd", "dir_desc": "To Portland City Center", "type": "BUS", "stop_seq": 2650, "stop_id": 5813, "stop_name": "SW Terwilliger & 2nd", "jurisdic": "Portland", "zipcode": "97219", "frequent": "False" }, "geometry": { "type": "Point", "coordinates": [ -122.682536304602309, 45.454040662502663 ] } },
{ "type": "Feature", "properties": { "rte": 38, "dir": 1, "rte_desc": "38-Boones Ferry Rd", "dir_desc": "To Portland City Center", "type": "BUS", "stop_seq": 1200, "stop_id": 3295, "stop_name": "Kruse Way & Kruse Oaks", "jurisdic": "Lake Oswego", "zipcode": "97035", "frequent": "False" }, "geometry": { "type": "Point", "coordinates": [ -122.738835687113877, 45.419185985533801 ] } },
{ "type": "Feature", "properties": { "rte": 38, "dir": 1, "rte_desc": "38-Boones Ferry Rd", "dir_desc": "To Portland City Center", "type": "BUS", "stop_seq": 1000, "stop_id": 7867, "stop_name": "SW 72nd & Bonita", "jurisdic": "Tigard", "zipcode": "97224", "frequent": "False" }, "geometry": { "type": "Point", "coordinates": [ -122.74897046933738, 45.415042704642026 ] } },
{ "type": "Feature", "properties": { "rte": 38, "dir": 1, "rte_desc": "38-Boones Ferry Rd", "dir_desc": "To Portland City Center", "type": "BUS", "stop_seq": 1500, "stop_id": 554, "stop_name": "Boones Ferry Rd & Rainbow", "jurisdic": "Lake Oswego", "zipcode": "97035", "frequent": "False" }, "geometry": { "type": "Point", "coordinates": [ -122.710404534907255, 45.421379876384457 ] } },
{ "type": "Feature", "properties": { "rte": 38, "dir": 1, "rte_desc": "38-Boones Ferry Rd", "dir_desc": "To Portland City Center", "type": "BUS", "stop_seq": 2200, "stop_id": 3996, "stop_name": "Monroe & Boones Ferry Rd", "jurisdic": "Lake Oswego", "zipcode": "97035", "frequent": "False" }, "geometry": { "type": "Point", "coordinates": [ -122.702863014305109, 45.432166843340198 ] } },
{ "type": "Feature", "properties": { "rte": 38, "dir": 1, "rte_desc": "38-Boones Ferry Rd", "dir_desc": "To Portland City Center", "type": "BUS", "stop_seq": 1050, "stop_id": 7895, "stop_name": "14100 Block SW 72nd", "jurisdic": "Tigard", "zipcode": "97224", "frequent": "False" }, "geometry": { "type": "Point", "coordinates": [ -122.74898685116608, 45.417594930624404 ] } },
{ "type": "Feature", "properties": { "rte": 38, "dir": 1, "rte_desc": "38-Boones Ferry Rd", "dir_desc": "To Portland City Center", "type": "BUS", "stop_seq": 2050, "stop_id": 3997, "stop_name": "SW Monroe & Greenridge", "jurisdic": "Lake Oswego", "zipcode": "97035", "frequent": "False" }, "geometry": { "type": "Point", "coordinates": [ -122.707672997129336, 45.433548714247856 ] } },
{ "type": "Feature", "properties": { "rte": 38, "dir": 1, "rte_desc": "38-Boones Ferry Rd", "dir_desc": "To Portland City Center", "type": "BUS", "stop_seq": 3550, "stop_id": 12789, "stop_name": "SW Jefferson & 1st", "jurisdic": "Portland", "zipcode": "97204", "frequent": "False" }, "geometry": { "type": "Point", "coordinates": [ -122.675599760742017, 45.513746096543358 ] } },
{ "type": "Feature", "properties": { "rte": 38, "dir": 1, "rte_desc": "38-Boones Ferry Rd", "dir_desc": "To Portland City Center", "type": "BUS", "stop_seq": 950, "stop_id": 7885, "stop_name": "SW 72nd & Cardinal", "jurisdic": "Tigard", "zipcode": "97224", "frequent": "False" }, "geometry": { "type": "Point", "coordinates": [ -122.748953432446484, 45.411471267855617 ] } },
{ "type": "Feature", "properties": { "rte": 38, "dir": 1, "rte_desc": "38-Boones Ferry Rd", "dir_desc": "To Portland City Center", "type": "BUS", "stop_seq": 1750, "stop_id": 3043, "stop_name": "2 Jefferson Parkway", "jurisdic": "Lake Oswego", "zipcode": "97035", "frequent": "False" }, "geometry": { "type": "Point", "coordinates": [ -122.716342539625032, 45.4307044216607 ] } },
{ "type": "Feature", "properties": { "rte": 38, "dir": 1, "rte_desc": "38-Boones Ferry Rd", "dir_desc": "To Portland City Center", "type": "BUS", "stop_seq": 3250, "stop_id": 182, "stop_name": "SW Barbur & Parkhill", "jurisdic": "Portland", "zipcode": "97239", "frequent": "False" }, "geometry": { "type": "Point", "coordinates": [ -122.679657054747253, 45.477480474593023 ] } },
{ "type": "Feature", "properties": { "rte": 38, "dir": 1, "rte_desc": "38-Boones Ferry Rd", "dir_desc": "To Portland City Center", "type": "BUS", "stop_seq": 1800, "stop_id": 3048, "stop_name": "Jefferson & Mt Jefferson", "jurisdic": "Lake Oswego", "zipcode": "97035", "frequent": "False" }, "geometry": { "type": "Point", "coordinates": [ -122.71587299913665, 45.431282497250962 ] } },
{ "type": "Feature", "properties": { "rte": 38, "dir": 1, "rte_desc": "38-Boones Ferry Rd", "dir_desc": "To Portland City Center", "type": "BUS", "stop_seq": 1650, "stop_id": 3135, "stop_name": "Kerr & Tanglewood", "jurisdic": "Lake Oswego", "zipcode": "97035", "frequent": "False" }, "geometry": { "type": "Point", "coordinates": [ -122.712317501097246, 45.428364300725185 ] } },
{ "type": "Feature", "properties": { "rte": 38, "dir": 1, "rte_desc": "38-Boones Ferry Rd", "dir_desc": "To Portland City Center", "type": "BUS", "stop_seq": 875, "stop_id": 8495, "stop_name": "15700 Block SW 72nd", "jurisdic": "Tigard", "zipcode": "97224", "frequent": "False" }, "geometry": { "type": "Point", "coordinates": [ -122.748917622738219, 45.406223417428954 ] } },
{ "type": "Feature", "properties": { "rte": 38, "dir": 1, "rte_desc": "38-Boones Ferry Rd", "dir_desc": "To Portland City Center", "type": "BUS", "stop_seq": 2800, "stop_id": 5781, "stop_name": "SW Terwilliger & Alice", "jurisdic": "Portland", "zipcode": "97219", "frequent": "False" }, "geometry": { "type": "Point", "coordinates": [ -122.684865715432792, 45.457391043128716 ] } },
{ "type": "Feature", "properties": { "rte": 38, "dir": 1, "rte_desc": "38-Boones Ferry Rd", "dir_desc": "To Portland City Center", "type": "BUS", "stop_seq": 1550, "stop_id": 3138, "stop_name": "Kerr & The Grotto", "jurisdic": "Lake Oswego", "zipcode": "97035", "frequent": "False" }, "geometry": { "type": "Point", "coordinates": [ -122.707134732304638, 45.426323852971656 ] } },
{ "type": "Feature", "properties": { "rte": 38, "dir": 1, "rte_desc": "38-Boones Ferry Rd", "dir_desc": "To Portland City Center", "type": "BUS", "stop_seq": 3410, "stop_id": 9558, "stop_name": "3800 Block SW Barbur", "jurisdic": "Portland", "zipcode": "97239", "frequent": "False" }, "geometry": { "type": "Point", "coordinates": [ -122.677266675430729, 45.495070210410923 ] } },
{ "type": "Feature", "properties": { "rte": 38, "dir": 1, "rte_desc": "38-Boones Ferry Rd", "dir_desc": "To Portland City Center", "type": "BUS", "stop_seq": 800, "stop_id": 7865, "stop_name": "16500 Block SW 72nd", "jurisdic": "Tigard", "zipcode": "97224", "frequent": "False" }, "geometry": { "type": "Point", "coordinates": [ -122.749035557824783, 45.401286472494029 ] } },
{ "type": "Feature", "properties": { "rte": 38, "dir": 1, "rte_desc": "38-Boones Ferry Rd", "dir_desc": "To Portland City Center", "type": "BUS", "stop_seq": 1060, "stop_id": 9509, "stop_name": "13900 Block SW 72nd", "jurisdic": "Tigard", "zipcode": "97223", "frequent": "False" }, "geometry": { "type": "Point", "coordinates": [ -122.750114273476314, 45.419300982646895 ] } },
{ "type": "Feature", "properties": { "rte": 38, "dir": 1, "rte_desc": "38-Boones Ferry Rd", "dir_desc": "To Portland City Center", "type": "BUS", "stop_seq": 2850, "stop_id": 5801, "stop_name": "SW Terwilliger & Primrose", "jurisdic": "Portland", "zipcode": "97219", "frequent": "False" }, "geometry": { "type": "Point", "coordinates": [ -122.684860801911015, 45.459427456542493 ] } },
{ "type": "Feature", "properties": { "rte": 38, "dir": 1, "rte_desc": "38-Boones Ferry Rd", "dir_desc": "To Portland City Center", "type": "BUS", "stop_seq": 2250, "stop_id": 13735, "stop_name": "SW Boones Ferry & Orchard Hill", "jurisdic": "Portland", "zipcode": "97035", "frequent": "False" }, "geometry": { "type": "Point", "coordinates": [ -122.699043970755497, 45.434869374214195 ] } },
{ "type": "Feature", "properties": { "rte": 38, "dir": 1, "rte_desc": "38-Boones Ferry Rd", "dir_desc": "To Portland City Center", "type": "BUS", "stop_seq": 3300, "stop_id": 189, "stop_name": "SW Barbur & Slavin\/Capitol Hwy", "jurisdic": "Portland", "zipcode": "97239", "frequent": "False" }, "geometry": { "type": "Point", "coordinates": [ -122.680128513430063, 45.480455657162722 ] } },
{ "type": "Feature", "properties": { "rte": 38, "dir": 1, "rte_desc": "38-Boones Ferry Rd", "dir_desc": "To Portland City Center", "type": "BUS", "stop_seq": 3150, "stop_id": 203, "stop_name": "SW Barbur & 2nd", "jurisdic": "Portland", "zipcode": "97219", "frequent": "False" }, "geometry": { "type": "Point", "coordinates": [ -122.680574878813388, 45.471448919979785 ] } },
{ "type": "Feature", "properties": { "rte": 38, "dir": 1, "rte_desc": "38-Boones Ferry Rd", "dir_desc": "To Portland City Center", "type": "BUS", "stop_seq": 775, "stop_id": 9048, "stop_name": "SW 72nd & Durham Rd", "jurisdic": "Tigard", "zipcode": "97224", "frequent": "False" }, "geometry": { "type": "Point", "coordinates": [ -122.748989391094867, 45.398824979130495 ] } },
{ "type": "Feature", "properties": { "rte": 38, "dir": 1, "rte_desc": "38-Boones Ferry Rd", "dir_desc": "To Portland City Center", "type": "BUS", "stop_seq": 1350, "stop_id": 3299, "stop_name": "Kruse Way & Mercantile", "jurisdic": "Lake Oswego", "zipcode": "97035", "frequent": "False" }, "geometry": { "type": "Point", "coordinates": [ -122.718839581994473, 45.416536589318632 ] } },
{ "type": "Feature", "properties": { "rte": 38, "dir": 1, "rte_desc": "38-Boones Ferry Rd", "dir_desc": "To Portland City Center", "type": "BUS", "stop_seq": 3600, "stop_id": 12791, "stop_name": "SW Jefferson & 5th", "jurisdic": "Portland", "zipcode": "97204", "frequent": "False" }, "geometry": { "type": "Point", "coordinates": [ -122.679534868504206, 45.514809931890845 ] } }
]
}
