{
"type": "FeatureCollection",
"crs": { "type": "name", "properties": { "name": "urn:ogc:def:crs:OGC:1.3:CRS84" } },
                                                                                
"features": [
{ "type": "Feature", "properties": { "rte": "41", "rte_desc": "41-Barger\/West 11th Ave.", "dir": "0", "dir_desc": "Outbound", "stop_id": "2106", "stop_name": "Eugene Station, Bay F", "stop_seq": "1" }, "geometry": { "type": "Point", "coordinates": [ -123.093984899999981, 44.0481382 ] } },
{ "type": "Feature", "properties": { "rte": "41", "rte_desc": "41-Barger\/West 11th Ave.", "dir": "0", "dir_desc": "Outbound", "stop_id": "1051", "stop_name": "N\/S of 8th W of Olive", "stop_seq": "2" }, "geometry": { "type": "Point", "coordinates": [ -123.0947076, 44.0510688 ] } },
{ "type": "Feature", "properties": { "rte": "41", "rte_desc": "41-Barger\/West 11th Ave.", "dir": "0", "dir_desc": "Outbound", "stop_id": "1052", "stop_name": "N\/S of 8th W of Lincoln", "stop_seq": "3" }, "geometry": { "type": "Point", "coordinates": [ -123.097690499999985, 44.0509771 ] } },
{ "type": "Feature", "properties": { "rte": "41", "rte_desc": "41-Barger\/West 11th Ave.", "dir": "0", "dir_desc": "Outbound", "stop_id": "1053", "stop_name": "N\/S of 8th E of Washington", "stop_seq": "4" }, "geometry": { "type": "Point", "coordinates": [ -123.1001884, 44.0509197 ] } },
{ "type": "Feature", "properties": { "rte": "41", "rte_desc": "41-Barger\/West 11th Ave.", "dir": "0", "dir_desc": "Outbound", "stop_id": "986", "stop_name": "N\/S of 8th W of Jefferson", "stop_seq": "5" }, "geometry": { "type": "Point", "coordinates": [ -123.1022468, 44.0509176 ] } },
{ "type": "Feature", "properties": { "rte": "41", "rte_desc": "41-Barger\/West 11th Ave.", "dir": "0", "dir_desc": "Outbound", "stop_id": "983", "stop_name": "N\/S of 8th W of Monroe", "stop_seq": "6" }, "geometry": { "type": "Point", "coordinates": [ -123.1053898, 44.0508997 ] } },
{ "type": "Feature", "properties": { "rte": "41", "rte_desc": "41-Barger\/West 11th Ave.", "dir": "0", "dir_desc": "Outbound", "stop_id": "981", "stop_name": "N\/S of 8th E of Van Buren", "stop_seq": "7" }, "geometry": { "type": "Point", "coordinates": [ -123.1092727, 44.0509444 ] } },
{ "type": "Feature", "properties": { "rte": "41", "rte_desc": "41-Barger\/West 11th Ave.", "dir": "0", "dir_desc": "Outbound", "stop_id": "978", "stop_name": "N\/S of 8th W of Polk", "stop_seq": "8" }, "geometry": { "type": "Point", "coordinates": [ -123.1129218, 44.0509307 ] } },
{ "type": "Feature", "properties": { "rte": "41", "rte_desc": "41-Barger\/West 11th Ave.", "dir": "0", "dir_desc": "Outbound", "stop_id": "977", "stop_name": "N\/S of 8th W of Almaden", "stop_seq": "9" }, "geometry": { "type": "Point", "coordinates": [ -123.1161362, 44.0509455 ] } },
{ "type": "Feature", "properties": { "rte": "41", "rte_desc": "41-Barger\/West 11th Ave.", "dir": "0", "dir_desc": "Outbound", "stop_id": "975", "stop_name": "N\/S of 8th W of Chambers", "stop_seq": "10" }, "geometry": { "type": "Point", "coordinates": [ -123.1184356, 44.0509232 ] } },
{ "type": "Feature", "properties": { "rte": "41", "rte_desc": "41-Barger\/West 11th Ave.", "dir": "0", "dir_desc": "Outbound", "stop_id": "973", "stop_name": "N\/S of 8th E of Garfield", "stop_seq": "11" }, "geometry": { "type": "Point", "coordinates": [ -123.1220733, 44.0509509 ] } },
{ "type": "Feature", "properties": { "rte": "41", "rte_desc": "41-Barger\/West 11th Ave.", "dir": "0", "dir_desc": "Outbound", "stop_id": "971", "stop_name": "N\/S of 6th W of Garfield", "stop_seq": "12" }, "geometry": { "type": "Point", "coordinates": [ -123.1247333, 44.0537246 ] } },
{ "type": "Feature", "properties": { "rte": "41", "rte_desc": "41-Barger\/West 11th Ave.", "dir": "0", "dir_desc": "Outbound", "stop_id": "969", "stop_name": "E\/S of Hwy 99 N of 5th", "stop_seq": "13" }, "geometry": { "type": "Point", "coordinates": [ -123.128724, 44.0554999 ] } },
{ "type": "Feature", "properties": { "rte": "41", "rte_desc": "41-Barger\/West 11th Ave.", "dir": "0", "dir_desc": "Outbound", "stop_id": "967", "stop_name": "E\/S of Hwy 99 N of Roosevelt", "stop_seq": "14" }, "geometry": { "type": "Point", "coordinates": [ -123.137213099999983, 44.0642566 ] } },
{ "type": "Feature", "properties": { "rte": "41", "rte_desc": "41-Barger\/West 11th Ave.", "dir": "0", "dir_desc": "Outbound", "stop_id": "965", "stop_name": "E\/S of Hwy 99 N of Side", "stop_seq": "15" }, "geometry": { "type": "Point", "coordinates": [ -123.1398053, 44.0669902 ] } },
{ "type": "Feature", "properties": { "rte": "41", "rte_desc": "41-Barger\/West 11th Ave.", "dir": "0", "dir_desc": "Outbound", "stop_id": "802", "stop_name": "N\/S of Royal W of Bon Vue", "stop_seq": "16" }, "geometry": { "type": "Point", "coordinates": [ -123.1444999, 44.0701332 ] } },
{ "type": "Feature", "properties": { "rte": "41", "rte_desc": "41-Barger\/West 11th Ave.", "dir": "0", "dir_desc": "Outbound", "stop_id": "804", "stop_name": "N\/S of Royal W of Jerry", "stop_seq": "17" }, "geometry": { "type": "Point", "coordinates": [ -123.1469111, 44.0701539 ] } },
{ "type": "Feature", "properties": { "rte": "41", "rte_desc": "41-Barger\/West 11th Ave.", "dir": "0", "dir_desc": "Outbound", "stop_id": "931", "stop_name": "E\/S of Fairfield N of Royal", "stop_seq": "18" }, "geometry": { "type": "Point", "coordinates": [ -123.148678799999985, 44.0706396 ] } },
{ "type": "Feature", "properties": { "rte": "41", "rte_desc": "41-Barger\/West 11th Ave.", "dir": "0", "dir_desc": "Outbound", "stop_id": "932", "stop_name": "E\/S of Fairfield N of Hawthorne", "stop_seq": "19" }, "geometry": { "type": "Point", "coordinates": [ -123.1486168, 44.0728949 ] } },
{ "type": "Feature", "properties": { "rte": "41", "rte_desc": "41-Barger\/West 11th Ave.", "dir": "0", "dir_desc": "Outbound", "stop_id": "934", "stop_name": "S\/S of Fairfield W of Hwy 99", "stop_seq": "20" }, "geometry": { "type": "Point", "coordinates": [ -123.1477068, 44.0742349 ] } },
{ "type": "Feature", "properties": { "rte": "41", "rte_desc": "41-Barger\/West 11th Ave.", "dir": "0", "dir_desc": "Outbound", "stop_id": "961", "stop_name": "E\/S of Hwy 99 N of Fairfield", "stop_seq": "21" }, "geometry": { "type": "Point", "coordinates": [ -123.1474175, 44.0751551 ] } },
{ "type": "Feature", "properties": { "rte": "41", "rte_desc": "41-Barger\/West 11th Ave.", "dir": "0", "dir_desc": "Outbound", "stop_id": "960", "stop_name": "E\/S of Hwy 99 S of Bethel", "stop_seq": "22" }, "geometry": { "type": "Point", "coordinates": [ -123.149862699999986, 44.078167 ] } },
{ "type": "Feature", "properties": { "rte": "41", "rte_desc": "41-Barger\/West 11th Ave.", "dir": "0", "dir_desc": "Outbound", "stop_id": "958", "stop_name": "E\/S of Hwy 99 N of Bethel", "stop_seq": "23" }, "geometry": { "type": "Point", "coordinates": [ -123.151726600000018, 44.0808273 ] } },
{ "type": "Feature", "properties": { "rte": "41", "rte_desc": "41-Barger\/West 11th Ave.", "dir": "0", "dir_desc": "Outbound", "stop_id": "746", "stop_name": "N\/S of Barger W of Century", "stop_seq": "24" }, "geometry": { "type": "Point", "coordinates": [ -123.1577468, 44.0845636 ] } },
{ "type": "Feature", "properties": { "rte": "41", "rte_desc": "41-Barger\/West 11th Ave.", "dir": "0", "dir_desc": "Outbound", "stop_id": "748", "stop_name": "N\/S of Barger W of Clarey", "stop_seq": "25" }, "geometry": { "type": "Point", "coordinates": [ -123.161345400000016, 44.0845793 ] } },
{ "type": "Feature", "properties": { "rte": "41", "rte_desc": "41-Barger\/West 11th Ave.", "dir": "0", "dir_desc": "Outbound", "stop_id": "750", "stop_name": "N\/S of Barger E of Altimont", "stop_seq": "26" }, "geometry": { "type": "Point", "coordinates": [ -123.1636642, 44.0846029 ] } },
{ "type": "Feature", "properties": { "rte": "41", "rte_desc": "41-Barger\/West 11th Ave.", "dir": "0", "dir_desc": "Outbound", "stop_id": "752", "stop_name": "N\/S of Barger W of Echo Hollow", "stop_seq": "27" }, "geometry": { "type": "Point", "coordinates": [ -123.168836199999987, 44.0847351 ] } },
{ "type": "Feature", "properties": { "rte": "41", "rte_desc": "41-Barger\/West 11th Ave.", "dir": "0", "dir_desc": "Outbound", "stop_id": "754", "stop_name": "N\/S of Barger E of Laurelhurst", "stop_seq": "28" }, "geometry": { "type": "Point", "coordinates": [ -123.173857699999985, 44.0846543 ] } },
{ "type": "Feature", "properties": { "rte": "41", "rte_desc": "41-Barger\/West 11th Ave.", "dir": "0", "dir_desc": "Outbound", "stop_id": "756", "stop_name": "N\/S of Barger W of Golden Gardens", "stop_seq": "29" }, "geometry": { "type": "Point", "coordinates": [ -123.1778069, 44.0846569 ] } },
{ "type": "Feature", "properties": { "rte": "41", "rte_desc": "41-Barger\/West 11th Ave.", "dir": "0", "dir_desc": "Outbound", "stop_id": "758", "stop_name": "N\/S of Barger E of E Irwin Way", "stop_seq": "30" }, "geometry": { "type": "Point", "coordinates": [ -123.1815887, 44.0846502 ] } },
{ "type": "Feature", "properties": { "rte": "41", "rte_desc": "41-Barger\/West 11th Ave.", "dir": "0", "dir_desc": "Outbound", "stop_id": "762", "stop_name": "N\/S of Barger W of West Irwin", "stop_seq": "31" }, "geometry": { "type": "Point", "coordinates": [ -123.1856933, 44.0846602 ] } },
{ "type": "Feature", "properties": { "rte": "41", "rte_desc": "41-Barger\/West 11th Ave.", "dir": "0", "dir_desc": "Outbound", "stop_id": "2135", "stop_name": "W\/S of Terry S of Barger", "stop_seq": "32" }, "geometry": { "type": "Point", "coordinates": [ -123.1882829, 44.0839284 ] } }
]
}
