{
"type": "FeatureCollection",
"crs": { "type": "name", "properties": { "name": "urn:ogc:def:crs:OGC:1.3:CRS84" } },
                                                                                
"features": [
{ "type": "Feature", "properties": { "rte": 48, "dir": 1, "rte_desc": "48-Cornell", "dir_desc": "To Sunset TC", "type": "BUS", "stop_seq": 100, "stop_id": 4123, "stop_name": "SE Oak & 7th", "jurisdic": "Hillsboro", "zipcode": "97123", "frequent": "False" }, "geometry": { "type": "Point", "coordinates": [ -122.979250641210371, 45.518688762355808 ] } },
{ "type": "Feature", "properties": { "rte": 48, "dir": 1, "rte_desc": "48-Cornell", "dir_desc": "To Sunset TC", "type": "BUS", "stop_seq": 2100, "stop_id": 1163, "stop_name": "NW Cornell & Dale", "jurisdic": "Washington Co.", "zipcode": "97229", "frequent": "False" }, "geometry": { "type": "Point", "coordinates": [ -122.812785432014522, 45.525680101240276 ] } },
{ "type": "Feature", "properties": { "rte": 48, "dir": 1, "rte_desc": "48-Cornell", "dir_desc": "To Sunset TC", "type": "BUS", "stop_seq": 2000, "stop_id": 1188, "stop_name": "NW Cornell & Trail", "jurisdic": "Beaverton", "zipcode": "97229", "frequent": "False" }, "geometry": { "type": "Point", "coordinates": [ -122.817703512400129, 45.528142427447541 ] } },
{ "type": "Feature", "properties": { "rte": 48, "dir": 1, "rte_desc": "48-Cornell", "dir_desc": "To Sunset TC", "type": "BUS", "stop_seq": 1800, "stop_id": 1189, "stop_name": "14600 Block NW Cornell", "jurisdic": "Washington Co.", "zipcode": "97229", "frequent": "False" }, "geometry": { "type": "Point", "coordinates": [ -122.828952482098757, 45.531504059946343 ] } },
{ "type": "Feature", "properties": { "rte": 48, "dir": 1, "rte_desc": "48-Cornell", "dir_desc": "To Sunset TC", "type": "BUS", "stop_seq": 2450, "stop_id": 1196, "stop_name": "NW Cornell & Cedar Hills Blvd", "jurisdic": "Beaverton", "zipcode": "97229", "frequent": "False" }, "geometry": { "type": "Point", "coordinates": [ -122.793465633248928, 45.526350480114466 ] } },
{ "type": "Feature", "properties": { "rte": 48, "dir": 1, "rte_desc": "48-Cornell", "dir_desc": "To Sunset TC", "type": "BUS", "stop_seq": 2350, "stop_id": 1200, "stop_name": "NW Cornell & 119th", "jurisdic": "Beaverton", "zipcode": "97229", "frequent": "False" }, "geometry": { "type": "Point", "coordinates": [ -122.79991594394734, 45.526925071861676 ] } },
{ "type": "Feature", "properties": { "rte": 48, "dir": 1, "rte_desc": "48-Cornell", "dir_desc": "To Sunset TC", "type": "BUS", "stop_seq": 1750, "stop_id": 1205, "stop_name": "NW Cornell & 153rd", "jurisdic": "Washington Co.", "zipcode": "97006", "frequent": "False" }, "geometry": { "type": "Point", "coordinates": [ -122.834063827067439, 45.531706917767671 ] } },
{ "type": "Feature", "properties": { "rte": 48, "dir": 1, "rte_desc": "48-Cornell", "dir_desc": "To Sunset TC", "type": "BUS", "stop_seq": 2550, "stop_id": 10749, "stop_name": "SW Cedar Hills & Celeste", "jurisdic": "Beaverton", "zipcode": "97225", "frequent": "False" }, "geometry": { "type": "Point", "coordinates": [ -122.791572936870878, 45.518836491443921 ] } },
{ "type": "Feature", "properties": { "rte": 48, "dir": 1, "rte_desc": "48-Cornell", "dir_desc": "To Sunset TC", "type": "BUS", "stop_seq": 1150, "stop_id": 10022, "stop_name": "NW Cornell & Amberbrook Dr", "jurisdic": "Hillsboro", "zipcode": "97006", "frequent": "False" }, "geometry": { "type": "Point", "coordinates": [ -122.884503516365854, 45.537019490870158 ] } },
{ "type": "Feature", "properties": { "rte": 48, "dir": 1, "rte_desc": "48-Cornell", "dir_desc": "To Sunset TC", "type": "BUS", "stop_seq": 1500, "stop_id": 9213, "stop_name": "NW Cornell & Birch Pointe Apts", "jurisdic": "Beaverton", "zipcode": "97006", "frequent": "False" }, "geometry": { "type": "Point", "coordinates": [ -122.857612940628115, 45.535334645110986 ] } },
{ "type": "Feature", "properties": { "rte": 48, "dir": 1, "rte_desc": "48-Cornell", "dir_desc": "To Sunset TC", "type": "BUS", "stop_seq": 1600, "stop_id": 10319, "stop_name": "NW Cornell & 169th Pl", "jurisdic": "Beaverton", "zipcode": "97006", "frequent": "False" }, "geometry": { "type": "Point", "coordinates": [ -122.851519135115097, 45.533842558713367 ] } },
{ "type": "Feature", "properties": { "rte": 48, "dir": 1, "rte_desc": "48-Cornell", "dir_desc": "To Sunset TC", "type": "BUS", "stop_seq": 1850, "stop_id": 1204, "stop_name": "NW Cornell & 143rd", "jurisdic": "Washington Co.", "zipcode": "97229", "frequent": "False" }, "geometry": { "type": "Point", "coordinates": [ -122.824648568174254, 45.530508504081297 ] } },
{ "type": "Feature", "properties": { "rte": 48, "dir": 1, "rte_desc": "48-Cornell", "dir_desc": "To Sunset TC", "type": "BUS", "stop_seq": 2700, "stop_id": 11939, "stop_name": "Sunset Transit Center", "jurisdic": "Beaverton", "zipcode": "97225", "frequent": "False" }, "geometry": { "type": "Point", "coordinates": [ -122.782163598186429, 45.510221024564238 ] } },
{ "type": "Feature", "properties": { "rte": 48, "dir": 1, "rte_desc": "48-Cornell", "dir_desc": "To Sunset TC", "type": "BUS", "stop_seq": 1400, "stop_id": 9010, "stop_name": "NW Cornell & 185th", "jurisdic": "Washington Co.", "zipcode": "97006", "frequent": "False" }, "geometry": { "type": "Point", "coordinates": [ -122.866353417762156, 45.534059243634324 ] } },
{ "type": "Feature", "properties": { "rte": 48, "dir": 1, "rte_desc": "48-Cornell", "dir_desc": "To Sunset TC", "type": "BUS", "stop_seq": 1450, "stop_id": 9059, "stop_name": "NW Cornell & 179th", "jurisdic": "Washington Co.", "zipcode": "97006", "frequent": "False" }, "geometry": { "type": "Point", "coordinates": [ -122.861767116566867, 45.534482827436626 ] } },
{ "type": "Feature", "properties": { "rte": 48, "dir": 1, "rte_desc": "48-Cornell", "dir_desc": "To Sunset TC", "type": "BUS", "stop_seq": 800, "stop_id": 8649, "stop_name": "NE Cornell & Orenco Station Pkwy", "jurisdic": "Hillsboro", "zipcode": "97124", "frequent": "False" }, "geometry": { "type": "Point", "coordinates": [ -122.917110283055251, 45.533886175758226 ] } },
{ "type": "Feature", "properties": { "rte": 48, "dir": 1, "rte_desc": "48-Cornell", "dir_desc": "To Sunset TC", "type": "BUS", "stop_seq": 1100, "stop_id": 10023, "stop_name": "NW Cornell & John Olsen", "jurisdic": "Hillsboro", "zipcode": "97124", "frequent": "False" }, "geometry": { "type": "Point", "coordinates": [ -122.887855214637042, 45.537982743676508 ] } },
{ "type": "Feature", "properties": { "rte": 48, "dir": 1, "rte_desc": "48-Cornell", "dir_desc": "To Sunset TC", "type": "BUS", "stop_seq": 450, "stop_id": 10026, "stop_name": "NE Cornell & 25th", "jurisdic": "Hillsboro", "zipcode": "97124", "frequent": "False" }, "geometry": { "type": "Point", "coordinates": [ -122.956321785683585, 45.530575060542681 ] } },
{ "type": "Feature", "properties": { "rte": 48, "dir": 1, "rte_desc": "48-Cornell", "dir_desc": "To Sunset TC", "type": "BUS", "stop_seq": 600, "stop_id": 10028, "stop_name": "NE Cornell & 48th", "jurisdic": "Hillsboro", "zipcode": "97124", "frequent": "False" }, "geometry": { "type": "Point", "coordinates": [ -122.934119559689364, 45.533444997800053 ] } },
{ "type": "Feature", "properties": { "rte": 48, "dir": 1, "rte_desc": "48-Cornell", "dir_desc": "To Sunset TC", "type": "BUS", "stop_seq": 900, "stop_id": 10031, "stop_name": "NE Cornell & NW Walbridge", "jurisdic": "Hillsboro", "zipcode": "97124", "frequent": "False" }, "geometry": { "type": "Point", "coordinates": [ -122.907903185762422, 45.534959066699741 ] } },
{ "type": "Feature", "properties": { "rte": 48, "dir": 1, "rte_desc": "48-Cornell", "dir_desc": "To Sunset TC", "type": "BUS", "stop_seq": 1900, "stop_id": 1166, "stop_name": "14100 Block NW Cornell", "jurisdic": "Beaverton", "zipcode": "97229", "frequent": "False" }, "geometry": { "type": "Point", "coordinates": [ -122.823047734011539, 45.530316263883691 ] } },
{ "type": "Feature", "properties": { "rte": 48, "dir": 1, "rte_desc": "48-Cornell", "dir_desc": "To Sunset TC", "type": "BUS", "stop_seq": 1950, "stop_id": 1186, "stop_name": "13800 Block NW Cornell (Sunset HS)", "jurisdic": "Beaverton", "zipcode": "97229", "frequent": "False" }, "geometry": { "type": "Point", "coordinates": [ -122.820308179251825, 45.52925732054527 ] } },
{ "type": "Feature", "properties": { "rte": 48, "dir": 1, "rte_desc": "48-Cornell", "dir_desc": "To Sunset TC", "type": "BUS", "stop_seq": 2150, "stop_id": 8828, "stop_name": "13000 Block NW Cornell", "jurisdic": "Washington Co.", "zipcode": "97229", "frequent": "False" }, "geometry": { "type": "Point", "coordinates": [ -122.811073121995761, 45.524938232186834 ] } },
{ "type": "Feature", "properties": { "rte": 48, "dir": 1, "rte_desc": "48-Cornell", "dir_desc": "To Sunset TC", "type": "BUS", "stop_seq": 1650, "stop_id": 9054, "stop_name": "NW Cornell & 167th Pl", "jurisdic": "Beaverton", "zipcode": "97006", "frequent": "False" }, "geometry": { "type": "Point", "coordinates": [ -122.849014666683175, 45.533235201086981 ] } },
{ "type": "Feature", "properties": { "rte": 48, "dir": 1, "rte_desc": "48-Cornell", "dir_desc": "To Sunset TC", "type": "BUS", "stop_seq": 1250, "stop_id": 10032, "stop_name": "NW Cornell & Stucki\/Amberglen", "jurisdic": "Hillsboro", "zipcode": "97006", "frequent": "False" }, "geometry": { "type": "Point", "coordinates": [ -122.877188627492757, 45.534287189734776 ] } },
{ "type": "Feature", "properties": { "rte": 48, "dir": 1, "rte_desc": "48-Cornell", "dir_desc": "To Sunset TC", "type": "BUS", "stop_seq": 250, "stop_id": 8553, "stop_name": "NE Cornell & Jackson", "jurisdic": "Hillsboro", "zipcode": "97124", "frequent": "False" }, "geometry": { "type": "Point", "coordinates": [ -122.971243887205787, 45.524749605388124 ] } },
{ "type": "Feature", "properties": { "rte": 48, "dir": 1, "rte_desc": "48-Cornell", "dir_desc": "To Sunset TC", "type": "BUS", "stop_seq": 850, "stop_id": 8561, "stop_name": "NE Cornell & NW 231st", "jurisdic": "Hillsboro", "zipcode": "97124", "frequent": "False" }, "geometry": { "type": "Point", "coordinates": [ -122.910840805978992, 45.534131252728677 ] } },
{ "type": "Feature", "properties": { "rte": 48, "dir": 1, "rte_desc": "48-Cornell", "dir_desc": "To Sunset TC", "type": "BUS", "stop_seq": 1000, "stop_id": 10029, "stop_name": "NW Cornell & Cornelius Pass", "jurisdic": "Hillsboro", "zipcode": "97124", "frequent": "False" }, "geometry": { "type": "Point", "coordinates": [ -122.898456404990426, 45.539521737545968 ] } },
{ "type": "Feature", "properties": { "rte": 48, "dir": 1, "rte_desc": "48-Cornell", "dir_desc": "To Sunset TC", "type": "BUS", "stop_seq": 2500, "stop_id": 10152, "stop_name": "NW Cedar Hills & Leahy", "jurisdic": "Beaverton", "zipcode": "97229", "frequent": "False" }, "geometry": { "type": "Point", "coordinates": [ -122.792884576759874, 45.522620709389443 ] } },
{ "type": "Feature", "properties": { "rte": 48, "dir": 1, "rte_desc": "48-Cornell", "dir_desc": "To Sunset TC", "type": "BUS", "stop_seq": 1550, "stop_id": 9055, "stop_name": "NW Cornell & 173rd Ave", "jurisdic": "Beaverton", "zipcode": "97006", "frequent": "False" }, "geometry": { "type": "Point", "coordinates": [ -122.853537676139155, 45.534310118294258 ] } },
{ "type": "Feature", "properties": { "rte": 48, "dir": 1, "rte_desc": "48-Cornell", "dir_desc": "To Sunset TC", "type": "BUS", "stop_seq": 2300, "stop_id": 1160, "stop_name": "12200 Block NW Cornell", "jurisdic": "Washington Co.", "zipcode": "97229", "frequent": "False" }, "geometry": { "type": "Point", "coordinates": [ -122.802223468451587, 45.526436013468285 ] } },
{ "type": "Feature", "properties": { "rte": 48, "dir": 1, "rte_desc": "48-Cornell", "dir_desc": "To Sunset TC", "type": "BUS", "stop_seq": 1700, "stop_id": 9056, "stop_name": "NW Cornell & Bethany Ct", "jurisdic": "Beaverton", "zipcode": "97006", "frequent": "False" }, "geometry": { "type": "Point", "coordinates": [ -122.843407360499256, 45.529622434207461 ] } },
{ "type": "Feature", "properties": { "rte": 48, "dir": 1, "rte_desc": "48-Cornell", "dir_desc": "To Sunset TC", "type": "BUS", "stop_seq": 1200, "stop_id": 10021, "stop_name": "NW Cornell & Amberwood Dr", "jurisdic": "Hillsboro", "zipcode": "97006", "frequent": "False" }, "geometry": { "type": "Point", "coordinates": [ -122.881210096525976, 45.535772760531422 ] } },
{ "type": "Feature", "properties": { "rte": 48, "dir": 1, "rte_desc": "48-Cornell", "dir_desc": "To Sunset TC", "type": "BUS", "stop_seq": 2200, "stop_id": 1171, "stop_name": "NW Cornell & Barnes", "jurisdic": "Washington Co.", "zipcode": "97229", "frequent": "False" }, "geometry": { "type": "Point", "coordinates": [ -122.808570612988618, 45.524861747977226 ] } },
{ "type": "Feature", "properties": { "rte": 48, "dir": 1, "rte_desc": "48-Cornell", "dir_desc": "To Sunset TC", "type": "BUS", "stop_seq": 550, "stop_id": 10193, "stop_name": "NE Cornell & Brookwood Pkwy", "jurisdic": "Hillsboro", "zipcode": "97124", "frequent": "False" }, "geometry": { "type": "Point", "coordinates": [ -122.938269662484231, 45.532520102398053 ] } },
{ "type": "Feature", "properties": { "rte": 48, "dir": 1, "rte_desc": "48-Cornell", "dir_desc": "To Sunset TC", "type": "BUS", "stop_seq": 700, "stop_id": 8544, "stop_name": "NE Cornell & Shute", "jurisdic": "Hillsboro", "zipcode": "97124", "frequent": "False" }, "geometry": { "type": "Point", "coordinates": [ -122.92617151763001, 45.53353706668058 ] } },
{ "type": "Feature", "properties": { "rte": 48, "dir": 1, "rte_desc": "48-Cornell", "dir_desc": "To Sunset TC", "type": "BUS", "stop_seq": 200, "stop_id": 8552, "stop_name": "SE 10th & E Main", "jurisdic": "Hillsboro", "zipcode": "97123", "frequent": "False" }, "geometry": { "type": "Point", "coordinates": [ -122.97372726114564, 45.52174838982797 ] } },
{ "type": "Feature", "properties": { "rte": 48, "dir": 1, "rte_desc": "48-Cornell", "dir_desc": "To Sunset TC", "type": "BUS", "stop_seq": 350, "stop_id": 8555, "stop_name": "NE Cornell & Arrington", "jurisdic": "Hillsboro", "zipcode": "97124", "frequent": "False" }, "geometry": { "type": "Point", "coordinates": [ -122.966104671239719, 45.530400712561246 ] } },
{ "type": "Feature", "properties": { "rte": 48, "dir": 1, "rte_desc": "48-Cornell", "dir_desc": "To Sunset TC", "type": "BUS", "stop_seq": 400, "stop_id": 8556, "stop_name": "NE Cornell & Hillaire Dr", "jurisdic": "Hillsboro", "zipcode": "97124", "frequent": "False" }, "geometry": { "type": "Point", "coordinates": [ -122.962237717094951, 45.530585307036297 ] } },
{ "type": "Feature", "properties": { "rte": 48, "dir": 1, "rte_desc": "48-Cornell", "dir_desc": "To Sunset TC", "type": "BUS", "stop_seq": 500, "stop_id": 8558, "stop_name": "NE Cornell & 34th", "jurisdic": "Hillsboro", "zipcode": "97124", "frequent": "False" }, "geometry": { "type": "Point", "coordinates": [ -122.947357055836108, 45.532098430371001 ] } },
{ "type": "Feature", "properties": { "rte": 48, "dir": 1, "rte_desc": "48-Cornell", "dir_desc": "To Sunset TC", "type": "BUS", "stop_seq": 650, "stop_id": 8559, "stop_name": "NE Cornell & Elam Young West", "jurisdic": "Hillsboro", "zipcode": "97124", "frequent": "False" }, "geometry": { "type": "Point", "coordinates": [ -122.930595600405994, 45.533496488004836 ] } },
{ "type": "Feature", "properties": { "rte": 48, "dir": 1, "rte_desc": "48-Cornell", "dir_desc": "To Sunset TC", "type": "BUS", "stop_seq": 750, "stop_id": 8560, "stop_name": "NE Cornell & Ray Circle", "jurisdic": "Hillsboro", "zipcode": "97124", "frequent": "False" }, "geometry": { "type": "Point", "coordinates": [ -122.921165032141985, 45.533666828869897 ] } },
{ "type": "Feature", "properties": { "rte": 48, "dir": 1, "rte_desc": "48-Cornell", "dir_desc": "To Sunset TC", "type": "BUS", "stop_seq": 950, "stop_id": 10030, "stop_name": "NE Cornell & Butler", "jurisdic": "Hillsboro", "zipcode": "97124", "frequent": "False" }, "geometry": { "type": "Point", "coordinates": [ -122.905370343872406, 45.537436903490644 ] } },
{ "type": "Feature", "properties": { "rte": 48, "dir": 1, "rte_desc": "48-Cornell", "dir_desc": "To Sunset TC", "type": "BUS", "stop_seq": 50, "stop_id": 9956, "stop_name": "Hillsboro Transit Center", "jurisdic": "Hillsboro", "zipcode": "97123", "frequent": "False" }, "geometry": { "type": "Point", "coordinates": [ -122.985742166021126, 45.521507583798048 ] } },
{ "type": "Feature", "properties": { "rte": 48, "dir": 1, "rte_desc": "48-Cornell", "dir_desc": "To Sunset TC", "type": "BUS", "stop_seq": 1300, "stop_id": 10024, "stop_name": "NW Cornell & 192nd", "jurisdic": "Hillsboro", "zipcode": "97006", "frequent": "False" }, "geometry": { "type": "Point", "coordinates": [ -122.875313166128976, 45.534137534229572 ] } },
{ "type": "Feature", "properties": { "rte": 48, "dir": 1, "rte_desc": "48-Cornell", "dir_desc": "To Sunset TC", "type": "BUS", "stop_seq": 2050, "stop_id": 13309, "stop_name": "NW Cornell & Murray", "jurisdic": "Washington Co.", "zipcode": "97229", "frequent": "False" }, "geometry": { "type": "Point", "coordinates": [ -122.814973051796898, 45.52674453500623 ] } },
{ "type": "Feature", "properties": { "rte": 48, "dir": 1, "rte_desc": "48-Cornell", "dir_desc": "To Sunset TC", "type": "BUS", "stop_seq": 2250, "stop_id": 1183, "stop_name": "NW Cornell & Saltzman", "jurisdic": "Washington Co.", "zipcode": "97229", "frequent": "False" }, "geometry": { "type": "Point", "coordinates": [ -122.806783498200829, 45.525222278031272 ] } },
{ "type": "Feature", "properties": { "rte": 48, "dir": 1, "rte_desc": "48-Cornell", "dir_desc": "To Sunset TC", "type": "BUS", "stop_seq": 300, "stop_id": 8554, "stop_name": "NE Cornell & Grant", "jurisdic": "Hillsboro", "zipcode": "97124", "frequent": "False" }, "geometry": { "type": "Point", "coordinates": [ -122.968862133817566, 45.527421128106788 ] } },
{ "type": "Feature", "properties": { "rte": 48, "dir": 1, "rte_desc": "48-Cornell", "dir_desc": "To Sunset TC", "type": "BUS", "stop_seq": 2600, "stop_id": 9627, "stop_name": "SW Barnes & Cedar Hills Blvd", "jurisdic": "Beaverton", "zipcode": "97225", "frequent": "False" }, "geometry": { "type": "Point", "coordinates": [ -122.789724532667606, 45.515220099324679 ] } },
{ "type": "Feature", "properties": { "rte": 48, "dir": 1, "rte_desc": "48-Cornell", "dir_desc": "To Sunset TC", "type": "BUS", "stop_seq": 150, "stop_id": 6502, "stop_name": "SE 10th & Baseline", "jurisdic": "Hillsboro", "zipcode": "97123", "frequent": "False" }, "geometry": { "type": "Point", "coordinates": [ -122.973760345378707, 45.519859778615356 ] } },
{ "type": "Feature", "properties": { "rte": 48, "dir": 1, "rte_desc": "48-Cornell", "dir_desc": "To Sunset TC", "type": "BUS", "stop_seq": 1050, "stop_id": 10025, "stop_name": "NW Cornell & Aloclek", "jurisdic": "Hillsboro", "zipcode": "97124", "frequent": "False" }, "geometry": { "type": "Point", "coordinates": [ -122.893216468909912, 45.539175816202622 ] } },
{ "type": "Feature", "properties": { "rte": 48, "dir": 1, "rte_desc": "48-Cornell", "dir_desc": "To Sunset TC", "type": "BUS", "stop_seq": 2400, "stop_id": 13465, "stop_name": "NW Cornell & 118th", "jurisdic": "Beaverton", "zipcode": "97229", "frequent": "False" }, "geometry": { "type": "Point", "coordinates": [ -122.797066275734338, 45.526776118944156 ] } },
{ "type": "Feature", "properties": { "rte": 48, "dir": 1, "rte_desc": "48-Cornell", "dir_desc": "To Sunset TC", "type": "BUS", "stop_seq": 1350, "stop_id": 13530, "stop_name": "NW Cornell & 188th", "jurisdic": "Hillsboro", "zipcode": "97006", "frequent": "False" }, "geometry": { "type": "Point", "coordinates": [ -122.870423893087846, 45.534167268854269 ] } }
]
}
