{
"type": "FeatureCollection",
"crs": { "type": "name", "properties": { "name": "urn:ogc:def:crs:OGC:1.3:CRS84" } },
                                                                                
"features": [
{ "type": "Feature", "properties": { "rte": 56, "dir": 1, "rte_desc": "56-Scholls Ferry Rd", "dir_desc": "To Portland City Center", "type": "BUS", "stop_seq": 900, "stop_id": 5156, "stop_name": "5900 Block SW Scholls Ferry (Crosswalk)", "jurisdic": "Washington Co.", "zipcode": "97225", "frequent": "False" }, "geometry": { "type": "Point", "coordinates": [ -122.763484283222752, 45.477352997192931 ] } },
{ "type": "Feature", "properties": { "rte": 56, "dir": 1, "rte_desc": "56-Scholls Ferry Rd", "dir_desc": "To Portland City Center", "type": "BUS", "stop_seq": 600, "stop_id": 5158, "stop_name": "6700 Block SW Scholls Ferry", "jurisdic": "Washington Co.", "zipcode": "97008", "frequent": "False" }, "geometry": { "type": "Point", "coordinates": [ -122.774680604199304, 45.471191438977762 ] } },
{ "type": "Feature", "properties": { "rte": 56, "dir": 1, "rte_desc": "56-Scholls Ferry Rd", "dir_desc": "To Portland City Center", "type": "BUS", "stop_seq": 200, "stop_id": 5160, "stop_name": "8600 Block SW Scholls Ferry", "jurisdic": "Beaverton", "zipcode": "97008", "frequent": "False" }, "geometry": { "type": "Point", "coordinates": [ -122.781736674699729, 45.457787032395231 ] } },
{ "type": "Feature", "properties": { "rte": 56, "dir": 1, "rte_desc": "56-Scholls Ferry Rd", "dir_desc": "To Portland City Center", "type": "BUS", "stop_seq": 300, "stop_id": 5170, "stop_name": "SW Scholls Ferry & Crystal", "jurisdic": "Beaverton", "zipcode": "97008", "frequent": "False" }, "geometry": { "type": "Point", "coordinates": [ -122.779450844849094, 45.462127914400256 ] } },
{ "type": "Feature", "properties": { "rte": 56, "dir": 1, "rte_desc": "56-Scholls Ferry Rd", "dir_desc": "To Portland City Center", "type": "BUS", "stop_seq": 350, "stop_id": 5173, "stop_name": "SW Scholls Ferry & Eagle", "jurisdic": "Beaverton", "zipcode": "97008", "frequent": "False" }, "geometry": { "type": "Point", "coordinates": [ -122.778584166478765, 45.463795842017369 ] } },
{ "type": "Feature", "properties": { "rte": 56, "dir": 1, "rte_desc": "56-Scholls Ferry Rd", "dir_desc": "To Portland City Center", "type": "BUS", "stop_seq": 450, "stop_id": 5175, "stop_name": "SW Scholls Ferry & Heather", "jurisdic": "Beaverton", "zipcode": "97008", "frequent": "False" }, "geometry": { "type": "Point", "coordinates": [ -122.776409245537991, 45.467950154311524 ] } },
{ "type": "Feature", "properties": { "rte": 56, "dir": 1, "rte_desc": "56-Scholls Ferry Rd", "dir_desc": "To Portland City Center", "type": "BUS", "stop_seq": 400, "stop_id": 5181, "stop_name": "SW Scholls Ferry & Marjorie", "jurisdic": "Beaverton", "zipcode": "97008", "frequent": "False" }, "geometry": { "type": "Point", "coordinates": [ -122.777934333028668, 45.464961652524529 ] } },
{ "type": "Feature", "properties": { "rte": 56, "dir": 1, "rte_desc": "56-Scholls Ferry Rd", "dir_desc": "To Portland City Center", "type": "BUS", "stop_seq": 500, "stop_id": 5182, "stop_name": "SW Scholls Ferry & Merry", "jurisdic": "Washington Co.", "zipcode": "97008", "frequent": "False" }, "geometry": { "type": "Point", "coordinates": [ -122.775768409815569, 45.469236697406004 ] } },
{ "type": "Feature", "properties": { "rte": 56, "dir": 1, "rte_desc": "56-Scholls Ferry Rd", "dir_desc": "To Portland City Center", "type": "BUS", "stop_seq": 1100, "stop_id": 5185, "stop_name": "SW Scholls Ferry & Montclair", "jurisdic": "Beaverton", "zipcode": "97225", "frequent": "False" }, "geometry": { "type": "Point", "coordinates": [ -122.757171227429836, 45.48225153965106 ] } },
{ "type": "Feature", "properties": { "rte": 56, "dir": 1, "rte_desc": "56-Scholls Ferry Rd", "dir_desc": "To Portland City Center", "type": "BUS", "stop_seq": 1000, "stop_id": 5187, "stop_name": "SW Scholls Ferry & Nicol", "jurisdic": "Beaverton", "zipcode": "97225", "frequent": "False" }, "geometry": { "type": "Point", "coordinates": [ -122.760797772036966, 45.480462816447705 ] } },
{ "type": "Feature", "properties": { "rte": 56, "dir": 1, "rte_desc": "56-Scholls Ferry Rd", "dir_desc": "To Portland City Center", "type": "BUS", "stop_seq": 100, "stop_id": 6175, "stop_name": "SW Eliander & One Embassy Centre", "jurisdic": "Tigard", "zipcode": "97223", "frequent": "False" }, "geometry": { "type": "Point", "coordinates": [ -122.780345097383801, 45.454726882354755 ] } },
{ "type": "Feature", "properties": { "rte": 56, "dir": 1, "rte_desc": "56-Scholls Ferry Rd", "dir_desc": "To Portland City Center", "type": "BUS", "stop_seq": 2475, "stop_id": 1930, "stop_name": "SW Naito Parkway & Hooker", "jurisdic": "Portland", "zipcode": "97201", "frequent": "True" }, "geometry": { "type": "Point", "coordinates": [ -122.677629970142476, 45.502166097086878 ] } },
{ "type": "Feature", "properties": { "rte": 56, "dir": 1, "rte_desc": "56-Scholls Ferry Rd", "dir_desc": "To Portland City Center", "type": "BUS", "stop_seq": 2250, "stop_id": 925, "stop_name": "SW Capitol & Bertha Ct", "jurisdic": "Portland", "zipcode": "97239", "frequent": "True" }, "geometry": { "type": "Point", "coordinates": [ -122.696367527978879, 45.478080071921909 ] } },
{ "type": "Feature", "properties": { "rte": 56, "dir": 1, "rte_desc": "56-Scholls Ferry Rd", "dir_desc": "To Portland City Center", "type": "BUS", "stop_seq": 2300, "stop_id": 929, "stop_name": "SW Capitol & Sunset", "jurisdic": "Portland", "zipcode": "97239", "frequent": "True" }, "geometry": { "type": "Point", "coordinates": [ -122.692856403660045, 45.478791374474369 ] } },
{ "type": "Feature", "properties": { "rte": 56, "dir": 1, "rte_desc": "56-Scholls Ferry Rd", "dir_desc": "To Portland City Center", "type": "BUS", "stop_seq": 850, "stop_id": 5201, "stop_name": "SW Scholls Ferry & 86th", "jurisdic": "Washington Co.", "zipcode": "97223", "frequent": "False" }, "geometry": { "type": "Point", "coordinates": [ -122.765143332395411, 45.474308788847516 ] } },
{ "type": "Feature", "properties": { "rte": 56, "dir": 1, "rte_desc": "56-Scholls Ferry Rd", "dir_desc": "To Portland City Center", "type": "BUS", "stop_seq": 800, "stop_id": 5203, "stop_name": "SW Scholls Ferry & 88th", "jurisdic": "Washington Co.", "zipcode": "97223", "frequent": "False" }, "geometry": { "type": "Point", "coordinates": [ -122.767224587958978, 45.472938203596556 ] } },
{ "type": "Feature", "properties": { "rte": 56, "dir": 1, "rte_desc": "56-Scholls Ferry Rd", "dir_desc": "To Portland City Center", "type": "BUS", "stop_seq": 750, "stop_id": 5204, "stop_name": "SW Scholls Ferry & 90th", "jurisdic": "Washington Co.", "zipcode": "97223", "frequent": "False" }, "geometry": { "type": "Point", "coordinates": [ -122.769722180279174, 45.472540710403941 ] } },
{ "type": "Feature", "properties": { "rte": 56, "dir": 1, "rte_desc": "56-Scholls Ferry Rd", "dir_desc": "To Portland City Center", "type": "BUS", "stop_seq": 1900, "stop_id": 326, "stop_name": "3600 Block SW Beaverton-Hillsdale", "jurisdic": "Portland", "zipcode": "97221", "frequent": "True" }, "geometry": { "type": "Point", "coordinates": [ -122.714813261681911, 45.483597009940368 ] } },
{ "type": "Feature", "properties": { "rte": 56, "dir": 1, "rte_desc": "56-Scholls Ferry Rd", "dir_desc": "To Portland City Center", "type": "BUS", "stop_seq": 1500, "stop_id": 328, "stop_name": "SW Beaverton-Hillsdale & 59th", "jurisdic": "Portland", "zipcode": "97221", "frequent": "True" }, "geometry": { "type": "Point", "coordinates": [ -122.737820147006147, 45.486947943213664 ] } },
{ "type": "Feature", "properties": { "rte": 56, "dir": 1, "rte_desc": "56-Scholls Ferry Rd", "dir_desc": "To Portland City Center", "type": "BUS", "stop_seq": 2200, "stop_id": 336, "stop_name": "SW Beaverton-Hillsdale & Bertha", "jurisdic": "Portland", "zipcode": "97239", "frequent": "True" }, "geometry": { "type": "Point", "coordinates": [ -122.70083398423553, 45.479160173452541 ] } },
{ "type": "Feature", "properties": { "rte": 56, "dir": 1, "rte_desc": "56-Scholls Ferry Rd", "dir_desc": "To Portland City Center", "type": "BUS", "stop_seq": 1600, "stop_id": 351, "stop_name": "SW Beaverton-Hillsdale & Shattuck", "jurisdic": "Portland", "zipcode": "97221", "frequent": "True" }, "geometry": { "type": "Point", "coordinates": [ -122.732185342270796, 45.486929931325442 ] } },
{ "type": "Feature", "properties": { "rte": 56, "dir": 1, "rte_desc": "56-Scholls Ferry Rd", "dir_desc": "To Portland City Center", "type": "BUS", "stop_seq": 2150, "stop_id": 364, "stop_name": "SW Beaverton-Hillsdale & 25th", "jurisdic": "Portland", "zipcode": "97239", "frequent": "True" }, "geometry": { "type": "Point", "coordinates": [ -122.702192451320926, 45.479869801725528 ] } },
{ "type": "Feature", "properties": { "rte": 56, "dir": 1, "rte_desc": "56-Scholls Ferry Rd", "dir_desc": "To Portland City Center", "type": "BUS", "stop_seq": 2050, "stop_id": 367, "stop_name": "SW Beaverton-Hillsdale & 30th", "jurisdic": "Portland", "zipcode": "97239", "frequent": "True" }, "geometry": { "type": "Point", "coordinates": [ -122.707944089067553, 45.481500962015303 ] } },
{ "type": "Feature", "properties": { "rte": 56, "dir": 1, "rte_desc": "56-Scholls Ferry Rd", "dir_desc": "To Portland City Center", "type": "BUS", "stop_seq": 2000, "stop_id": 368, "stop_name": "SW Beaverton-Hillsdale & 33rd", "jurisdic": "Portland", "zipcode": "97239", "frequent": "True" }, "geometry": { "type": "Point", "coordinates": [ -122.710513810773449, 45.481762719703028 ] } },
{ "type": "Feature", "properties": { "rte": 56, "dir": 1, "rte_desc": "56-Scholls Ferry Rd", "dir_desc": "To Portland City Center", "type": "BUS", "stop_seq": 150, "stop_id": 2295, "stop_name": "SW Hall & Scholls Ferry", "jurisdic": "Beaverton", "zipcode": "97223", "frequent": "False" }, "geometry": { "type": "Point", "coordinates": [ -122.782139756684117, 45.456841660478666 ] } },
{ "type": "Feature", "properties": { "rte": 56, "dir": 1, "rte_desc": "56-Scholls Ferry Rd", "dir_desc": "To Portland City Center", "type": "BUS", "stop_seq": 1800, "stop_id": 373, "stop_name": "SW Beaverton-Hillsdale & 42nd", "jurisdic": "Portland", "zipcode": "97221", "frequent": "True" }, "geometry": { "type": "Point", "coordinates": [ -122.719881264141264, 45.485364387171934 ] } },
{ "type": "Feature", "properties": { "rte": 56, "dir": 1, "rte_desc": "56-Scholls Ferry Rd", "dir_desc": "To Portland City Center", "type": "BUS", "stop_seq": 1750, "stop_id": 375, "stop_name": "SW Beaverton-Hillsdale & 45th", "jurisdic": "Portland", "zipcode": "97221", "frequent": "True" }, "geometry": { "type": "Point", "coordinates": [ -122.722175593984744, 45.485579334593695 ] } },
{ "type": "Feature", "properties": { "rte": 56, "dir": 1, "rte_desc": "56-Scholls Ferry Rd", "dir_desc": "To Portland City Center", "type": "BUS", "stop_seq": 1650, "stop_id": 377, "stop_name": "SW Beaverton-Hillsdale & 50th", "jurisdic": "Portland", "zipcode": "97221", "frequent": "True" }, "geometry": { "type": "Point", "coordinates": [ -122.728434376959356, 45.486916440045285 ] } },
{ "type": "Feature", "properties": { "rte": 56, "dir": 1, "rte_desc": "56-Scholls Ferry Rd", "dir_desc": "To Portland City Center", "type": "BUS", "stop_seq": 1450, "stop_id": 382, "stop_name": "SW Beaverton-Hillsdale & 62nd", "jurisdic": "Portland", "zipcode": "97221", "frequent": "True" }, "geometry": { "type": "Point", "coordinates": [ -122.74075899056939, 45.48696154207623 ] } },
{ "type": "Feature", "properties": { "rte": 56, "dir": 1, "rte_desc": "56-Scholls Ferry Rd", "dir_desc": "To Portland City Center", "type": "BUS", "stop_seq": 2400, "stop_id": 156, "stop_name": "4900 Block SW Barbur", "jurisdic": "Portland", "zipcode": "97239", "frequent": "True" }, "geometry": { "type": "Point", "coordinates": [ -122.682514639880239, 45.487677128400847 ] } },
{ "type": "Feature", "properties": { "rte": 56, "dir": 1, "rte_desc": "56-Scholls Ferry Rd", "dir_desc": "To Portland City Center", "type": "BUS", "stop_seq": 2451, "stop_id": 172, "stop_name": "SW Barbur & Hamilton", "jurisdic": "Portland", "zipcode": "97239", "frequent": "True" }, "geometry": { "type": "Point", "coordinates": [ -122.677724730057179, 45.491185992510047 ] } },
{ "type": "Feature", "properties": { "rte": 56, "dir": 1, "rte_desc": "56-Scholls Ferry Rd", "dir_desc": "To Portland City Center", "type": "BUS", "stop_seq": 2650, "stop_id": 11486, "stop_name": "SW 6th & Columbia", "jurisdic": "Portland", "zipcode": "97201", "frequent": "True" }, "geometry": { "type": "Point", "coordinates": [ -122.681094643035436, 45.514266728169559 ] } },
{ "type": "Feature", "properties": { "rte": 56, "dir": 1, "rte_desc": "56-Scholls Ferry Rd", "dir_desc": "To Portland City Center", "type": "BUS", "stop_seq": 2550, "stop_id": 2567, "stop_name": "200 Block SW Harrison", "jurisdic": "Portland", "zipcode": "97201", "frequent": "True" }, "geometry": { "type": "Point", "coordinates": [ -122.678929970791458, 45.510139952524312 ] } },
{ "type": "Feature", "properties": { "rte": 56, "dir": 1, "rte_desc": "56-Scholls Ferry Rd", "dir_desc": "To Portland City Center", "type": "BUS", "stop_seq": 1550, "stop_id": 379, "stop_name": "SW Beaverton-Hillsdale & 56th", "jurisdic": "Portland", "zipcode": "97221", "frequent": "True" }, "geometry": { "type": "Point", "coordinates": [ -122.734902287327657, 45.486930965436045 ] } },
{ "type": "Feature", "properties": { "rte": 56, "dir": 1, "rte_desc": "56-Scholls Ferry Rd", "dir_desc": "To Portland City Center", "type": "BUS", "stop_seq": 2700, "stop_id": 7789, "stop_name": "SW 6th & Salmon", "jurisdic": "Portland", "zipcode": "97204", "frequent": "True" }, "geometry": { "type": "Point", "coordinates": [ -122.679687201789534, 45.516933733662114 ] } },
{ "type": "Feature", "properties": { "rte": 56, "dir": 1, "rte_desc": "56-Scholls Ferry Rd", "dir_desc": "To Portland City Center", "type": "BUS", "stop_seq": 2750, "stop_id": 7803, "stop_name": "SW 6th & Washington", "jurisdic": "Portland", "zipcode": "97204", "frequent": "True" }, "geometry": { "type": "Point", "coordinates": [ -122.67785941932199, 45.520244003919593 ] } },
{ "type": "Feature", "properties": { "rte": 56, "dir": 1, "rte_desc": "56-Scholls Ferry Rd", "dir_desc": "To Portland City Center", "type": "BUS", "stop_seq": 1400, "stop_id": 383, "stop_name": "6500 Block SW Beaverton-Hillsdale", "jurisdic": "Washington Co.", "zipcode": "97225", "frequent": "True" }, "geometry": { "type": "Point", "coordinates": [ -122.744346093499786, 45.48695843447566 ] } },
{ "type": "Feature", "properties": { "rte": 56, "dir": 1, "rte_desc": "56-Scholls Ferry Rd", "dir_desc": "To Portland City Center", "type": "BUS", "stop_seq": 1150, "stop_id": 5193, "stop_name": "5100 Block SW Scholls Ferry", "jurisdic": "Washington Co.", "zipcode": "97225", "frequent": "False" }, "geometry": { "type": "Point", "coordinates": [ -122.755556957358664, 45.483017192904512 ] } },
{ "type": "Feature", "properties": { "rte": 56, "dir": 1, "rte_desc": "56-Scholls Ferry Rd", "dir_desc": "To Portland City Center", "type": "BUS", "stop_seq": 700, "stop_id": 5206, "stop_name": "SW Scholls Ferry & 92nd", "jurisdic": "Washington Co.", "zipcode": "97223", "frequent": "False" }, "geometry": { "type": "Point", "coordinates": [ -122.771439106356382, 45.472433656510987 ] } },
{ "type": "Feature", "properties": { "rte": 56, "dir": 1, "rte_desc": "56-Scholls Ferry Rd", "dir_desc": "To Portland City Center", "type": "BUS", "stop_seq": 2350, "stop_id": 956, "stop_name": "SW Capitol & Terwilliger", "jurisdic": "Portland", "zipcode": "97239", "frequent": "True" }, "geometry": { "type": "Point", "coordinates": [ -122.687280930436287, 45.480041116149266 ] } },
{ "type": "Feature", "properties": { "rte": 56, "dir": 1, "rte_desc": "56-Scholls Ferry Rd", "dir_desc": "To Portland City Center", "type": "BUS", "stop_seq": 2100, "stop_id": 325, "stop_name": "2600 Block SW Beaverton-Hillsdale", "jurisdic": "Portland", "zipcode": "97239", "frequent": "True" }, "geometry": { "type": "Point", "coordinates": [ -122.704126022132101, 45.480221296355623 ] } },
{ "type": "Feature", "properties": { "rte": 56, "dir": 1, "rte_desc": "56-Scholls Ferry Rd", "dir_desc": "To Portland City Center", "type": "BUS", "stop_seq": 50, "stop_id": 9649, "stop_name": "Washington Square Transit Center", "jurisdic": "Tigard", "zipcode": "97223", "frequent": "False" }, "geometry": { "type": "Point", "coordinates": [ -122.778806167837544, 45.452550649415251 ] } },
{ "type": "Feature", "properties": { "rte": 56, "dir": 1, "rte_desc": "56-Scholls Ferry Rd", "dir_desc": "To Portland City Center", "type": "BUS", "stop_seq": 2460, "stop_id": 9558, "stop_name": "3800 Block SW Barbur", "jurisdic": "Portland", "zipcode": "97239", "frequent": "True" }, "geometry": { "type": "Point", "coordinates": [ -122.677266675430729, 45.495070210410923 ] } },
{ "type": "Feature", "properties": { "rte": 56, "dir": 1, "rte_desc": "56-Scholls Ferry Rd", "dir_desc": "To Portland City Center", "type": "BUS", "stop_seq": 650, "stop_id": 5162, "stop_name": "SW Scholls Ferry & Allen", "jurisdic": "Beaverton", "zipcode": "97223", "frequent": "False" }, "geometry": { "type": "Point", "coordinates": [ -122.773182698008753, 45.472313447942234 ] } },
{ "type": "Feature", "properties": { "rte": 56, "dir": 1, "rte_desc": "56-Scholls Ferry Rd", "dir_desc": "To Portland City Center", "type": "BUS", "stop_seq": 2800, "stop_id": 13170, "stop_name": "SW Broadway & W Burnside", "jurisdic": "Portland", "zipcode": "97205", "frequent": "True" }, "geometry": { "type": "Point", "coordinates": [ -122.677231578924676, 45.522897413959747 ] } },
{ "type": "Feature", "properties": { "rte": 56, "dir": 1, "rte_desc": "56-Scholls Ferry Rd", "dir_desc": "To Portland City Center", "type": "BUS", "stop_seq": 1300, "stop_id": 348, "stop_name": "SW Beaverton-Hillsdale & Oleson", "jurisdic": "Washington Co.", "zipcode": "97225", "frequent": "True" }, "geometry": { "type": "Point", "coordinates": [ -122.748414136583435, 45.486132802359585 ] } },
{ "type": "Feature", "properties": { "rte": 56, "dir": 1, "rte_desc": "56-Scholls Ferry Rd", "dir_desc": "To Portland City Center", "type": "BUS", "stop_seq": 2600, "stop_id": 13305, "stop_name": "SW Harrison & 6th", "jurisdic": "Portland", "zipcode": "97201", "frequent": "True" }, "geometry": { "type": "Point", "coordinates": [ -122.682648183796346, 45.511058254648034 ] } },
{ "type": "Feature", "properties": { "rte": 56, "dir": 1, "rte_desc": "56-Scholls Ferry Rd", "dir_desc": "To Portland City Center", "type": "BUS", "stop_seq": 1850, "stop_id": 371, "stop_name": "SW Beaverton-Hillsdale & 39th Dr", "jurisdic": "Portland", "zipcode": "97221", "frequent": "True" }, "geometry": { "type": "Point", "coordinates": [ -122.717397334556551, 45.4847386847295 ] } },
{ "type": "Feature", "properties": { "rte": 56, "dir": 1, "rte_desc": "56-Scholls Ferry Rd", "dir_desc": "To Portland City Center", "type": "BUS", "stop_seq": 1950, "stop_id": 369, "stop_name": "SW Beaverton-Hillsdale & 35th", "jurisdic": "Portland", "zipcode": "97239", "frequent": "True" }, "geometry": { "type": "Point", "coordinates": [ -122.712667506880805, 45.482636764785362 ] } },
{ "type": "Feature", "properties": { "rte": 56, "dir": 1, "rte_desc": "56-Scholls Ferry Rd", "dir_desc": "To Portland City Center", "type": "BUS", "stop_seq": 250, "stop_id": 5168, "stop_name": "SW Scholls Ferry & Crestwood", "jurisdic": "Beaverton", "zipcode": "97008", "frequent": "False" }, "geometry": { "type": "Point", "coordinates": [ -122.780325789949899, 45.460512618567932 ] } },
{ "type": "Feature", "properties": { "rte": 56, "dir": 1, "rte_desc": "56-Scholls Ferry Rd", "dir_desc": "To Portland City Center", "type": "BUS", "stop_seq": 1250, "stop_id": 5186, "stop_name": "SW Scholls Ferry & Stephen Lane", "jurisdic": "Washington Co.", "zipcode": "97225", "frequent": "False" }, "geometry": { "type": "Point", "coordinates": [ -122.751772511017478, 45.484751423774036 ] } }
]
}
