{
"type": "FeatureCollection",
"crs": { "type": "name", "properties": { "name": "urn:ogc:def:crs:OGC:1.3:CRS84" } },
                                                                                
"features": [
{ "type": "Feature", "properties": { "rte": 64, "dir": 1, "rte_desc": "64-Marquam Hill\/Tigard", "dir_desc": "To Marquam Hill", "type": "BUS", "stop_seq": 600, "stop_id": 868, "stop_name": "SW Campus Dr & OHSU Garage F", "jurisdic": "Portland", "zipcode": "97239", "frequent": "False" }, "geometry": { "type": "Point", "coordinates": [ -122.684302586911969, 45.498186562258532 ] } },
{ "type": "Feature", "properties": { "rte": 64, "dir": 1, "rte_desc": "64-Marquam Hill\/Tigard", "dir_desc": "To Marquam Hill", "type": "BUS", "stop_seq": 500, "stop_id": 871, "stop_name": "SW Campus Dr & Loading Dock 5", "jurisdic": "Portland", "zipcode": "97239", "frequent": "False" }, "geometry": { "type": "Point", "coordinates": [ -122.685140799067938, 45.498877205177884 ] } },
{ "type": "Feature", "properties": { "rte": 64, "dir": 1, "rte_desc": "64-Marquam Hill\/Tigard", "dir_desc": "To Marquam Hill", "type": "BUS", "stop_seq": 300, "stop_id": 929, "stop_name": "SW Capitol & Sunset", "jurisdic": "Portland", "zipcode": "97239", "frequent": "False" }, "geometry": { "type": "Point", "coordinates": [ -122.692856403660045, 45.478791374474369 ] } },
{ "type": "Feature", "properties": { "rte": 64, "dir": 1, "rte_desc": "64-Marquam Hill\/Tigard", "dir_desc": "To Marquam Hill", "type": "BUS", "stop_seq": 350, "stop_id": 5975, "stop_name": "US Veterans Hospital", "jurisdic": "Portland", "zipcode": "97239", "frequent": "False" }, "geometry": { "type": "Point", "coordinates": [ -122.683270680560838, 45.497058333643132 ] } },
{ "type": "Feature", "properties": { "rte": 64, "dir": 1, "rte_desc": "64-Marquam Hill\/Tigard", "dir_desc": "To Marquam Hill", "type": "BUS", "stop_seq": 450, "stop_id": 5027, "stop_name": "SW Sam Jackson Pk & Campus Dr", "jurisdic": "Portland", "zipcode": "97239", "frequent": "False" }, "geometry": { "type": "Point", "coordinates": [ -122.684265451057172, 45.500298423399727 ] } },
{ "type": "Feature", "properties": { "rte": 64, "dir": 1, "rte_desc": "64-Marquam Hill\/Tigard", "dir_desc": "To Marquam Hill", "type": "BUS", "stop_seq": 400, "stop_id": 5028, "stop_name": "SW Sam Jackson Pk & OHSU", "jurisdic": "Portland", "zipcode": "97239", "frequent": "False" }, "geometry": { "type": "Point", "coordinates": [ -122.685535452629395, 45.499336025348434 ] } },
{ "type": "Feature", "properties": { "rte": 64, "dir": 1, "rte_desc": "64-Marquam Hill\/Tigard", "dir_desc": "To Marquam Hill", "type": "BUS", "stop_seq": 385, "stop_id": 5032, "stop_name": "SW Sam Jackson Pk & US Veterans", "jurisdic": "Portland", "zipcode": "97239", "frequent": "False" }, "geometry": { "type": "Point", "coordinates": [ -122.687161151997074, 45.49904224530831 ] } },
{ "type": "Feature", "properties": { "rte": 64, "dir": 1, "rte_desc": "64-Marquam Hill\/Tigard", "dir_desc": "To Marquam Hill", "type": "BUS", "stop_seq": 550, "stop_id": 10176, "stop_name": "700 SW Campus Dr at Doernbecher", "jurisdic": "Portland", "zipcode": "97239", "frequent": "False" }, "geometry": { "type": "Point", "coordinates": [ -122.685901020573965, 45.497876895369593 ] } },
{ "type": "Feature", "properties": { "rte": 64, "dir": 1, "rte_desc": "64-Marquam Hill\/Tigard", "dir_desc": "To Marquam Hill", "type": "BUS", "stop_seq": 250, "stop_id": 965, "stop_name": "SW Capitol & 26th", "jurisdic": "Portland", "zipcode": "97219", "frequent": "False" }, "geometry": { "type": "Point", "coordinates": [ -122.703481165585856, 45.475995720334041 ] } },
{ "type": "Feature", "properties": { "rte": 64, "dir": 1, "rte_desc": "64-Marquam Hill\/Tigard", "dir_desc": "To Marquam Hill", "type": "BUS", "stop_seq": 225, "stop_id": 7432, "stop_name": "SW 35th & Vermont", "jurisdic": "Portland", "zipcode": "97219", "frequent": "False" }, "geometry": { "type": "Point", "coordinates": [ -122.712802125407393, 45.475882982824587 ] } },
{ "type": "Feature", "properties": { "rte": 64, "dir": 1, "rte_desc": "64-Marquam Hill\/Tigard", "dir_desc": "To Marquam Hill", "type": "BUS", "stop_seq": 100, "stop_id": 9648, "stop_name": "SW Pacific Hwy & 74th (Park & Ride)", "jurisdic": "Tigard", "zipcode": "97223", "frequent": "False" }, "geometry": { "type": "Point", "coordinates": [ -122.752608268358998, 45.439040412680079 ] } },
{ "type": "Feature", "properties": { "rte": 64, "dir": 1, "rte_desc": "64-Marquam Hill\/Tigard", "dir_desc": "To Marquam Hill", "type": "BUS", "stop_seq": 175, "stop_id": 10935, "stop_name": "SW Capitol & Taylors Ferry", "jurisdic": "Portland", "zipcode": "97219", "frequent": "False" }, "geometry": { "type": "Point", "coordinates": [ -122.720126550876103, 45.454969696834326 ] } },
{ "type": "Feature", "properties": { "rte": 64, "dir": 1, "rte_desc": "64-Marquam Hill\/Tigard", "dir_desc": "To Marquam Hill", "type": "BUS", "stop_seq": 125, "stop_id": 168, "stop_name": "SW Barbur & Capitol Hwy", "jurisdic": "Portland", "zipcode": "97219", "frequent": "False" }, "geometry": { "type": "Point", "coordinates": [ -122.721559489280153, 45.45323314560278 ] } },
{ "type": "Feature", "properties": { "rte": 64, "dir": 1, "rte_desc": "64-Marquam Hill\/Tigard", "dir_desc": "To Marquam Hill", "type": "BUS", "stop_seq": 50, "stop_id": 8211, "stop_name": "Tigard Transit Center", "jurisdic": "Tigard", "zipcode": "97223", "frequent": "False" }, "geometry": { "type": "Point", "coordinates": [ -122.769359976155542, 45.43029471596774 ] } },
{ "type": "Feature", "properties": { "rte": 64, "dir": 1, "rte_desc": "64-Marquam Hill\/Tigard", "dir_desc": "To Marquam Hill", "type": "BUS", "stop_seq": 150, "stop_id": 212, "stop_name": "Barbur Transit Center", "jurisdic": "Portland", "zipcode": "97219", "frequent": "False" }, "geometry": { "type": "Point", "coordinates": [ -122.717389765773248, 45.454551691293652 ] } },
{ "type": "Feature", "properties": { "rte": 64, "dir": 1, "rte_desc": "64-Marquam Hill\/Tigard", "dir_desc": "To Marquam Hill", "type": "BUS", "stop_seq": 325, "stop_id": 8455, "stop_name": "SW US Veterans Rd & Bldg #16", "jurisdic": "Portland", "zipcode": "97239", "frequent": "False" }, "geometry": { "type": "Point", "coordinates": [ -122.682219978027689, 45.49642214627815 ] } },
{ "type": "Feature", "properties": { "rte": 64, "dir": 1, "rte_desc": "64-Marquam Hill\/Tigard", "dir_desc": "To Marquam Hill", "type": "BUS", "stop_seq": 375, "stop_id": 9488, "stop_name": "3505 SW US Veterans Rd", "jurisdic": "Portland", "zipcode": "97239", "frequent": "False" }, "geometry": { "type": "Point", "coordinates": [ -122.688156139540936, 45.497355205030104 ] } },
{ "type": "Feature", "properties": { "rte": 64, "dir": 1, "rte_desc": "64-Marquam Hill\/Tigard", "dir_desc": "To Marquam Hill", "type": "BUS", "stop_seq": 650, "stop_id": 870, "stop_name": "SW Campus Dr & Terwilliger", "jurisdic": "Portland", "zipcode": "97239", "frequent": "False" }, "geometry": { "type": "Point", "coordinates": [ -122.682572023043434, 45.499108334121381 ] } },
{ "type": "Feature", "properties": { "rte": 64, "dir": 1, "rte_desc": "64-Marquam Hill\/Tigard", "dir_desc": "To Marquam Hill", "type": "BUS", "stop_seq": 200, "stop_id": 972, "stop_name": "SW Capitol & 35th", "jurisdic": "Portland", "zipcode": "97219", "frequent": "False" }, "geometry": { "type": "Point", "coordinates": [ -122.712973300132759, 45.467988610126632 ] } },
{ "type": "Feature", "properties": { "rte": 64, "dir": 1, "rte_desc": "64-Marquam Hill\/Tigard", "dir_desc": "To Marquam Hill", "type": "BUS", "stop_seq": 360, "stop_id": 10612, "stop_name": "3515 SW US Veterans Rd", "jurisdic": "Portland", "zipcode": "97239", "frequent": "False" }, "geometry": { "type": "Point", "coordinates": [ -122.685616596610785, 45.496853603023744 ] } }
]
}
