{
"type": "FeatureCollection",
"crs": { "type": "name", "properties": { "name": "urn:ogc:def:crs:OGC:1.3:CRS84" } },
                                                                                
"features": [
{ "type": "Feature", "properties": { "rte": 67, "dir": 1, "rte_desc": "67-Bethany\/158th", "dir_desc": "To Merlo Rd\/158th Ave", "type": "BUS", "stop_seq": 350, "stop_id": 10098, "stop_name": "NW Springville & Kaiser Rd", "jurisdic": "Washington Co.", "zipcode": "97229", "frequent": "False" }, "geometry": { "type": "Point", "coordinates": [ -122.836297599164851, 45.566326282266353 ] } },
{ "type": "Feature", "properties": { "rte": 67, "dir": 1, "rte_desc": "67-Bethany\/158th", "dir_desc": "To Merlo Rd\/158th Ave", "type": "BUS", "stop_seq": 300, "stop_id": 10099, "stop_name": "NW Springville & Oats Terrace", "jurisdic": "Washington Co.", "zipcode": "97229", "frequent": "False" }, "geometry": { "type": "Point", "coordinates": [ -122.842051891838807, 45.565201109318032 ] } },
{ "type": "Feature", "properties": { "rte": 67, "dir": 1, "rte_desc": "67-Bethany\/158th", "dir_desc": "To Merlo Rd\/158th Ave", "type": "BUS", "stop_seq": 200, "stop_id": 10101, "stop_name": "NW Springville & 165th Terrace", "jurisdic": "Washington Co.", "zipcode": "97229", "frequent": "False" }, "geometry": { "type": "Point", "coordinates": [ -122.848373313390582, 45.56389783658021 ] } },
{ "type": "Feature", "properties": { "rte": 67, "dir": 1, "rte_desc": "67-Bethany\/158th", "dir_desc": "To Merlo Rd\/158th Ave", "type": "BUS", "stop_seq": 100, "stop_id": 10103, "stop_name": "NW Springville & 173rd", "jurisdic": "Washington Co.", "zipcode": "97229", "frequent": "False" }, "geometry": { "type": "Point", "coordinates": [ -122.856026642472941, 45.562947494225206 ] } },
{ "type": "Feature", "properties": { "rte": 67, "dir": 1, "rte_desc": "67-Bethany\/158th", "dir_desc": "To Merlo Rd\/158th Ave", "type": "BUS", "stop_seq": 500, "stop_id": 10106, "stop_name": "NW Bethany & Wismer", "jurisdic": "Washington Co.", "zipcode": "97229", "frequent": "False" }, "geometry": { "type": "Point", "coordinates": [ -122.834669940602765, 45.559569887119423 ] } },
{ "type": "Feature", "properties": { "rte": 67, "dir": 1, "rte_desc": "67-Bethany\/158th", "dir_desc": "To Merlo Rd\/158th Ave", "type": "BUS", "stop_seq": 550, "stop_id": 10107, "stop_name": "NW Bethany & Laidlaw", "jurisdic": "Washington Co.", "zipcode": "97229", "frequent": "False" }, "geometry": { "type": "Point", "coordinates": [ -122.836896665501499, 45.556034046474004 ] } },
{ "type": "Feature", "properties": { "rte": 67, "dir": 1, "rte_desc": "67-Bethany\/158th", "dir_desc": "To Merlo Rd\/158th Ave", "type": "BUS", "stop_seq": 600, "stop_id": 10108, "stop_name": "4700 Block NW Bethany", "jurisdic": "Washington Co.", "zipcode": "97229", "frequent": "False" }, "geometry": { "type": "Point", "coordinates": [ -122.836938803131517, 45.554042033683146 ] } },
{ "type": "Feature", "properties": { "rte": 67, "dir": 1, "rte_desc": "67-Bethany\/158th", "dir_desc": "To Merlo Rd\/158th Ave", "type": "BUS", "stop_seq": 650, "stop_id": 10109, "stop_name": "NW Bethany & Claremont Dr", "jurisdic": "Washington Co.", "zipcode": "97229", "frequent": "False" }, "geometry": { "type": "Point", "coordinates": [ -122.836928121742503, 45.550834881526093 ] } },
{ "type": "Feature", "properties": { "rte": 67, "dir": 1, "rte_desc": "67-Bethany\/158th", "dir_desc": "To Merlo Rd\/158th Ave", "type": "BUS", "stop_seq": 850, "stop_id": 10113, "stop_name": "NW Bethany & Telshire Terrace", "jurisdic": "Washington Co.", "zipcode": "97006", "frequent": "False" }, "geometry": { "type": "Point", "coordinates": [ -122.840512184906885, 45.540481481544688 ] } },
{ "type": "Feature", "properties": { "rte": 67, "dir": 1, "rte_desc": "67-Bethany\/158th", "dir_desc": "To Merlo Rd\/158th Ave", "type": "BUS", "stop_seq": 900, "stop_id": 10114, "stop_name": "NW Bethany & Oak Hills Dr", "jurisdic": "Washington Co.", "zipcode": "97006", "frequent": "False" }, "geometry": { "type": "Point", "coordinates": [ -122.840564369223571, 45.538187987167461 ] } },
{ "type": "Feature", "properties": { "rte": 67, "dir": 1, "rte_desc": "67-Bethany\/158th", "dir_desc": "To Merlo Rd\/158th Ave", "type": "BUS", "stop_seq": 1050, "stop_id": 10115, "stop_name": "NW Bethany & Cornell", "jurisdic": "Beaverton", "zipcode": "97006", "frequent": "False" }, "geometry": { "type": "Point", "coordinates": [ -122.84298805179057, 45.530552211472866 ] } },
{ "type": "Feature", "properties": { "rte": 67, "dir": 1, "rte_desc": "67-Bethany\/158th", "dir_desc": "To Merlo Rd\/158th Ave", "type": "BUS", "stop_seq": 1400, "stop_id": 9252, "stop_name": "SW 158th & Jenkins", "jurisdic": "Beaverton", "zipcode": "97006", "frequent": "False" }, "geometry": { "type": "Point", "coordinates": [ -122.840751103687694, 45.507840283512984 ] } },
{ "type": "Feature", "properties": { "rte": 67, "dir": 1, "rte_desc": "67-Bethany\/158th", "dir_desc": "To Merlo Rd\/158th Ave", "type": "BUS", "stop_seq": 1350, "stop_id": 10182, "stop_name": "800 Block SW 158th", "jurisdic": "Beaverton", "zipcode": "97006", "frequent": "False" }, "geometry": { "type": "Point", "coordinates": [ -122.839647441867072, 45.513265944537089 ] } },
{ "type": "Feature", "properties": { "rte": 67, "dir": 1, "rte_desc": "67-Bethany\/158th", "dir_desc": "To Merlo Rd\/158th Ave", "type": "BUS", "stop_seq": 1250, "stop_id": 8230, "stop_name": "NW 158th & Schendel", "jurisdic": "Beaverton", "zipcode": "97006", "frequent": "False" }, "geometry": { "type": "Point", "coordinates": [ -122.839742137806468, 45.520076183788667 ] } },
{ "type": "Feature", "properties": { "rte": 67, "dir": 1, "rte_desc": "67-Bethany\/158th", "dir_desc": "To Merlo Rd\/158th Ave", "type": "BUS", "stop_seq": 975, "stop_id": 8779, "stop_name": "NW Bethany & Bronson", "jurisdic": "Beaverton", "zipcode": "97006", "frequent": "False" }, "geometry": { "type": "Point", "coordinates": [ -122.841089962502608, 45.534353914217228 ] } },
{ "type": "Feature", "properties": { "rte": 67, "dir": 1, "rte_desc": "67-Bethany\/158th", "dir_desc": "To Merlo Rd\/158th Ave", "type": "BUS", "stop_seq": 1150, "stop_id": 6829, "stop_name": "NW 158th & Greenbrier Pkwy", "jurisdic": "Beaverton", "zipcode": "97006", "frequent": "False" }, "geometry": { "type": "Point", "coordinates": [ -122.839749772792899, 45.526413002739631 ] } },
{ "type": "Feature", "properties": { "rte": 67, "dir": 1, "rte_desc": "67-Bethany\/158th", "dir_desc": "To Merlo Rd\/158th Ave", "type": "BUS", "stop_seq": 1300, "stop_id": 6833, "stop_name": "SW 158th & Walker", "jurisdic": "Beaverton", "zipcode": "97006", "frequent": "False" }, "geometry": { "type": "Point", "coordinates": [ -122.839794746603161, 45.516345147701742 ] } },
{ "type": "Feature", "properties": { "rte": 67, "dir": 1, "rte_desc": "67-Bethany\/158th", "dir_desc": "To Merlo Rd\/158th Ave", "type": "BUS", "stop_seq": 750, "stop_id": 10111, "stop_name": "NW Bethany & West Union", "jurisdic": "Washington Co.", "zipcode": "97229", "frequent": "False" }, "geometry": { "type": "Point", "coordinates": [ -122.838517712215918, 45.544655214676787 ] } },
{ "type": "Feature", "properties": { "rte": 67, "dir": 1, "rte_desc": "67-Bethany\/158th", "dir_desc": "To Merlo Rd\/158th Ave", "type": "BUS", "stop_seq": 800, "stop_id": 10112, "stop_name": "NW Bethany & Ridgetop Lane", "jurisdic": "Washington Co.", "zipcode": "97006", "frequent": "False" }, "geometry": { "type": "Point", "coordinates": [ -122.840454702381948, 45.54219597490934 ] } },
{ "type": "Feature", "properties": { "rte": 67, "dir": 1, "rte_desc": "67-Bethany\/158th", "dir_desc": "To Merlo Rd\/158th Ave", "type": "BUS", "stop_seq": 1200, "stop_id": 8474, "stop_name": "NW 158th & Blueridge", "jurisdic": "Beaverton", "zipcode": "97006", "frequent": "False" }, "geometry": { "type": "Point", "coordinates": [ -122.83972040535923, 45.523769217620945 ] } },
{ "type": "Feature", "properties": { "rte": 67, "dir": 1, "rte_desc": "67-Bethany\/158th", "dir_desc": "To Merlo Rd\/158th Ave", "type": "BUS", "stop_seq": 50, "stop_id": 4429, "stop_name": "PCC Rock Creek Main Stop", "jurisdic": "Washington Co.", "zipcode": "97229", "frequent": "False" }, "geometry": { "type": "Point", "coordinates": [ -122.859458190248318, 45.565560551875642 ] } },
{ "type": "Feature", "properties": { "rte": 67, "dir": 1, "rte_desc": "67-Bethany\/158th", "dir_desc": "To Merlo Rd\/158th Ave", "type": "BUS", "stop_seq": 150, "stop_id": 10102, "stop_name": "NW Springville & Samuel Drive", "jurisdic": "Washington Co.", "zipcode": "97229", "frequent": "False" }, "geometry": { "type": "Point", "coordinates": [ -122.851813932491723, 45.563025137096233 ] } },
{ "type": "Feature", "properties": { "rte": 67, "dir": 1, "rte_desc": "67-Bethany\/158th", "dir_desc": "To Merlo Rd\/158th Ave", "type": "BUS", "stop_seq": 250, "stop_id": 10100, "stop_name": "NW Springville & Sickle Terrace", "jurisdic": "Washington Co.", "zipcode": "97229", "frequent": "False" }, "geometry": { "type": "Point", "coordinates": [ -122.845338762342195, 45.564710176992875 ] } },
{ "type": "Feature", "properties": { "rte": 67, "dir": 1, "rte_desc": "67-Bethany\/158th", "dir_desc": "To Merlo Rd\/158th Ave", "type": "BUS", "stop_seq": 700, "stop_id": 10110, "stop_name": "NW Bethany & Saint Andrews", "jurisdic": "Washington Co.", "zipcode": "97229", "frequent": "False" }, "geometry": { "type": "Point", "coordinates": [ -122.83694775895124, 45.546975611866124 ] } },
{ "type": "Feature", "properties": { "rte": 67, "dir": 1, "rte_desc": "67-Bethany\/158th", "dir_desc": "To Merlo Rd\/158th Ave", "type": "BUS", "stop_seq": 450, "stop_id": 10104, "stop_name": "NW Kaiser & Westbrook", "jurisdic": "Washington Co.", "zipcode": "97229", "frequent": "False" }, "geometry": { "type": "Point", "coordinates": [ -122.835081508207423, 45.56274948955285 ] } },
{ "type": "Feature", "properties": { "rte": 67, "dir": 1, "rte_desc": "67-Bethany\/158th", "dir_desc": "To Merlo Rd\/158th Ave", "type": "BUS", "stop_seq": 1450, "stop_id": 12899, "stop_name": "Merlo Rd\/SW 158th MAX Stn Turnaround", "jurisdic": "Beaverton", "zipcode": "97006", "frequent": "False" }, "geometry": { "type": "Point", "coordinates": [ -122.842061241092168, 45.505323792481988 ] } },
{ "type": "Feature", "properties": { "rte": 67, "dir": 1, "rte_desc": "67-Bethany\/158th", "dir_desc": "To Merlo Rd\/158th Ave", "type": "BUS", "stop_seq": 1100, "stop_id": 13205, "stop_name": "NW Cornell & 158th", "jurisdic": "Beaverton", "zipcode": "97006", "frequent": "False" }, "geometry": { "type": "Point", "coordinates": [ -122.840684535056212, 45.529304637173652 ] } },
{ "type": "Feature", "properties": { "rte": 67, "dir": 1, "rte_desc": "67-Bethany\/158th", "dir_desc": "To Merlo Rd\/158th Ave", "type": "BUS", "stop_seq": 400, "stop_id": 10105, "stop_name": "NW Kaiser & Graf St", "jurisdic": "Washington Co.", "zipcode": "97229", "frequent": "False" }, "geometry": { "type": "Point", "coordinates": [ -122.835675704985661, 45.564919526169106 ] } }
]
}
