{
"type": "FeatureCollection",
"crs": { "type": "name", "properties": { "name": "urn:ogc:def:crs:OGC:1.3:CRS84" } },
                                                                                
"features": [
{ "type": "Feature", "properties": { "rte": "67", "rte_desc": "67-Coburg Road\/VRC", "dir": "1", "dir_desc": "Inbound", "stop_id": "01211", "stop_name": "N\/S of Green Acres E of Delta", "stop_seq": "1" }, "geometry": { "type": "Point", "coordinates": [ -123.0961641, 44.0937007 ] } },
{ "type": "Feature", "properties": { "rte": "67", "rte_desc": "67-Coburg Road\/VRC", "dir": "1", "dir_desc": "Inbound", "stop_id": "00594", "stop_name": "N\/S of Goodpstre Is WofGoodpstre Lp", "stop_seq": "2" }, "geometry": { "type": "Point", "coordinates": [ -123.1073417, 44.0868306 ] } },
{ "type": "Feature", "properties": { "rte": "67", "rte_desc": "67-Coburg Road\/VRC", "dir": "1", "dir_desc": "Inbound", "stop_id": "00596", "stop_name": "N\/S of Goodpstre Is W of James", "stop_seq": "3" }, "geometry": { "type": "Point", "coordinates": [ -123.109507599999986, 44.0862799 ] } },
{ "type": "Feature", "properties": { "rte": "67", "rte_desc": "67-Coburg Road\/VRC", "dir": "1", "dir_desc": "Inbound", "stop_id": "00597", "stop_name": "W\/S of Goodpstre Is N of Kingsley", "stop_seq": "4" }, "geometry": { "type": "Point", "coordinates": [ -123.111207799999988, 44.0844642 ] } },
{ "type": "Feature", "properties": { "rte": "67", "rte_desc": "67-Coburg Road\/VRC", "dir": "1", "dir_desc": "Inbound", "stop_id": "01644", "stop_name": "W\/S of Goodpstre Is Sof Boulders", "stop_seq": "5" }, "geometry": { "type": "Point", "coordinates": [ -123.1119519, 44.0817532 ] } },
{ "type": "Feature", "properties": { "rte": "67", "rte_desc": "67-Coburg Road\/VRC", "dir": "1", "dir_desc": "Inbound", "stop_id": "00599", "stop_name": "W\/S of Goodpstre Is Sof Wimbledon", "stop_seq": "6" }, "geometry": { "type": "Point", "coordinates": [ -123.111713599999987, 44.0804101 ] } },
{ "type": "Feature", "properties": { "rte": "67", "rte_desc": "67-Coburg Road\/VRC", "dir": "1", "dir_desc": "Inbound", "stop_id": "01421", "stop_name": "W\/S of Goodpstre Is S of Alexander", "stop_seq": "7" }, "geometry": { "type": "Point", "coordinates": [ -123.1091705, 44.0792925 ] } },
{ "type": "Feature", "properties": { "rte": "67", "rte_desc": "67-Coburg Road\/VRC", "dir": "1", "dir_desc": "Inbound", "stop_id": "00667", "stop_name": "W\/S of Goodpasture Island Rd N of Delta Ponds Xing", "stop_seq": "8" }, "geometry": { "type": "Point", "coordinates": [ -123.10836, 44.076436 ] } },
{ "type": "Feature", "properties": { "rte": "67", "rte_desc": "67-Coburg Road\/VRC", "dir": "1", "dir_desc": "Inbound", "stop_id": "00601", "stop_name": "W\/S of Goodpstre Is S of 1355 GPI", "stop_seq": "9" }, "geometry": { "type": "Point", "coordinates": [ -123.108206599999988, 44.073045 ] } },
{ "type": "Feature", "properties": { "rte": "67", "rte_desc": "67-Coburg Road\/VRC", "dir": "1", "dir_desc": "Inbound", "stop_id": "00604", "stop_name": "W\/S of Goodpstre Is N of VRDr", "stop_seq": "10" }, "geometry": { "type": "Point", "coordinates": [ -123.108165299999982, 44.0717216 ] } },
{ "type": "Feature", "properties": { "rte": "67", "rte_desc": "67-Coburg Road\/VRC", "dir": "1", "dir_desc": "Inbound", "stop_id": "01314", "stop_name": "W\/S of Goodpstre Is S of VR Dr", "stop_seq": "11" }, "geometry": { "type": "Point", "coordinates": [ -123.108258599999985, 44.0695393 ] } },
{ "type": "Feature", "properties": { "rte": "67", "rte_desc": "67-Coburg Road\/VRC", "dir": "1", "dir_desc": "Inbound", "stop_id": "01310", "stop_name": "VRC Sta, Bay A--inbound", "stop_seq": "12" }, "geometry": { "type": "Point", "coordinates": [ -123.106236600000017, 44.0673735 ] } },
{ "type": "Feature", "properties": { "rte": "67", "rte_desc": "67-Coburg Road\/VRC", "dir": "1", "dir_desc": "Inbound", "stop_id": "01315", "stop_name": "E\/S of VR Way N of VR Inn", "stop_seq": "13" }, "geometry": { "type": "Point", "coordinates": [ -123.1029524, 44.0657021 ] } },
{ "type": "Feature", "properties": { "rte": "67", "rte_desc": "67-Coburg Road\/VRC", "dir": "1", "dir_desc": "Inbound", "stop_id": "01316", "stop_name": "E\/S of VR Way S of VR Dr", "stop_seq": "14" }, "geometry": { "type": "Point", "coordinates": [ -123.10305, 44.0686091 ] } },
{ "type": "Feature", "properties": { "rte": "67", "rte_desc": "67-Coburg Road\/VRC", "dir": "1", "dir_desc": "Inbound", "stop_id": "01291", "stop_name": "W\/S of Willagillespie S of VR Dr", "stop_seq": "15" }, "geometry": { "type": "Point", "coordinates": [ -123.1004341, 44.0686655 ] } },
{ "type": "Feature", "properties": { "rte": "67", "rte_desc": "67-Coburg Road\/VRC", "dir": "1", "dir_desc": "Inbound", "stop_id": "01293", "stop_name": "W\/S of Willagillespie N of Country Club", "stop_seq": "16" }, "geometry": { "type": "Point", "coordinates": [ -123.097567, 44.0652291 ] } },
{ "type": "Feature", "properties": { "rte": "67", "rte_desc": "67-Coburg Road\/VRC", "dir": "1", "dir_desc": "Inbound", "stop_id": "01295", "stop_name": "S\/S of Country Club W of First American Title", "stop_seq": "17" }, "geometry": { "type": "Point", "coordinates": [ -123.09425, 44.0642715 ] } },
{ "type": "Feature", "properties": { "rte": "67", "rte_desc": "67-Coburg Road\/VRC", "dir": "1", "dir_desc": "Inbound", "stop_id": "02001", "stop_name": "S\/S of Country Club E of 520 dw", "stop_seq": "18" }, "geometry": { "type": "Point", "coordinates": [ -123.0913414, 44.0639979 ] } },
{ "type": "Feature", "properties": { "rte": "67", "rte_desc": "67-Coburg Road\/VRC", "dir": "1", "dir_desc": "Inbound", "stop_id": "01297", "stop_name": "S\/S of Country Club W of Eugene CC", "stop_seq": "19" }, "geometry": { "type": "Point", "coordinates": [ -123.0885723, 44.0632782 ] } },
{ "type": "Feature", "properties": { "rte": "67", "rte_desc": "67-Coburg Road\/VRC", "dir": "1", "dir_desc": "Inbound", "stop_id": "01299", "stop_name": "S\/S of Country Club W of Southwood", "stop_seq": "20" }, "geometry": { "type": "Point", "coordinates": [ -123.08580910000002, 44.062308 ] } },
{ "type": "Feature", "properties": { "rte": "67", "rte_desc": "67-Coburg Road\/VRC", "dir": "1", "dir_desc": "Inbound", "stop_id": "01075", "stop_name": "W\/S of Coburg S of Club Rd", "stop_seq": "21" }, "geometry": { "type": "Point", "coordinates": [ -123.082609100000013, 44.0597461 ] } },
{ "type": "Feature", "properties": { "rte": "67", "rte_desc": "67-Coburg Road\/VRC", "dir": "1", "dir_desc": "Inbound", "stop_id": "01064", "stop_name": "W\/S of Pearl N of 8th", "stop_seq": "22" }, "geometry": { "type": "Point", "coordinates": [ -123.089763599999984, 44.0515912 ] } },
{ "type": "Feature", "properties": { "rte": "67", "rte_desc": "67-Coburg Road\/VRC", "dir": "1", "dir_desc": "Inbound", "stop_id": "01301", "stop_name": "W\/S of Pearl N of 10th", "stop_seq": "23" }, "geometry": { "type": "Point", "coordinates": [ -123.0898099, 44.0493327 ] } },
{ "type": "Feature", "properties": { "rte": "67", "rte_desc": "67-Coburg Road\/VRC", "dir": "1", "dir_desc": "Inbound", "stop_id": "escenter", "stop_name": "Eugene Sta central arrival zone", "stop_seq": "24" }, "geometry": { "type": "Point", "coordinates": [ -123.0934126, 44.0481181 ] } }
]
}
