{
"type": "FeatureCollection",
"crs": { "type": "name", "properties": { "name": "urn:ogc:def:crs:OGC:1.3:CRS84" } },
                                                                                
"features": [
{ "type": "Feature", "properties": { "rte": 75, "dir": 0, "rte_desc": "75-Cesar Chavez\/Lombard", "dir_desc": "To St. Johns", "type": "BUS", "stop_seq": 900, "stop_id": 3077, "stop_name": "SE Johnson Creek & Brookside", "jurisdic": "Milwaukie", "zipcode": "97222", "frequent": "True" }, "geometry": { "type": "Point", "coordinates": [ -122.616989894185963, 45.460398067863061 ] } },
{ "type": "Feature", "properties": { "rte": 75, "dir": 0, "rte_desc": "75-Cesar Chavez\/Lombard", "dir_desc": "To St. Johns", "type": "BUS", "stop_seq": 800, "stop_id": 3084, "stop_name": "SE Johnson Creek & 40th", "jurisdic": "Milwaukie", "zipcode": "97222", "frequent": "True" }, "geometry": { "type": "Point", "coordinates": [ -122.622156529753653, 45.460535233267102 ] } },
{ "type": "Feature", "properties": { "rte": 75, "dir": 0, "rte_desc": "75-Cesar Chavez\/Lombard", "dir_desc": "To St. Johns", "type": "BUS", "stop_seq": 850, "stop_id": 3086, "stop_name": "SE Johnson Creek & 42nd", "jurisdic": "Milwaukie", "zipcode": "97222", "frequent": "True" }, "geometry": { "type": "Point", "coordinates": [ -122.619707445662797, 45.460115256199025 ] } },
{ "type": "Feature", "properties": { "rte": 75, "dir": 0, "rte_desc": "75-Cesar Chavez\/Lombard", "dir_desc": "To St. Johns", "type": "BUS", "stop_seq": 4200, "stop_id": 1099, "stop_name": "3500 Block NE Columbia Blvd", "jurisdic": "Portland", "zipcode": "97211", "frequent": "True" }, "geometry": { "type": "Point", "coordinates": [ -122.626892613658669, 45.573059902378333 ] } },
{ "type": "Feature", "properties": { "rte": 75, "dir": 0, "rte_desc": "75-Cesar Chavez\/Lombard", "dir_desc": "To St. Johns", "type": "BUS", "stop_seq": 4150, "stop_id": 1101, "stop_name": "3800 Block NE Columbia Blvd", "jurisdic": "Portland", "zipcode": "97211", "frequent": "True" }, "geometry": { "type": "Point", "coordinates": [ -122.623890368105862, 45.572517800538947 ] } },
{ "type": "Feature", "properties": { "rte": 75, "dir": 0, "rte_desc": "75-Cesar Chavez\/Lombard", "dir_desc": "To St. Johns", "type": "BUS", "stop_seq": 5000, "stop_id": 3557, "stop_name": "NE Lombard & M L King", "jurisdic": "Portland", "zipcode": "97211", "frequent": "True" }, "geometry": { "type": "Point", "coordinates": [ -122.662180340920287, 45.577309196400876 ] } },
{ "type": "Feature", "properties": { "rte": 75, "dir": 0, "rte_desc": "75-Cesar Chavez\/Lombard", "dir_desc": "To St. Johns", "type": "BUS", "stop_seq": 5100, "stop_id": 3561, "stop_name": "N Lombard & Vancouver", "jurisdic": "Portland", "zipcode": "97217", "frequent": "True" }, "geometry": { "type": "Point", "coordinates": [ -122.66897971100525, 45.577296622304921 ] } },
{ "type": "Feature", "properties": { "rte": 75, "dir": 0, "rte_desc": "75-Cesar Chavez\/Lombard", "dir_desc": "To St. Johns", "type": "BUS", "stop_seq": 5750, "stop_id": 3566, "stop_name": "N Lombard & Wabash", "jurisdic": "Portland", "zipcode": "97217", "frequent": "True" }, "geometry": { "type": "Point", "coordinates": [ -122.70312532971829, 45.577212489152451 ] } },
{ "type": "Feature", "properties": { "rte": 75, "dir": 0, "rte_desc": "75-Cesar Chavez\/Lombard", "dir_desc": "To St. Johns", "type": "BUS", "stop_seq": 5800, "stop_id": 3572, "stop_name": "N Lombard & Washburne", "jurisdic": "Portland", "zipcode": "97217", "frequent": "True" }, "geometry": { "type": "Point", "coordinates": [ -122.705292943832987, 45.577217408674912 ] } },
{ "type": "Feature", "properties": { "rte": 75, "dir": 0, "rte_desc": "75-Cesar Chavez\/Lombard", "dir_desc": "To St. Johns", "type": "BUS", "stop_seq": 6400, "stop_id": 3575, "stop_name": "N Lombard & Westanna", "jurisdic": "Portland", "zipcode": "97203", "frequent": "True" }, "geometry": { "type": "Point", "coordinates": [ -122.732127436556965, 45.585540835720913 ] } },
{ "type": "Feature", "properties": { "rte": 75, "dir": 0, "rte_desc": "75-Cesar Chavez\/Lombard", "dir_desc": "To St. Johns", "type": "BUS", "stop_seq": 4650, "stop_id": 1267, "stop_name": "NE Dekum & Durham", "jurisdic": "Portland", "zipcode": "97211", "frequent": "True" }, "geometry": { "type": "Point", "coordinates": [ -122.655810309226709, 45.571835244297731 ] } },
{ "type": "Feature", "properties": { "rte": 75, "dir": 0, "rte_desc": "75-Cesar Chavez\/Lombard", "dir_desc": "To St. Johns", "type": "BUS", "stop_seq": 4400, "stop_id": 1271, "stop_name": "NE Dekum & Saratoga", "jurisdic": "Portland", "zipcode": "97211", "frequent": "True" }, "geometry": { "type": "Point", "coordinates": [ -122.64121477303739, 45.571930617252796 ] } },
{ "type": "Feature", "properties": { "rte": 75, "dir": 0, "rte_desc": "75-Cesar Chavez\/Lombard", "dir_desc": "To St. Johns", "type": "BUS", "stop_seq": 4750, "stop_id": 1273, "stop_name": "NE Dekum & M L King", "jurisdic": "Portland", "zipcode": "97211", "frequent": "True" }, "geometry": { "type": "Point", "coordinates": [ -122.660841134186427, 45.571877602594938 ] } },
{ "type": "Feature", "properties": { "rte": 75, "dir": 0, "rte_desc": "75-Cesar Chavez\/Lombard", "dir_desc": "To St. Johns", "type": "BUS", "stop_seq": 4600, "stop_id": 1275, "stop_name": "NE Dekum & Claremont", "jurisdic": "Portland", "zipcode": "97211", "frequent": "True" }, "geometry": { "type": "Point", "coordinates": [ -122.652681122394227, 45.571827956124601 ] } },
{ "type": "Feature", "properties": { "rte": 75, "dir": 0, "rte_desc": "75-Cesar Chavez\/Lombard", "dir_desc": "To St. Johns", "type": "BUS", "stop_seq": 4500, "stop_id": 1280, "stop_name": "NE Dekum & 18th", "jurisdic": "Portland", "zipcode": "97211", "frequent": "True" }, "geometry": { "type": "Point", "coordinates": [ -122.647094765674254, 45.571926239544545 ] } },
{ "type": "Feature", "properties": { "rte": 75, "dir": 0, "rte_desc": "75-Cesar Chavez\/Lombard", "dir_desc": "To St. Johns", "type": "BUS", "stop_seq": 4450, "stop_id": 1282, "stop_name": "NE Dekum & 22nd", "jurisdic": "Portland", "zipcode": "97211", "frequent": "True" }, "geometry": { "type": "Point", "coordinates": [ -122.643364323738481, 45.571932173869349 ] } },
{ "type": "Feature", "properties": { "rte": 75, "dir": 0, "rte_desc": "75-Cesar Chavez\/Lombard", "dir_desc": "To St. Johns", "type": "BUS", "stop_seq": 4350, "stop_id": 1285, "stop_name": "NE Dekum & 27th", "jurisdic": "Portland", "zipcode": "97211", "frequent": "True" }, "geometry": { "type": "Point", "coordinates": [ -122.638000011044824, 45.571935758287509 ] } },
{ "type": "Feature", "properties": { "rte": 75, "dir": 0, "rte_desc": "75-Cesar Chavez\/Lombard", "dir_desc": "To St. Johns", "type": "BUS", "stop_seq": 4700, "stop_id": 1292, "stop_name": "NE Dekum & 6th", "jurisdic": "Portland", "zipcode": "97211", "frequent": "True" }, "geometry": { "type": "Point", "coordinates": [ -122.659189121822848, 45.571864964890771 ] } },
{ "type": "Feature", "properties": { "rte": 75, "dir": 0, "rte_desc": "75-Cesar Chavez\/Lombard", "dir_desc": "To St. Johns", "type": "BUS", "stop_seq": 4800, "stop_id": 5899, "stop_name": "NE M L King & Bryant", "jurisdic": "Portland", "zipcode": "97211", "frequent": "True" }, "geometry": { "type": "Point", "coordinates": [ -122.661244837354559, 45.572971526890505 ] } },
{ "type": "Feature", "properties": { "rte": 75, "dir": 0, "rte_desc": "75-Cesar Chavez\/Lombard", "dir_desc": "To St. Johns", "type": "BUS", "stop_seq": 5200, "stop_id": 3452, "stop_name": "N Lombard & Albina", "jurisdic": "Portland", "zipcode": "97217", "frequent": "True" }, "geometry": { "type": "Point", "coordinates": [ -122.674639630210677, 45.577299364435994 ] } },
{ "type": "Feature", "properties": { "rte": 75, "dir": 0, "rte_desc": "75-Cesar Chavez\/Lombard", "dir_desc": "To St. Johns", "type": "BUS", "stop_seq": 6900, "stop_id": 3467, "stop_name": "N Lombard & Burlington", "jurisdic": "Portland", "zipcode": "97203", "frequent": "True" }, "geometry": { "type": "Point", "coordinates": [ -122.754343048888856, 45.590090524223186 ] } },
{ "type": "Feature", "properties": { "rte": 75, "dir": 0, "rte_desc": "75-Cesar Chavez\/Lombard", "dir_desc": "To St. Johns", "type": "BUS", "stop_seq": 5600, "stop_id": 3472, "stop_name": "N Lombard & Burrage", "jurisdic": "Portland", "zipcode": "97217", "frequent": "True" }, "geometry": { "type": "Point", "coordinates": [ -122.694744471532047, 45.577209419219777 ] } },
{ "type": "Feature", "properties": { "rte": 75, "dir": 0, "rte_desc": "75-Cesar Chavez\/Lombard", "dir_desc": "To St. Johns", "type": "BUS", "stop_seq": 6250, "stop_id": 3480, "stop_name": "N Lombard & Clarendon", "jurisdic": "Portland", "zipcode": "97203", "frequent": "True" }, "geometry": { "type": "Point", "coordinates": [ -122.726312231343485, 45.583404885759109 ] } },
{ "type": "Feature", "properties": { "rte": 75, "dir": 0, "rte_desc": "75-Cesar Chavez\/Lombard", "dir_desc": "To St. Johns", "type": "BUS", "stop_seq": 5550, "stop_id": 3483, "stop_name": "N Lombard & Delaware", "jurisdic": "Portland", "zipcode": "97217", "frequent": "True" }, "geometry": { "type": "Point", "coordinates": [ -122.692299565624609, 45.577203570233856 ] } },
{ "type": "Feature", "properties": { "rte": 75, "dir": 0, "rte_desc": "75-Cesar Chavez\/Lombard", "dir_desc": "To St. Johns", "type": "BUS", "stop_seq": 6050, "stop_id": 3491, "stop_name": "N Lombard & Fiske", "jurisdic": "Portland", "zipcode": "97203", "frequent": "True" }, "geometry": { "type": "Point", "coordinates": [ -122.718115751446263, 45.580403969232243 ] } },
{ "type": "Feature", "properties": { "rte": 75, "dir": 0, "rte_desc": "75-Cesar Chavez\/Lombard", "dir_desc": "To St. Johns", "type": "BUS", "stop_seq": 6500, "stop_id": 3494, "stop_name": "N Lombard & Gilbert", "jurisdic": "Portland", "zipcode": "97203", "frequent": "True" }, "geometry": { "type": "Point", "coordinates": [ -122.736902710546261, 45.586660316465156 ] } },
{ "type": "Feature", "properties": { "rte": 75, "dir": 0, "rte_desc": "75-Cesar Chavez\/Lombard", "dir_desc": "To St. Johns", "type": "BUS", "stop_seq": 6150, "stop_id": 3498, "stop_name": "N Lombard & Hodge", "jurisdic": "Portland", "zipcode": "97203", "frequent": "True" }, "geometry": { "type": "Point", "coordinates": [ -122.721478849060333, 45.581613024121438 ] } },
{ "type": "Feature", "properties": { "rte": 75, "dir": 0, "rte_desc": "75-Cesar Chavez\/Lombard", "dir_desc": "To St. Johns", "type": "BUS", "stop_seq": 6000, "stop_id": 3502, "stop_name": "N Lombard & Huron", "jurisdic": "Portland", "zipcode": "97203", "frequent": "True" }, "geometry": { "type": "Point", "coordinates": [ -122.7158150879321, 45.579531152599124 ] } },
{ "type": "Feature", "properties": { "rte": 75, "dir": 0, "rte_desc": "75-Cesar Chavez\/Lombard", "dir_desc": "To St. Johns", "type": "BUS", "stop_seq": 5350, "stop_id": 3507, "stop_name": "N Lombard Transit Center", "jurisdic": "Portland", "zipcode": "97217", "frequent": "True" }, "geometry": { "type": "Point", "coordinates": [ -122.682701115922157, 45.577231803561851 ] } },
{ "type": "Feature", "properties": { "rte": 75, "dir": 0, "rte_desc": "75-Cesar Chavez\/Lombard", "dir_desc": "To St. Johns", "type": "BUS", "stop_seq": 6850, "stop_id": 3509, "stop_name": "N Lombard & John", "jurisdic": "Portland", "zipcode": "97203", "frequent": "True" }, "geometry": { "type": "Point", "coordinates": [ -122.752679565241365, 45.58958863790518 ] } },
{ "type": "Feature", "properties": { "rte": 75, "dir": 0, "rte_desc": "75-Cesar Chavez\/Lombard", "dir_desc": "To St. Johns", "type": "BUS", "stop_seq": 5250, "stop_id": 3521, "stop_name": "N Lombard & Mississippi", "jurisdic": "Portland", "zipcode": "97217", "frequent": "True" }, "geometry": { "type": "Point", "coordinates": [ -122.676182213007252, 45.577286897559233 ] } },
{ "type": "Feature", "properties": { "rte": 75, "dir": 0, "rte_desc": "75-Cesar Chavez\/Lombard", "dir_desc": "To St. Johns", "type": "BUS", "stop_seq": 7000, "stop_id": 3525, "stop_name": "N Lombard & New York", "jurisdic": "Portland", "zipcode": "97203", "frequent": "True" }, "geometry": { "type": "Point", "coordinates": [ -122.756864106696682, 45.592307592466355 ] } },
{ "type": "Feature", "properties": { "rte": 75, "dir": 0, "rte_desc": "75-Cesar Chavez\/Lombard", "dir_desc": "To St. Johns", "type": "BUS", "stop_seq": 5700, "stop_id": 3528, "stop_name": "N Lombard & Oatman", "jurisdic": "Portland", "zipcode": "97217", "frequent": "True" }, "geometry": { "type": "Point", "coordinates": [ -122.700421492701309, 45.577200002270246 ] } },
{ "type": "Feature", "properties": { "rte": 75, "dir": 0, "rte_desc": "75-Cesar Chavez\/Lombard", "dir_desc": "To St. Johns", "type": "BUS", "stop_seq": 5650, "stop_id": 3535, "stop_name": "N Lombard & Peninsular", "jurisdic": "Portland", "zipcode": "97217", "frequent": "True" }, "geometry": { "type": "Point", "coordinates": [ -122.696840682575399, 45.577199350809963 ] } },
{ "type": "Feature", "properties": { "rte": 75, "dir": 0, "rte_desc": "75-Cesar Chavez\/Lombard", "dir_desc": "To St. Johns", "type": "BUS", "stop_seq": 6200, "stop_id": 3538, "stop_name": "N Lombard & Portsmouth", "jurisdic": "Portland", "zipcode": "97203", "frequent": "True" }, "geometry": { "type": "Point", "coordinates": [ -122.72380998950122, 45.582472410805252 ] } },
{ "type": "Feature", "properties": { "rte": 75, "dir": 0, "rte_desc": "75-Cesar Chavez\/Lombard", "dir_desc": "To St. Johns", "type": "BUS", "stop_seq": 5900, "stop_id": 3548, "stop_name": "N Lombard & Russet", "jurisdic": "Portland", "zipcode": "97217", "frequent": "True" }, "geometry": { "type": "Point", "coordinates": [ -122.711826449435549, 45.578073550165747 ] } },
{ "type": "Feature", "properties": { "rte": 75, "dir": 0, "rte_desc": "75-Cesar Chavez\/Lombard", "dir_desc": "To St. Johns", "type": "BUS", "stop_seq": 3000, "stop_id": 10872, "stop_name": "Hollywood Transit Center", "jurisdic": "Portland", "zipcode": "97213", "frequent": "True" }, "geometry": { "type": "Point", "coordinates": [ -122.62026407214735, 45.533528504603552 ] } },
{ "type": "Feature", "properties": { "rte": 75, "dir": 0, "rte_desc": "75-Cesar Chavez\/Lombard", "dir_desc": "To St. Johns", "type": "BUS", "stop_seq": 300, "stop_id": 8894, "stop_name": "SE 32nd & Meek", "jurisdic": "Milwaukie", "zipcode": "97222", "frequent": "True" }, "geometry": { "type": "Point", "coordinates": [ -122.629657012020601, 45.448298237055141 ] } },
{ "type": "Feature", "properties": { "rte": 75, "dir": 0, "rte_desc": "75-Cesar Chavez\/Lombard", "dir_desc": "To St. Johns", "type": "BUS", "stop_seq": 4025, "stop_id": 11009, "stop_name": "NE Columbia Blvd & 52nd (NAYA)", "jurisdic": "Portland", "zipcode": "97218", "frequent": "True" }, "geometry": { "type": "Point", "coordinates": [ -122.610058135124319, 45.570223694923314 ] } },
{ "type": "Feature", "properties": { "rte": 75, "dir": 0, "rte_desc": "75-Cesar Chavez\/Lombard", "dir_desc": "To St. Johns", "type": "BUS", "stop_seq": 4000, "stop_id": 7516, "stop_name": "NE 42nd & Holman", "jurisdic": "Portland", "zipcode": "97218", "frequent": "True" }, "geometry": { "type": "Point", "coordinates": [ -122.620358899282721, 45.568522610191025 ] } },
{ "type": "Feature", "properties": { "rte": 75, "dir": 0, "rte_desc": "75-Cesar Chavez\/Lombard", "dir_desc": "To St. Johns", "type": "BUS", "stop_seq": 700, "stop_id": 8168, "stop_name": "SE 32nd & Johnson Creek", "jurisdic": "Portland", "zipcode": "97222", "frequent": "True" }, "geometry": { "type": "Point", "coordinates": [ -122.629787145422767, 45.462430239857227 ] } },
{ "type": "Feature", "properties": { "rte": 75, "dir": 0, "rte_desc": "75-Cesar Chavez\/Lombard", "dir_desc": "To St. Johns", "type": "BUS", "stop_seq": 600, "stop_id": 8326, "stop_name": "SE 32nd & Floss", "jurisdic": "Milwaukie", "zipcode": "97222", "frequent": "True" }, "geometry": { "type": "Point", "coordinates": [ -122.629931527546148, 45.457707337496828 ] } },
{ "type": "Feature", "properties": { "rte": 75, "dir": 0, "rte_desc": "75-Cesar Chavez\/Lombard", "dir_desc": "To St. Johns", "type": "BUS", "stop_seq": 3400, "stop_id": 7499, "stop_name": "NE 41st & Klickitat", "jurisdic": "Portland", "zipcode": "97212", "frequent": "True" }, "geometry": { "type": "Point", "coordinates": [ -122.620700389638657, 45.54716432690077 ] } },
{ "type": "Feature", "properties": { "rte": 75, "dir": 0, "rte_desc": "75-Cesar Chavez\/Lombard", "dir_desc": "To St. Johns", "type": "BUS", "stop_seq": 3600, "stop_id": 7533, "stop_name": "NE 42nd & Skidmore", "jurisdic": "Portland", "zipcode": "97218", "frequent": "True" }, "geometry": { "type": "Point", "coordinates": [ -122.620314836358176, 45.55363475012858 ] } },
{ "type": "Feature", "properties": { "rte": 75, "dir": 0, "rte_desc": "75-Cesar Chavez\/Lombard", "dir_desc": "To St. Johns", "type": "BUS", "stop_seq": 1550, "stop_id": 6412, "stop_name": "SE Woodstock & 41st", "jurisdic": "Portland", "zipcode": "97202", "frequent": "True" }, "geometry": { "type": "Point", "coordinates": [ -122.620365130315662, 45.479260469164707 ] } },
{ "type": "Feature", "properties": { "rte": 75, "dir": 0, "rte_desc": "75-Cesar Chavez\/Lombard", "dir_desc": "To St. Johns", "type": "BUS", "stop_seq": 3650, "stop_id": 7526, "stop_name": "NE 42nd & Prescott", "jurisdic": "Portland", "zipcode": "97218", "frequent": "True" }, "geometry": { "type": "Point", "coordinates": [ -122.620320100163397, 45.555289811239433 ] } },
{ "type": "Feature", "properties": { "rte": 75, "dir": 0, "rte_desc": "75-Cesar Chavez\/Lombard", "dir_desc": "To St. Johns", "type": "BUS", "stop_seq": 2700, "stop_id": 7435, "stop_name": "SE Cesar Chavez Blvd & Ash", "jurisdic": "Portland", "zipcode": "97214", "frequent": "True" }, "geometry": { "type": "Point", "coordinates": [ -122.622943535322989, 45.521538097068415 ] } },
{ "type": "Feature", "properties": { "rte": 75, "dir": 0, "rte_desc": "75-Cesar Chavez\/Lombard", "dir_desc": "To St. Johns", "type": "BUS", "stop_seq": 2150, "stop_id": 7439, "stop_name": "SE Cesar Chavez Blvd & Brooklyn", "jurisdic": "Portland", "zipcode": "97202", "frequent": "True" }, "geometry": { "type": "Point", "coordinates": [ -122.622543465137497, 45.501132265885985 ] } },
{ "type": "Feature", "properties": { "rte": 75, "dir": 0, "rte_desc": "75-Cesar Chavez\/Lombard", "dir_desc": "To St. Johns", "type": "BUS", "stop_seq": 2200, "stop_id": 7442, "stop_name": "SE Cesar Chavez Blvd & Clinton", "jurisdic": "Portland", "zipcode": "97202", "frequent": "True" }, "geometry": { "type": "Point", "coordinates": [ -122.62252671448168, 45.503241970885227 ] } },
{ "type": "Feature", "properties": { "rte": 75, "dir": 0, "rte_desc": "75-Cesar Chavez\/Lombard", "dir_desc": "To St. Johns", "type": "BUS", "stop_seq": 2250, "stop_id": 7445, "stop_name": "SE Cesar Chavez Blvd & Division", "jurisdic": "Portland", "zipcode": "97214", "frequent": "True" }, "geometry": { "type": "Point", "coordinates": [ -122.622459167393416, 45.505028310776197 ] } },
{ "type": "Feature", "properties": { "rte": 75, "dir": 0, "rte_desc": "75-Cesar Chavez\/Lombard", "dir_desc": "To St. Johns", "type": "BUS", "stop_seq": 1950, "stop_id": 7449, "stop_name": "SE Cesar Chavez Blvd & Gladstone", "jurisdic": "Portland", "zipcode": "97202", "frequent": "True" }, "geometry": { "type": "Point", "coordinates": [ -122.622546907807191, 45.493766481372155 ] } },
{ "type": "Feature", "properties": { "rte": 75, "dir": 0, "rte_desc": "75-Cesar Chavez\/Lombard", "dir_desc": "To St. Johns", "type": "BUS", "stop_seq": 2800, "stop_id": 7451, "stop_name": "NE Cesar Chavez Blvd & Glisan", "jurisdic": "Portland", "zipcode": "97232", "frequent": "True" }, "geometry": { "type": "Point", "coordinates": [ -122.622446070369577, 45.526426655390281 ] } },
{ "type": "Feature", "properties": { "rte": 75, "dir": 0, "rte_desc": "75-Cesar Chavez\/Lombard", "dir_desc": "To St. Johns", "type": "BUS", "stop_seq": 1700, "stop_id": 7456, "stop_name": "SE Cesar Chavez Blvd & Harold", "jurisdic": "Portland", "zipcode": "97202", "frequent": "True" }, "geometry": { "type": "Point", "coordinates": [ -122.622565866119942, 45.482719658703864 ] } },
{ "type": "Feature", "properties": { "rte": 75, "dir": 0, "rte_desc": "75-Cesar Chavez\/Lombard", "dir_desc": "To St. Johns", "type": "BUS", "stop_seq": 1600, "stop_id": 7465, "stop_name": "SE Cesar Chavez Blvd & Knight", "jurisdic": "Portland", "zipcode": "97202", "frequent": "True" }, "geometry": { "type": "Point", "coordinates": [ -122.62257808182045, 45.479654604559073 ] } },
{ "type": "Feature", "properties": { "rte": 75, "dir": 0, "rte_desc": "75-Cesar Chavez\/Lombard", "dir_desc": "To St. Johns", "type": "BUS", "stop_seq": 2350, "stop_id": 7468, "stop_name": "SE Cesar Chavez Blvd & Lincoln", "jurisdic": "Portland", "zipcode": "97214", "frequent": "True" }, "geometry": { "type": "Point", "coordinates": [ -122.622618915681358, 45.507938682565282 ] } },
{ "type": "Feature", "properties": { "rte": 75, "dir": 0, "rte_desc": "75-Cesar Chavez\/Lombard", "dir_desc": "To St. Johns", "type": "BUS", "stop_seq": 1850, "stop_id": 7471, "stop_name": "SE Cesar Chavez Blvd & Long", "jurisdic": "Portland", "zipcode": "97202", "frequent": "True" }, "geometry": { "type": "Point", "coordinates": [ -122.622724114330239, 45.489080849048186 ] } },
{ "type": "Feature", "properties": { "rte": 75, "dir": 0, "rte_desc": "75-Cesar Chavez\/Lombard", "dir_desc": "To St. Johns", "type": "BUS", "stop_seq": 2500, "stop_id": 7472, "stop_name": "SE Cesar Chavez Blvd & Main", "jurisdic": "Portland", "zipcode": "97214", "frequent": "True" }, "geometry": { "type": "Point", "coordinates": [ -122.622790175870392, 45.513487170205188 ] } },
{ "type": "Feature", "properties": { "rte": 75, "dir": 0, "rte_desc": "75-Cesar Chavez\/Lombard", "dir_desc": "To St. Johns", "type": "BUS", "stop_seq": 2050, "stop_id": 7477, "stop_name": "SE Cesar Chavez Blvd & Powell", "jurisdic": "Portland", "zipcode": "97202", "frequent": "True" }, "geometry": { "type": "Point", "coordinates": [ -122.622486897698892, 45.497871072317565 ] } },
{ "type": "Feature", "properties": { "rte": 75, "dir": 0, "rte_desc": "75-Cesar Chavez\/Lombard", "dir_desc": "To St. Johns", "type": "BUS", "stop_seq": 1800, "stop_id": 7478, "stop_name": "SE Cesar Chavez Blvd & Raymond", "jurisdic": "Portland", "zipcode": "97202", "frequent": "True" }, "geometry": { "type": "Point", "coordinates": [ -122.622552938673962, 45.486929533606279 ] } },
{ "type": "Feature", "properties": { "rte": 75, "dir": 0, "rte_desc": "75-Cesar Chavez\/Lombard", "dir_desc": "To St. Johns", "type": "BUS", "stop_seq": 3900, "stop_id": 7531, "stop_name": "NE 42nd & Simpson St", "jurisdic": "Portland", "zipcode": "97218", "frequent": "True" }, "geometry": { "type": "Point", "coordinates": [ -122.620345525072679, 45.565025257535929 ] } },
{ "type": "Feature", "properties": { "rte": 75, "dir": 0, "rte_desc": "75-Cesar Chavez\/Lombard", "dir_desc": "To St. Johns", "type": "BUS", "stop_seq": 3800, "stop_id": 7535, "stop_name": "NE 42nd & Sumner", "jurisdic": "Portland", "zipcode": "97218", "frequent": "True" }, "geometry": { "type": "Point", "coordinates": [ -122.620323857599701, 45.560133244526824 ] } },
{ "type": "Feature", "properties": { "rte": 75, "dir": 0, "rte_desc": "75-Cesar Chavez\/Lombard", "dir_desc": "To St. Johns", "type": "BUS", "stop_seq": 3150, "stop_id": 7537, "stop_name": "NE 42nd & Tillamook", "jurisdic": "Portland", "zipcode": "97213", "frequent": "True" }, "geometry": { "type": "Point", "coordinates": [ -122.619839606492675, 45.538075766108179 ] } },
{ "type": "Feature", "properties": { "rte": 75, "dir": 0, "rte_desc": "75-Cesar Chavez\/Lombard", "dir_desc": "To St. Johns", "type": "BUS", "stop_seq": 1300, "stop_id": 7542, "stop_name": "SE 45th & Evergreen", "jurisdic": "Portland", "zipcode": "97206", "frequent": "True" }, "geometry": { "type": "Point", "coordinates": [ -122.615943046679206, 45.473532146085667 ] } },
{ "type": "Feature", "properties": { "rte": 75, "dir": 0, "rte_desc": "75-Cesar Chavez\/Lombard", "dir_desc": "To St. Johns", "type": "BUS", "stop_seq": 1050, "stop_id": 7546, "stop_name": "SE 45th & Harney", "jurisdic": "Portland", "zipcode": "97206", "frequent": "True" }, "geometry": { "type": "Point", "coordinates": [ -122.615779912441297, 45.463043519181731 ] } },
{ "type": "Feature", "properties": { "rte": 75, "dir": 0, "rte_desc": "75-Cesar Chavez\/Lombard", "dir_desc": "To St. Johns", "type": "BUS", "stop_seq": 1200, "stop_id": 7552, "stop_name": "SE 45th & Knapp", "jurisdic": "Portland", "zipcode": "97206", "frequent": "True" }, "geometry": { "type": "Point", "coordinates": [ -122.615891977838217, 45.470707373863632 ] } },
{ "type": "Feature", "properties": { "rte": 75, "dir": 0, "rte_desc": "75-Cesar Chavez\/Lombard", "dir_desc": "To St. Johns", "type": "BUS", "stop_seq": 1250, "stop_id": 7557, "stop_name": "SE 45th & Rural", "jurisdic": "Portland", "zipcode": "97206", "frequent": "True" }, "geometry": { "type": "Point", "coordinates": [ -122.61592038169168, 45.47210365218281 ] } },
{ "type": "Feature", "properties": { "rte": 75, "dir": 0, "rte_desc": "75-Cesar Chavez\/Lombard", "dir_desc": "To St. Johns", "type": "BUS", "stop_seq": 1100, "stop_id": 7560, "stop_name": "SE 45th & 46th\/Nehalem", "jurisdic": "Portland", "zipcode": "97206", "frequent": "True" }, "geometry": { "type": "Point", "coordinates": [ -122.615816096880181, 45.465510407093468 ] } },
{ "type": "Feature", "properties": { "rte": 75, "dir": 0, "rte_desc": "75-Cesar Chavez\/Lombard", "dir_desc": "To St. Johns", "type": "BUS", "stop_seq": 1350, "stop_id": 7563, "stop_name": "SE 46th & Henry", "jurisdic": "Portland", "zipcode": "97206", "frequent": "True" }, "geometry": { "type": "Point", "coordinates": [ -122.615364676182253, 45.476504161864028 ] } },
{ "type": "Feature", "properties": { "rte": 75, "dir": 0, "rte_desc": "75-Cesar Chavez\/Lombard", "dir_desc": "To St. Johns", "type": "BUS", "stop_seq": 2850, "stop_id": 7482, "stop_name": "NE Cesar Chavez Blvd & Royal", "jurisdic": "Portland", "zipcode": "97232", "frequent": "True" }, "geometry": { "type": "Point", "coordinates": [ -122.622888698726484, 45.528478773781465 ] } },
{ "type": "Feature", "properties": { "rte": 75, "dir": 0, "rte_desc": "75-Cesar Chavez\/Lombard", "dir_desc": "To St. Johns", "type": "BUS", "stop_seq": 2400, "stop_id": 7489, "stop_name": "SE Cesar Chavez Blvd & Stephens", "jurisdic": "Portland", "zipcode": "97214", "frequent": "True" }, "geometry": { "type": "Point", "coordinates": [ -122.622655464501179, 45.509481321047666 ] } },
{ "type": "Feature", "properties": { "rte": 75, "dir": 0, "rte_desc": "75-Cesar Chavez\/Lombard", "dir_desc": "To St. Johns", "type": "BUS", "stop_seq": 3350, "stop_id": 7497, "stop_name": "NE 41st & Alameda", "jurisdic": "Portland", "zipcode": "97212", "frequent": "True" }, "geometry": { "type": "Point", "coordinates": [ -122.621045179924835, 45.545111832466631 ] } },
{ "type": "Feature", "properties": { "rte": 75, "dir": 0, "rte_desc": "75-Cesar Chavez\/Lombard", "dir_desc": "To St. Johns", "type": "BUS", "stop_seq": 3750, "stop_id": 7505, "stop_name": "NE 42nd & Alberta St", "jurisdic": "Portland", "zipcode": "97218", "frequent": "True" }, "geometry": { "type": "Point", "coordinates": [ -122.6203388821868, 45.558808690819419 ] } },
{ "type": "Feature", "properties": { "rte": 75, "dir": 0, "rte_desc": "75-Cesar Chavez\/Lombard", "dir_desc": "To St. Johns", "type": "BUS", "stop_seq": 3500, "stop_id": 7506, "stop_name": "NE 42nd & Beech", "jurisdic": "Portland", "zipcode": "97213", "frequent": "True" }, "geometry": { "type": "Point", "coordinates": [ -122.620294095767505, 45.550054200396147 ] } },
{ "type": "Feature", "properties": { "rte": 75, "dir": 0, "rte_desc": "75-Cesar Chavez\/Lombard", "dir_desc": "To St. Johns", "type": "BUS", "stop_seq": 3050, "stop_id": 7509, "stop_name": "NE 42nd & Broadway", "jurisdic": "Portland", "zipcode": "97213", "frequent": "True" }, "geometry": { "type": "Point", "coordinates": [ -122.620229325874988, 45.534967226975112 ] } },
{ "type": "Feature", "properties": { "rte": 75, "dir": 0, "rte_desc": "75-Cesar Chavez\/Lombard", "dir_desc": "To St. Johns", "type": "BUS", "stop_seq": 3850, "stop_id": 7520, "stop_name": "NE 42nd & Killingsworth", "jurisdic": "Portland", "zipcode": "97218", "frequent": "True" }, "geometry": { "type": "Point", "coordinates": [ -122.62032504906378, 45.563460452457868 ] } },
{ "type": "Feature", "properties": { "rte": 75, "dir": 0, "rte_desc": "75-Cesar Chavez\/Lombard", "dir_desc": "To St. Johns", "type": "BUS", "stop_seq": 3250, "stop_id": 7521, "stop_name": "NE 42nd & Knott", "jurisdic": "Portland", "zipcode": "97213", "frequent": "True" }, "geometry": { "type": "Point", "coordinates": [ -122.619833939666151, 45.542035513043842 ] } },
{ "type": "Feature", "properties": { "rte": 75, "dir": 0, "rte_desc": "75-Cesar Chavez\/Lombard", "dir_desc": "To St. Johns", "type": "BUS", "stop_seq": 7150, "stop_id": 10697, "stop_name": "Pier Park", "jurisdic": "Portland", "zipcode": "97203", "frequent": "True" }, "geometry": { "type": "Point", "coordinates": [ -122.762435295686274, 45.602152770402299 ] } },
{ "type": "Feature", "properties": { "rte": 75, "dir": 0, "rte_desc": "75-Cesar Chavez\/Lombard", "dir_desc": "To St. Johns", "type": "BUS", "stop_seq": 1400, "stop_id": 7565, "stop_name": "SE 46th & Woodstock", "jurisdic": "Portland", "zipcode": "97206", "frequent": "True" }, "geometry": { "type": "Point", "coordinates": [ -122.615379734587094, 45.479041339047953 ] } },
{ "type": "Feature", "properties": { "rte": 75, "dir": 0, "rte_desc": "75-Cesar Chavez\/Lombard", "dir_desc": "To St. Johns", "type": "BUS", "stop_seq": 2975, "stop_id": 11487, "stop_name": "NE Cesar Chavez Blvd & Halsey", "jurisdic": "Portland", "zipcode": "97232", "frequent": "True" }, "geometry": { "type": "Point", "coordinates": [ -122.622782148008497, 45.533451418498451 ] } },
{ "type": "Feature", "properties": { "rte": 75, "dir": 0, "rte_desc": "75-Cesar Chavez\/Lombard", "dir_desc": "To St. Johns", "type": "BUS", "stop_seq": 4550, "stop_id": 1277, "stop_name": "NE Dekum & 15th", "jurisdic": "Portland", "zipcode": "97211", "frequent": "True" }, "geometry": { "type": "Point", "coordinates": [ -122.64990978169125, 45.571919996990722 ] } },
{ "type": "Feature", "properties": { "rte": 75, "dir": 0, "rte_desc": "75-Cesar Chavez\/Lombard", "dir_desc": "To St. Johns", "type": "BUS", "stop_seq": 150, "stop_id": 2572, "stop_name": "SE Harrison & 28th", "jurisdic": "Milwaukie", "zipcode": "97222", "frequent": "True" }, "geometry": { "type": "Point", "coordinates": [ -122.635000301704537, 45.446414979780563 ] } },
{ "type": "Feature", "properties": { "rte": 75, "dir": 0, "rte_desc": "75-Cesar Chavez\/Lombard", "dir_desc": "To St. Johns", "type": "BUS", "stop_seq": 1000, "stop_id": 3079, "stop_name": "SE Johnson Creek & Springwater Corridor", "jurisdic": "Portland", "zipcode": "97202", "frequent": "True" }, "geometry": { "type": "Point", "coordinates": [ -122.616727008893093, 45.461576377662219 ] } },
{ "type": "Feature", "properties": { "rte": 75, "dir": 0, "rte_desc": "75-Cesar Chavez\/Lombard", "dir_desc": "To St. Johns", "type": "BUS", "stop_seq": 4250, "stop_id": 1289, "stop_name": "NE Dekum & 32nd Pl", "jurisdic": "Portland", "zipcode": "97211", "frequent": "True" }, "geometry": { "type": "Point", "coordinates": [ -122.631589903328091, 45.571942603445841 ] } },
{ "type": "Feature", "properties": { "rte": 75, "dir": 0, "rte_desc": "75-Cesar Chavez\/Lombard", "dir_desc": "To St. Johns", "type": "BUS", "stop_seq": 4900, "stop_id": 5918, "stop_name": "NE M L King & Holland", "jurisdic": "Portland", "zipcode": "97211", "frequent": "True" }, "geometry": { "type": "Point", "coordinates": [ -122.661238388156306, 45.575612110790765 ] } },
{ "type": "Feature", "properties": { "rte": 75, "dir": 0, "rte_desc": "75-Cesar Chavez\/Lombard", "dir_desc": "To St. Johns", "type": "BUS", "stop_seq": 3100, "stop_id": 7528, "stop_name": "NE 42nd & Sandy", "jurisdic": "Portland", "zipcode": "97213", "frequent": "True" }, "geometry": { "type": "Point", "coordinates": [ -122.619816569305286, 45.536384699555718 ] } },
{ "type": "Feature", "properties": { "rte": 75, "dir": 0, "rte_desc": "75-Cesar Chavez\/Lombard", "dir_desc": "To St. Johns", "type": "BUS", "stop_seq": 5450, "stop_id": 3485, "stop_name": "N Lombard & Denver", "jurisdic": "Portland", "zipcode": "97217", "frequent": "True" }, "geometry": { "type": "Point", "coordinates": [ -122.686656858667362, 45.577196407569978 ] } },
{ "type": "Feature", "properties": { "rte": 75, "dir": 0, "rte_desc": "75-Cesar Chavez\/Lombard", "dir_desc": "To St. Johns", "type": "BUS", "stop_seq": 6300, "stop_id": 3518, "stop_name": "N Lombard & McKenna", "jurisdic": "Portland", "zipcode": "97203", "frequent": "True" }, "geometry": { "type": "Point", "coordinates": [ -122.72807687511694, 45.584037857717426 ] } },
{ "type": "Feature", "properties": { "rte": 75, "dir": 0, "rte_desc": "75-Cesar Chavez\/Lombard", "dir_desc": "To St. Johns", "type": "BUS", "stop_seq": 5050, "stop_id": 3546, "stop_name": "NE Lombard & Rodney", "jurisdic": "Portland", "zipcode": "97211", "frequent": "True" }, "geometry": { "type": "Point", "coordinates": [ -122.664823338746842, 45.577293844117492 ] } },
{ "type": "Feature", "properties": { "rte": 75, "dir": 0, "rte_desc": "75-Cesar Chavez\/Lombard", "dir_desc": "To St. Johns", "type": "BUS", "stop_seq": 7050, "stop_id": 9431, "stop_name": "N Lombard & Catlin", "jurisdic": "Portland", "zipcode": "97203", "frequent": "True" }, "geometry": { "type": "Point", "coordinates": [ -122.759065500596932, 45.594579366748157 ] } },
{ "type": "Feature", "properties": { "rte": 75, "dir": 0, "rte_desc": "75-Cesar Chavez\/Lombard", "dir_desc": "To St. Johns", "type": "BUS", "stop_seq": 7100, "stop_id": 9432, "stop_name": "N Lombard & Weyerhauser", "jurisdic": "Portland", "zipcode": "97203", "frequent": "True" }, "geometry": { "type": "Point", "coordinates": [ -122.762273225962787, 45.599936715805804 ] } },
{ "type": "Feature", "properties": { "rte": 75, "dir": 0, "rte_desc": "75-Cesar Chavez\/Lombard", "dir_desc": "To St. Johns", "type": "BUS", "stop_seq": 3450, "stop_id": 7501, "stop_name": "NE 42nd & Fremont", "jurisdic": "Portland", "zipcode": "97213", "frequent": "True" }, "geometry": { "type": "Point", "coordinates": [ -122.620267120839898, 45.548535276796478 ] } },
{ "type": "Feature", "properties": { "rte": 75, "dir": 0, "rte_desc": "75-Cesar Chavez\/Lombard", "dir_desc": "To St. Johns", "type": "BUS", "stop_seq": 6950, "stop_id": 8480, "stop_name": "N Lombard & Baltimore", "jurisdic": "Portland", "zipcode": "97203", "frequent": "True" }, "geometry": { "type": "Point", "coordinates": [ -122.755706654740493, 45.5911073308299 ] } },
{ "type": "Feature", "properties": { "rte": 75, "dir": 0, "rte_desc": "75-Cesar Chavez\/Lombard", "dir_desc": "To St. Johns", "type": "BUS", "stop_seq": 4850, "stop_id": 5937, "stop_name": "NE M L King & Morgan", "jurisdic": "Portland", "zipcode": "97211", "frequent": "True" }, "geometry": { "type": "Point", "coordinates": [ -122.661247484855835, 45.574327013529135 ] } },
{ "type": "Feature", "properties": { "rte": 75, "dir": 0, "rte_desc": "75-Cesar Chavez\/Lombard", "dir_desc": "To St. Johns", "type": "BUS", "stop_seq": 350, "stop_id": 7339, "stop_name": "SE 32nd & Hillside", "jurisdic": "Milwaukie", "zipcode": "97222", "frequent": "True" }, "geometry": { "type": "Point", "coordinates": [ -122.629722963642806, 45.449846308511638 ] } },
{ "type": "Feature", "properties": { "rte": 75, "dir": 0, "rte_desc": "75-Cesar Chavez\/Lombard", "dir_desc": "To St. Johns", "type": "BUS", "stop_seq": 5850, "stop_id": 3478, "stop_name": "N Lombard & Chautauqua", "jurisdic": "Portland", "zipcode": "97217", "frequent": "True" }, "geometry": { "type": "Point", "coordinates": [ -122.707801083035406, 45.577213762486323 ] } },
{ "type": "Feature", "properties": { "rte": 75, "dir": 0, "rte_desc": "75-Cesar Chavez\/Lombard", "dir_desc": "To St. Johns", "type": "BUS", "stop_seq": 100, "stop_id": 2569, "stop_name": "SE Harrison & 24th", "jurisdic": "Milwaukie", "zipcode": "97222", "frequent": "True" }, "geometry": { "type": "Point", "coordinates": [ -122.637920918727559, 45.446356275382449 ] } },
{ "type": "Feature", "properties": { "rte": 75, "dir": 0, "rte_desc": "75-Cesar Chavez\/Lombard", "dir_desc": "To St. Johns", "type": "BUS", "stop_seq": 6700, "stop_id": 3555, "stop_name": "N Lombard & Tyler", "jurisdic": "Portland", "zipcode": "97203", "frequent": "True" }, "geometry": { "type": "Point", "coordinates": [ -122.74653357380906, 45.588933569746956 ] } },
{ "type": "Feature", "properties": { "rte": 75, "dir": 0, "rte_desc": "75-Cesar Chavez\/Lombard", "dir_desc": "To St. Johns", "type": "BUS", "stop_seq": 550, "stop_id": 7346, "stop_name": "SE 32nd & Malcolm", "jurisdic": "Milwaukie", "zipcode": "97222", "frequent": "True" }, "geometry": { "type": "Point", "coordinates": [ -122.62987444966474, 45.456146696715592 ] } },
{ "type": "Feature", "properties": { "rte": 75, "dir": 0, "rte_desc": "75-Cesar Chavez\/Lombard", "dir_desc": "To St. Johns", "type": "BUS", "stop_seq": 650, "stop_id": 7359, "stop_name": "SE 32nd & Van Water", "jurisdic": "Milwaukie", "zipcode": "97222", "frequent": "True" }, "geometry": { "type": "Point", "coordinates": [ -122.629864858940294, 45.460535068777197 ] } },
{ "type": "Feature", "properties": { "rte": 75, "dir": 0, "rte_desc": "75-Cesar Chavez\/Lombard", "dir_desc": "To St. Johns", "type": "BUS", "stop_seq": 750, "stop_id": 3083, "stop_name": "SE Johnson Creek & 36th", "jurisdic": "Portland", "zipcode": "97222", "frequent": "True" }, "geometry": { "type": "Point", "coordinates": [ -122.626379255719712, 45.462184749681441 ] } },
{ "type": "Feature", "properties": { "rte": 75, "dir": 0, "rte_desc": "75-Cesar Chavez\/Lombard", "dir_desc": "To St. Johns", "type": "BUS", "stop_seq": 25, "stop_id": 13482, "stop_name": "SE 21st & Jackson", "jurisdic": "Milwaukie", "zipcode": "97222", "frequent": "True" }, "geometry": { "type": "Point", "coordinates": [ -122.640508461291645, 45.445098272452498 ] } },
{ "type": "Feature", "properties": { "rte": 75, "dir": 0, "rte_desc": "75-Cesar Chavez\/Lombard", "dir_desc": "To St. Johns", "type": "BUS", "stop_seq": 7090, "stop_id": 9576, "stop_name": "N Lombard & Reno", "jurisdic": "Portland", "zipcode": "97203", "frequent": "True" }, "geometry": { "type": "Point", "coordinates": [ -122.761109340239074, 45.597983970980245 ] } },
{ "type": "Feature", "properties": { "rte": 75, "dir": 0, "rte_desc": "75-Cesar Chavez\/Lombard", "dir_desc": "To St. Johns", "type": "BUS", "stop_seq": 6550, "stop_id": 3504, "stop_name": "N Lombard & Ida", "jurisdic": "Portland", "zipcode": "97203", "frequent": "True" }, "geometry": { "type": "Point", "coordinates": [ -122.738297172500282, 45.587004276256785 ] } },
{ "type": "Feature", "properties": { "rte": 75, "dir": 0, "rte_desc": "75-Cesar Chavez\/Lombard", "dir_desc": "To St. Johns", "type": "BUS", "stop_seq": 3200, "stop_id": 7507, "stop_name": "NE 42nd & Brazee", "jurisdic": "Portland", "zipcode": "97213", "frequent": "True" }, "geometry": { "type": "Point", "coordinates": [ -122.619859719688989, 45.540489019920933 ] } },
{ "type": "Feature", "properties": { "rte": 75, "dir": 0, "rte_desc": "75-Cesar Chavez\/Lombard", "dir_desc": "To St. Johns", "type": "BUS", "stop_seq": 1500, "stop_id": 6414, "stop_name": "SE Woodstock & 43rd", "jurisdic": "Portland", "zipcode": "97206", "frequent": "True" }, "geometry": { "type": "Point", "coordinates": [ -122.618335202725817, 45.479244526321409 ] } },
{ "type": "Feature", "properties": { "rte": 75, "dir": 0, "rte_desc": "75-Cesar Chavez\/Lombard", "dir_desc": "To St. Johns", "type": "BUS", "stop_seq": 3550, "stop_id": 7529, "stop_name": "NE 42nd & Shaver", "jurisdic": "Portland", "zipcode": "97213", "frequent": "True" }, "geometry": { "type": "Point", "coordinates": [ -122.620265031349007, 45.55175713553205 ] } },
{ "type": "Feature", "properties": { "rte": 75, "dir": 0, "rte_desc": "75-Cesar Chavez\/Lombard", "dir_desc": "To St. Johns", "type": "BUS", "stop_seq": 2750, "stop_id": 7440, "stop_name": "SE Cesar Chavez Blvd & E Burnside", "jurisdic": "Portland", "zipcode": "97214", "frequent": "True" }, "geometry": { "type": "Point", "coordinates": [ -122.62293117124247, 45.52334620103673 ] } },
{ "type": "Feature", "properties": { "rte": 75, "dir": 0, "rte_desc": "75-Cesar Chavez\/Lombard", "dir_desc": "To St. Johns", "type": "BUS", "stop_seq": 2950, "stop_id": 7475, "stop_name": "NE Cesar Chavez Blvd & Multnomah", "jurisdic": "Portland", "zipcode": "97232", "frequent": "True" }, "geometry": { "type": "Point", "coordinates": [ -122.622879545672617, 45.531405767381855 ] } },
{ "type": "Feature", "properties": { "rte": 75, "dir": 0, "rte_desc": "75-Cesar Chavez\/Lombard", "dir_desc": "To St. Johns", "type": "BUS", "stop_seq": 1750, "stop_id": 7487, "stop_name": "SE Cesar Chavez Blvd & Steele", "jurisdic": "Portland", "zipcode": "97202", "frequent": "True" }, "geometry": { "type": "Point", "coordinates": [ -122.622518778120877, 45.484509241887807 ] } },
{ "type": "Feature", "properties": { "rte": 75, "dir": 0, "rte_desc": "75-Cesar Chavez\/Lombard", "dir_desc": "To St. Johns", "type": "BUS", "stop_seq": 2450, "stop_id": 7459, "stop_name": "SE Cesar Chavez Blvd & Hawthorne", "jurisdic": "Portland", "zipcode": "97214", "frequent": "True" }, "geometry": { "type": "Point", "coordinates": [ -122.622672160833005, 45.511762739724517 ] } },
{ "type": "Feature", "properties": { "rte": 75, "dir": 0, "rte_desc": "75-Cesar Chavez\/Lombard", "dir_desc": "To St. Johns", "type": "BUS", "stop_seq": 1150, "stop_id": 7554, "stop_name": "SE 45th & Malden Dr", "jurisdic": "Portland", "zipcode": "97206", "frequent": "True" }, "geometry": { "type": "Point", "coordinates": [ -122.615858431459884, 45.467723406043383 ] } },
{ "type": "Feature", "properties": { "rte": 75, "dir": 0, "rte_desc": "75-Cesar Chavez\/Lombard", "dir_desc": "To St. Johns", "type": "BUS", "stop_seq": 2550, "stop_id": 7437, "stop_name": "SE Cesar Chavez Blvd & Belmont", "jurisdic": "Portland", "zipcode": "97214", "frequent": "True" }, "geometry": { "type": "Point", "coordinates": [ -122.622817240174513, 45.516331263985045 ] } },
{ "type": "Feature", "properties": { "rte": 75, "dir": 0, "rte_desc": "75-Cesar Chavez\/Lombard", "dir_desc": "To St. Johns", "type": "BUS", "stop_seq": 2100, "stop_id": 7464, "stop_name": "SE Cesar Chavez Blvd & Kelly", "jurisdic": "Portland", "zipcode": "97202", "frequent": "True" }, "geometry": { "type": "Point", "coordinates": [ -122.622552219093905, 45.499717297556224 ] } },
{ "type": "Feature", "properties": { "rte": 75, "dir": 0, "rte_desc": "75-Cesar Chavez\/Lombard", "dir_desc": "To St. Johns", "type": "BUS", "stop_seq": 1900, "stop_id": 7474, "stop_name": "SE Cesar Chavez Blvd & Mall", "jurisdic": "Portland", "zipcode": "97202", "frequent": "True" }, "geometry": { "type": "Point", "coordinates": [ -122.622551313126792, 45.490910646955541 ] } },
{ "type": "Feature", "properties": { "rte": 75, "dir": 0, "rte_desc": "75-Cesar Chavez\/Lombard", "dir_desc": "To St. Johns", "type": "BUS", "stop_seq": 2650, "stop_id": 7485, "stop_name": "SE Cesar Chavez Blvd & Stark", "jurisdic": "Portland", "zipcode": "97214", "frequent": "True" }, "geometry": { "type": "Point", "coordinates": [ -122.622898633793753, 45.519194831083816 ] } },
{ "type": "Feature", "properties": { "rte": 75, "dir": 0, "rte_desc": "75-Cesar Chavez\/Lombard", "dir_desc": "To St. Johns", "type": "BUS", "stop_seq": 4050, "stop_id": 13472, "stop_name": "NE Columbia Blvd & 47th", "jurisdic": "Portland", "zipcode": "97218", "frequent": "True" }, "geometry": { "type": "Point", "coordinates": [ -122.614741647729758, 45.570829141535455 ] } },
{ "type": "Feature", "properties": { "rte": 75, "dir": 0, "rte_desc": "75-Cesar Chavez\/Lombard", "dir_desc": "To St. Johns", "type": "BUS", "stop_seq": 4300, "stop_id": 1287, "stop_name": "NE Dekum & 29th", "jurisdic": "Portland", "zipcode": "97211", "frequent": "True" }, "geometry": { "type": "Point", "coordinates": [ -122.635853144419713, 45.571940489071409 ] } },
{ "type": "Feature", "properties": { "rte": 75, "dir": 0, "rte_desc": "75-Cesar Chavez\/Lombard", "dir_desc": "To St. Johns", "type": "BUS", "stop_seq": 6650, "stop_id": 3462, "stop_name": "N Lombard & Buchanan", "jurisdic": "Portland", "zipcode": "97203", "frequent": "True" }, "geometry": { "type": "Point", "coordinates": [ -122.744008147995785, 45.588334465790503 ] } },
{ "type": "Feature", "properties": { "rte": 75, "dir": 0, "rte_desc": "75-Cesar Chavez\/Lombard", "dir_desc": "To St. Johns", "type": "BUS", "stop_seq": 5950, "stop_id": 3487, "stop_name": "N Lombard & Dwight", "jurisdic": "Portland", "zipcode": "97203", "frequent": "True" }, "geometry": { "type": "Point", "coordinates": [ -122.714247990790582, 45.578963102592368 ] } },
{ "type": "Feature", "properties": { "rte": 75, "dir": 0, "rte_desc": "75-Cesar Chavez\/Lombard", "dir_desc": "To St. Johns", "type": "BUS", "stop_seq": 4100, "stop_id": 1116, "stop_name": "NE Columbia Blvd & 42nd", "jurisdic": "Portland", "zipcode": "97211", "frequent": "True" }, "geometry": { "type": "Point", "coordinates": [ -122.620817111550863, 45.571912468653807 ] } },
{ "type": "Feature", "properties": { "rte": 75, "dir": 0, "rte_desc": "75-Cesar Chavez\/Lombard", "dir_desc": "To St. Johns", "type": "BUS", "stop_seq": 500, "stop_id": 7350, "stop_name": "SE 32nd & Olsen", "jurisdic": "Milwaukie", "zipcode": "97222", "frequent": "True" }, "geometry": { "type": "Point", "coordinates": [ -122.629847013118365, 45.454806695831927 ] } },
{ "type": "Feature", "properties": { "rte": 75, "dir": 0, "rte_desc": "75-Cesar Chavez\/Lombard", "dir_desc": "To St. Johns", "type": "BUS", "stop_seq": 2900, "stop_id": 7461, "stop_name": "NE Cesar Chavez Blvd & Hazelfern", "jurisdic": "Portland", "zipcode": "97232", "frequent": "True" }, "geometry": { "type": "Point", "coordinates": [ -122.622891123789742, 45.529874326279653 ] } },
{ "type": "Feature", "properties": { "rte": 75, "dir": 0, "rte_desc": "75-Cesar Chavez\/Lombard", "dir_desc": "To St. Johns", "type": "BUS", "stop_seq": 2525, "stop_id": 7491, "stop_name": "SE Cesar Chavez Blvd & Taylor", "jurisdic": "Portland", "zipcode": "97214", "frequent": "True" }, "geometry": { "type": "Point", "coordinates": [ -122.622829869115947, 45.515216289781485 ] } },
{ "type": "Feature", "properties": { "rte": 75, "dir": 0, "rte_desc": "75-Cesar Chavez\/Lombard", "dir_desc": "To St. Johns", "type": "BUS", "stop_seq": 6750, "stop_id": 3534, "stop_name": "N Lombard & Oswego", "jurisdic": "Portland", "zipcode": "97203", "frequent": "True" }, "geometry": { "type": "Point", "coordinates": [ -122.74893435949555, 45.589511593712423 ] } },
{ "type": "Feature", "properties": { "rte": 75, "dir": 0, "rte_desc": "75-Cesar Chavez\/Lombard", "dir_desc": "To St. Johns", "type": "BUS", "stop_seq": 5150, "stop_id": 3512, "stop_name": "N Lombard & Commercial", "jurisdic": "Portland", "zipcode": "97217", "frequent": "True" }, "geometry": { "type": "Point", "coordinates": [ -122.670653271759804, 45.577313788707038 ] } },
{ "type": "Feature", "properties": { "rte": 75, "dir": 0, "rte_desc": "75-Cesar Chavez\/Lombard", "dir_desc": "To St. Johns", "type": "BUS", "stop_seq": 6800, "stop_id": 3544, "stop_name": "N Lombard & Richmond", "jurisdic": "Portland", "zipcode": "97203", "frequent": "True" }, "geometry": { "type": "Point", "coordinates": [ -122.75114707769373, 45.589295209545973 ] } },
{ "type": "Feature", "properties": { "rte": 75, "dir": 0, "rte_desc": "75-Cesar Chavez\/Lombard", "dir_desc": "To St. Johns", "type": "BUS", "stop_seq": 200, "stop_id": 2568, "stop_name": "SE Harrison & Hwy 224", "jurisdic": "Milwaukie", "zipcode": "97222", "frequent": "True" }, "geometry": { "type": "Point", "coordinates": [ -122.632656330249247, 45.446458861835232 ] } },
{ "type": "Feature", "properties": { "rte": 75, "dir": 0, "rte_desc": "75-Cesar Chavez\/Lombard", "dir_desc": "To St. Johns", "type": "BUS", "stop_seq": 6350, "stop_id": 3569, "stop_name": "N Lombard & Wall", "jurisdic": "Portland", "zipcode": "97203", "frequent": "True" }, "geometry": { "type": "Point", "coordinates": [ -122.729487614420322, 45.584570981542527 ] } },
{ "type": "Feature", "properties": { "rte": 75, "dir": 0, "rte_desc": "75-Cesar Chavez\/Lombard", "dir_desc": "To St. Johns", "type": "BUS", "stop_seq": 50, "stop_id": 8223, "stop_name": "SE Jackson & Main St", "jurisdic": "Milwaukie", "zipcode": "97222", "frequent": "True" }, "geometry": { "type": "Point", "coordinates": [ -122.641269357666502, 45.444895872102869 ] } },
{ "type": "Feature", "properties": { "rte": 75, "dir": 0, "rte_desc": "75-Cesar Chavez\/Lombard", "dir_desc": "To St. Johns", "type": "BUS", "stop_seq": 5500, "stop_id": 3530, "stop_name": "N Lombard & Omaha", "jurisdic": "Portland", "zipcode": "97217", "frequent": "True" }, "geometry": { "type": "Point", "coordinates": [ -122.689979202590308, 45.577206078874973 ] } },
{ "type": "Feature", "properties": { "rte": 75, "dir": 0, "rte_desc": "75-Cesar Chavez\/Lombard", "dir_desc": "To St. Johns", "type": "BUS", "stop_seq": 2000, "stop_id": 7467, "stop_name": "SE Cesar Chavez Blvd & Lafayette", "jurisdic": "Portland", "zipcode": "97202", "frequent": "True" }, "geometry": { "type": "Point", "coordinates": [ -122.622547948219292, 45.496205279758641 ] } },
{ "type": "Feature", "properties": { "rte": 75, "dir": 0, "rte_desc": "75-Cesar Chavez\/Lombard", "dir_desc": "To St. Johns", "type": "BUS", "stop_seq": 400, "stop_id": 7341, "stop_name": "SE 32nd & Harvey", "jurisdic": "Milwaukie", "zipcode": "97222", "frequent": "True" }, "geometry": { "type": "Point", "coordinates": [ -122.629752113682855, 45.451293813175994 ] } }
]
}
