{
"type": "FeatureCollection",
"crs": { "type": "name", "properties": { "name": "urn:ogc:def:crs:OGC:1.3:CRS84" } },
                                                                                
"features": [
{ "type": "Feature", "properties": { "rte": 76, "dir": 0, "rte_desc": "76-Beaverton\/Tualatin", "dir_desc": "To Tualatin", "type": "BUS", "stop_seq": 4, "stop_id": 6178, "stop_name": "SW Watson & 1st", "jurisdic": "Beaverton", "zipcode": "97005", "frequent": "False" }, "geometry": { "type": "Point", "coordinates": [ -122.806309607602657, 45.486075047362995 ] } },
{ "type": "Feature", "properties": { "rte": 76, "dir": 0, "rte_desc": "76-Beaverton\/Tualatin", "dir_desc": "To Tualatin", "type": "BUS", "stop_seq": 950, "stop_id": 558, "stop_name": "18000 Block SW Lower Boones Ferry", "jurisdic": "Tualatin", "zipcode": "97224", "frequent": "False" }, "geometry": { "type": "Point", "coordinates": [ -122.751993325654965, 45.390984200353969 ] } },
{ "type": "Feature", "properties": { "rte": 76, "dir": 0, "rte_desc": "76-Beaverton\/Tualatin", "dir_desc": "To Tualatin", "type": "BUS", "stop_seq": 150, "stop_id": 1123, "stop_name": "SW Commercial & Hall", "jurisdic": "Tigard", "zipcode": "97223", "frequent": "False" }, "geometry": { "type": "Point", "coordinates": [ -122.766604576136103, 45.428570503316152 ] } },
{ "type": "Feature", "properties": { "rte": 76, "dir": 0, "rte_desc": "76-Beaverton\/Tualatin", "dir_desc": "To Tualatin", "type": "BUS", "stop_seq": 28, "stop_id": 2231, "stop_name": "SW Greenburg & Cascade", "jurisdic": "Tigard", "zipcode": "97223", "frequent": "False" }, "geometry": { "type": "Point", "coordinates": [ -122.779425356941886, 45.44132680630419 ] } },
{ "type": "Feature", "properties": { "rte": 76, "dir": 0, "rte_desc": "76-Beaverton\/Tualatin", "dir_desc": "To Tualatin", "type": "BUS", "stop_seq": 32, "stop_id": 2237, "stop_name": "SW Greenburg & 92nd", "jurisdic": "Tigard", "zipcode": "97223", "frequent": "False" }, "geometry": { "type": "Point", "coordinates": [ -122.772130278427682, 45.436009584598381 ] } },
{ "type": "Feature", "properties": { "rte": 76, "dir": 0, "rte_desc": "76-Beaverton\/Tualatin", "dir_desc": "To Tualatin", "type": "BUS", "stop_seq": 33, "stop_id": 2240, "stop_name": "SW Greenburg & Lincoln", "jurisdic": "Tigard", "zipcode": "97223", "frequent": "False" }, "geometry": { "type": "Point", "coordinates": [ -122.770357440574358, 45.435120836816552 ] } },
{ "type": "Feature", "properties": { "rte": 76, "dir": 0, "rte_desc": "76-Beaverton\/Tualatin", "dir_desc": "To Tualatin", "type": "BUS", "stop_seq": 31, "stop_id": 2243, "stop_name": "SW Greenburg & 95th", "jurisdic": "Tigard", "zipcode": "97223", "frequent": "False" }, "geometry": { "type": "Point", "coordinates": [ -122.774221318966042, 45.436728035261424 ] } },
{ "type": "Feature", "properties": { "rte": 76, "dir": 0, "rte_desc": "76-Beaverton\/Tualatin", "dir_desc": "To Tualatin", "type": "BUS", "stop_seq": 30, "stop_id": 2246, "stop_name": "SW Greenburg & 98th", "jurisdic": "Tigard", "zipcode": "97223", "frequent": "False" }, "geometry": { "type": "Point", "coordinates": [ -122.777618263003788, 45.437359212575274 ] } },
{ "type": "Feature", "properties": { "rte": 76, "dir": 0, "rte_desc": "76-Beaverton\/Tualatin", "dir_desc": "To Tualatin", "type": "BUS", "stop_seq": 16, "stop_id": 2263, "stop_name": "7800 Block SW Hall", "jurisdic": "Beaverton", "zipcode": "97008", "frequent": "False" }, "geometry": { "type": "Point", "coordinates": [ -122.801281687029189, 45.463059517069247 ] } },
{ "type": "Feature", "properties": { "rte": 76, "dir": 0, "rte_desc": "76-Beaverton\/Tualatin", "dir_desc": "To Tualatin", "type": "BUS", "stop_seq": 10, "stop_id": 2266, "stop_name": "SW Hall & Allen", "jurisdic": "Beaverton", "zipcode": "97008", "frequent": "False" }, "geometry": { "type": "Point", "coordinates": [ -122.805580896988147, 45.475507855666535 ] } },
{ "type": "Feature", "properties": { "rte": 76, "dir": 0, "rte_desc": "76-Beaverton\/Tualatin", "dir_desc": "To Tualatin", "type": "BUS", "stop_seq": 35, "stop_id": 3673, "stop_name": "SW Main & Scoffins", "jurisdic": "Tigard", "zipcode": "97223", "frequent": "False" }, "geometry": { "type": "Point", "coordinates": [ -122.768226897827361, 45.43256910232386 ] } },
{ "type": "Feature", "properties": { "rte": 76, "dir": 0, "rte_desc": "76-Beaverton\/Tualatin", "dir_desc": "To Tualatin", "type": "BUS", "stop_seq": 21, "stop_id": 2272, "stop_name": "SW Hall & Cascade", "jurisdic": "Beaverton", "zipcode": "97008", "frequent": "False" }, "geometry": { "type": "Point", "coordinates": [ -122.787425223141526, 45.458776803424826 ] } },
{ "type": "Feature", "properties": { "rte": 76, "dir": 0, "rte_desc": "76-Beaverton\/Tualatin", "dir_desc": "To Tualatin", "type": "BUS", "stop_seq": 15, "stop_id": 2280, "stop_name": "SW Hall & Green Lane", "jurisdic": "Beaverton", "zipcode": "97008", "frequent": "False" }, "geometry": { "type": "Point", "coordinates": [ -122.803479188816482, 45.464190166922315 ] } },
{ "type": "Feature", "properties": { "rte": 76, "dir": 0, "rte_desc": "76-Beaverton\/Tualatin", "dir_desc": "To Tualatin", "type": "BUS", "stop_seq": 18, "stop_id": 2283, "stop_name": "SW Hall & Greenway", "jurisdic": "Beaverton", "zipcode": "97008", "frequent": "False" }, "geometry": { "type": "Point", "coordinates": [ -122.796420667546954, 45.461255570262701 ] } },
{ "type": "Feature", "properties": { "rte": 76, "dir": 0, "rte_desc": "76-Beaverton\/Tualatin", "dir_desc": "To Tualatin", "type": "BUS", "stop_seq": 14, "stop_id": 2286, "stop_name": "SW Hall & Hart", "jurisdic": "Beaverton", "zipcode": "97008", "frequent": "False" }, "geometry": { "type": "Point", "coordinates": [ -122.80391040924485, 45.466542174663338 ] } },
{ "type": "Feature", "properties": { "rte": 76, "dir": 0, "rte_desc": "76-Beaverton\/Tualatin", "dir_desc": "To Tualatin", "type": "BUS", "stop_seq": 20, "stop_id": 2290, "stop_name": "SW Hall & Nimbus", "jurisdic": "Beaverton", "zipcode": "97008", "frequent": "False" }, "geometry": { "type": "Point", "coordinates": [ -122.789170519813439, 45.459152620271901 ] } },
{ "type": "Feature", "properties": { "rte": 76, "dir": 0, "rte_desc": "76-Beaverton\/Tualatin", "dir_desc": "To Tualatin", "type": "BUS", "stop_seq": 17, "stop_id": 2292, "stop_name": "SW Hall & Ridgecrest", "jurisdic": "Beaverton", "zipcode": "97008", "frequent": "False" }, "geometry": { "type": "Point", "coordinates": [ -122.798519154610545, 45.461866325399562 ] } },
{ "type": "Feature", "properties": { "rte": 76, "dir": 0, "rte_desc": "76-Beaverton\/Tualatin", "dir_desc": "To Tualatin", "type": "BUS", "stop_seq": 9, "stop_id": 2301, "stop_name": "SW Hall & 13th", "jurisdic": "Beaverton", "zipcode": "97005", "frequent": "False" }, "geometry": { "type": "Point", "coordinates": [ -122.8057911138755, 45.477878164095443 ] } },
{ "type": "Feature", "properties": { "rte": 76, "dir": 0, "rte_desc": "76-Beaverton\/Tualatin", "dir_desc": "To Tualatin", "type": "BUS", "stop_seq": 12, "stop_id": 2303, "stop_name": "SW Hall & 22nd", "jurisdic": "Beaverton", "zipcode": "97008", "frequent": "False" }, "geometry": { "type": "Point", "coordinates": [ -122.805287838567295, 45.471981178053262 ] } },
{ "type": "Feature", "properties": { "rte": 76, "dir": 0, "rte_desc": "76-Beaverton\/Tualatin", "dir_desc": "To Tualatin", "type": "BUS", "stop_seq": 25, "stop_id": 13588, "stop_name": "SW Summit Dr & Greenburg", "jurisdic": "Tigard", "zipcode": "97223", "frequent": "False" }, "geometry": { "type": "Point", "coordinates": [ -122.775424074778087, 45.451343310426253 ] } },
{ "type": "Feature", "properties": { "rte": 76, "dir": 0, "rte_desc": "76-Beaverton\/Tualatin", "dir_desc": "To Tualatin", "type": "BUS", "stop_seq": 1700, "stop_id": 3868, "stop_name": "Meridian Park Hospital Main Stop", "jurisdic": "Tualatin", "zipcode": "97062", "frequent": "False" }, "geometry": { "type": "Point", "coordinates": [ -122.742353230848153, 45.377921855531838 ] } },
{ "type": "Feature", "properties": { "rte": 76, "dir": 0, "rte_desc": "76-Beaverton\/Tualatin", "dir_desc": "To Tualatin", "type": "BUS", "stop_seq": 1000, "stop_id": 514, "stop_name": "SW Lower Boones Ferry & Childs Rd", "jurisdic": "Tualatin", "zipcode": "97224", "frequent": "False" }, "geometry": { "type": "Point", "coordinates": [ -122.753345196919526, 45.39007791960492 ] } },
{ "type": "Feature", "properties": { "rte": 76, "dir": 0, "rte_desc": "76-Beaverton\/Tualatin", "dir_desc": "To Tualatin", "type": "BUS", "stop_seq": 1450, "stop_id": 4999, "stop_name": "7800 Block SW Sagert", "jurisdic": "Tualatin", "zipcode": "97062", "frequent": "False" }, "geometry": { "type": "Point", "coordinates": [ -122.758147203348528, 45.375327657554394 ] } },
{ "type": "Feature", "properties": { "rte": 76, "dir": 0, "rte_desc": "76-Beaverton\/Tualatin", "dir_desc": "To Tualatin", "type": "BUS", "stop_seq": 1550, "stop_id": 5001, "stop_name": "SW Sagert & Wampanoag", "jurisdic": "Tualatin", "zipcode": "97062", "frequent": "False" }, "geometry": { "type": "Point", "coordinates": [ -122.745489780829985, 45.375417029563359 ] } },
{ "type": "Feature", "properties": { "rte": 76, "dir": 0, "rte_desc": "76-Beaverton\/Tualatin", "dir_desc": "To Tualatin", "type": "BUS", "stop_seq": 1525, "stop_id": 5002, "stop_name": "SW Sagert & 70th", "jurisdic": "Tualatin", "zipcode": "97062", "frequent": "False" }, "geometry": { "type": "Point", "coordinates": [ -122.748464907934959, 45.375369260507355 ] } },
{ "type": "Feature", "properties": { "rte": 76, "dir": 0, "rte_desc": "76-Beaverton\/Tualatin", "dir_desc": "To Tualatin", "type": "BUS", "stop_seq": 23, "stop_id": 6125, "stop_name": "SW Eliander & One Embassy Centre", "jurisdic": "Tigard", "zipcode": "97223", "frequent": "False" }, "geometry": { "type": "Point", "coordinates": [ -122.78049488341172, 45.455093385161582 ] } },
{ "type": "Feature", "properties": { "rte": 76, "dir": 0, "rte_desc": "76-Beaverton\/Tualatin", "dir_desc": "To Tualatin", "type": "BUS", "stop_seq": 775, "stop_id": 9257, "stop_name": "7200 Block SW Durham", "jurisdic": "Tigard", "zipcode": "97224", "frequent": "False" }, "geometry": { "type": "Point", "coordinates": [ -122.751377154211681, 45.400465175588913 ] } },
{ "type": "Feature", "properties": { "rte": 76, "dir": 0, "rte_desc": "76-Beaverton\/Tualatin", "dir_desc": "To Tualatin", "type": "BUS", "stop_seq": 3, "stop_id": 8262, "stop_name": "SW Watson & Broadway", "jurisdic": "Beaverton", "zipcode": "97005", "frequent": "False" }, "geometry": { "type": "Point", "coordinates": [ -122.80636753678354, 45.487563149615163 ] } },
{ "type": "Feature", "properties": { "rte": 76, "dir": 0, "rte_desc": "76-Beaverton\/Tualatin", "dir_desc": "To Tualatin", "type": "BUS", "stop_seq": 1600, "stop_id": 7839, "stop_name": "SW 65th & Borland", "jurisdic": "Tualatin", "zipcode": "97062", "frequent": "False" }, "geometry": { "type": "Point", "coordinates": [ -122.743804458344613, 45.376226056375593 ] } },
{ "type": "Feature", "properties": { "rte": 76, "dir": 0, "rte_desc": "76-Beaverton\/Tualatin", "dir_desc": "To Tualatin", "type": "BUS", "stop_seq": 26, "stop_id": 8832, "stop_name": "SW Greenburg & Lehman", "jurisdic": "Tigard", "zipcode": "97223", "frequent": "False" }, "geometry": { "type": "Point", "coordinates": [ -122.775277109106426, 45.44912682626245 ] } },
{ "type": "Feature", "properties": { "rte": 76, "dir": 0, "rte_desc": "76-Beaverton\/Tualatin", "dir_desc": "To Tualatin", "type": "BUS", "stop_seq": 13, "stop_id": 2279, "stop_name": "SW Hall & Denney", "jurisdic": "Beaverton", "zipcode": "97008", "frequent": "False" }, "geometry": { "type": "Point", "coordinates": [ -122.804150309167511, 45.46880865751119 ] } },
{ "type": "Feature", "properties": { "rte": 76, "dir": 0, "rte_desc": "76-Beaverton\/Tualatin", "dir_desc": "To Tualatin", "type": "BUS", "stop_seq": 900, "stop_id": 7880, "stop_name": "Tualatin Park & Ride", "jurisdic": "Tualatin", "zipcode": "97224", "frequent": "False" }, "geometry": { "type": "Point", "coordinates": [ -122.74875930512178, 45.394767102352034 ] } },
{ "type": "Feature", "properties": { "rte": 76, "dir": 0, "rte_desc": "76-Beaverton\/Tualatin", "dir_desc": "To Tualatin", "type": "BUS", "stop_seq": 250, "stop_id": 9065, "stop_name": "SW Hall & Tigard City Hall", "jurisdic": "Tigard", "zipcode": "97223", "frequent": "False" }, "geometry": { "type": "Point", "coordinates": [ -122.765879960866769, 45.425085643296228 ] } },
{ "type": "Feature", "properties": { "rte": 76, "dir": 0, "rte_desc": "76-Beaverton\/Tualatin", "dir_desc": "To Tualatin", "type": "BUS", "stop_seq": 350, "stop_id": 9067, "stop_name": "SW Hall & Fanno Creek Ct", "jurisdic": "Tigard", "zipcode": "97224", "frequent": "False" }, "geometry": { "type": "Point", "coordinates": [ -122.765322852393865, 45.417427609445504 ] } },
{ "type": "Feature", "properties": { "rte": 76, "dir": 0, "rte_desc": "76-Beaverton\/Tualatin", "dir_desc": "To Tualatin", "type": "BUS", "stop_seq": 450, "stop_id": 9069, "stop_name": "SW Hall & Murdock", "jurisdic": "Tigard", "zipcode": "97224", "frequent": "False" }, "geometry": { "type": "Point", "coordinates": [ -122.764529581820099, 45.412671005996501 ] } },
{ "type": "Feature", "properties": { "rte": 76, "dir": 0, "rte_desc": "76-Beaverton\/Tualatin", "dir_desc": "To Tualatin", "type": "BUS", "stop_seq": 600, "stop_id": 9072, "stop_name": "8300 Block SW Durham", "jurisdic": "Tigard", "zipcode": "97224", "frequent": "False" }, "geometry": { "type": "Point", "coordinates": [ -122.762627660166814, 45.404212481113696 ] } },
{ "type": "Feature", "properties": { "rte": 76, "dir": 0, "rte_desc": "76-Beaverton\/Tualatin", "dir_desc": "To Tualatin", "type": "BUS", "stop_seq": 650, "stop_id": 9073, "stop_name": "SW Durham & 76th", "jurisdic": "Tigard", "zipcode": "97224", "frequent": "False" }, "geometry": { "type": "Point", "coordinates": [ -122.755946451524565, 45.403638447246131 ] } },
{ "type": "Feature", "properties": { "rte": 76, "dir": 0, "rte_desc": "76-Beaverton\/Tualatin", "dir_desc": "To Tualatin", "type": "BUS", "stop_seq": 525, "stop_id": 9074, "stop_name": "SW Hall & Ashford", "jurisdic": "Tigard", "zipcode": "97224", "frequent": "False" }, "geometry": { "type": "Point", "coordinates": [ -122.76460509905418, 45.408065568268739 ] } },
{ "type": "Feature", "properties": { "rte": 76, "dir": 0, "rte_desc": "76-Beaverton\/Tualatin", "dir_desc": "To Tualatin", "type": "BUS", "stop_seq": 24, "stop_id": 9653, "stop_name": "Washington Square Transit Center", "jurisdic": "Tigard", "zipcode": "97223", "frequent": "False" }, "geometry": { "type": "Point", "coordinates": [ -122.778791677724925, 45.452603230475205 ] } },
{ "type": "Feature", "properties": { "rte": 76, "dir": 0, "rte_desc": "76-Beaverton\/Tualatin", "dir_desc": "To Tualatin", "type": "BUS", "stop_seq": 7, "stop_id": 6182, "stop_name": "SW Watson & 9th", "jurisdic": "Beaverton", "zipcode": "97005", "frequent": "False" }, "geometry": { "type": "Point", "coordinates": [ -122.80680514142108, 45.481149823842692 ] } },
{ "type": "Feature", "properties": { "rte": 76, "dir": 0, "rte_desc": "76-Beaverton\/Tualatin", "dir_desc": "To Tualatin", "type": "BUS", "stop_seq": 400, "stop_id": 9068, "stop_name": "SW Hall & Bonita", "jurisdic": "Tigard", "zipcode": "97224", "frequent": "False" }, "geometry": { "type": "Point", "coordinates": [ -122.764588959846236, 45.415128262808636 ] } },
{ "type": "Feature", "properties": { "rte": 76, "dir": 0, "rte_desc": "76-Beaverton\/Tualatin", "dir_desc": "To Tualatin", "type": "BUS", "stop_seq": 8, "stop_id": 6179, "stop_name": "SW Watson & 10th", "jurisdic": "Beaverton", "zipcode": "97005", "frequent": "False" }, "geometry": { "type": "Point", "coordinates": [ -122.806188957238675, 45.479697283177607 ] } },
{ "type": "Feature", "properties": { "rte": 76, "dir": 0, "rte_desc": "76-Beaverton\/Tualatin", "dir_desc": "To Tualatin", "type": "BUS", "stop_seq": 1050, "stop_id": 571, "stop_name": "SW Lower Boones Ferry & Boones Ferry", "jurisdic": "Durham", "zipcode": "97224", "frequent": "False" }, "geometry": { "type": "Point", "coordinates": [ -122.755456617847699, 45.389313514371331 ] } },
{ "type": "Feature", "properties": { "rte": 76, "dir": 0, "rte_desc": "76-Beaverton\/Tualatin", "dir_desc": "To Tualatin", "type": "BUS", "stop_seq": 50, "stop_id": 8212, "stop_name": "Tigard Transit Center", "jurisdic": "Tigard", "zipcode": "97223", "frequent": "False" }, "geometry": { "type": "Point", "coordinates": [ -122.769277527946585, 45.430462189729482 ] } },
{ "type": "Feature", "properties": { "rte": 76, "dir": 0, "rte_desc": "76-Beaverton\/Tualatin", "dir_desc": "To Tualatin", "type": "BUS", "stop_seq": 770, "stop_id": 9076, "stop_name": "SW Durham & Upper Boones Ferry", "jurisdic": "Tigard", "zipcode": "97224", "frequent": "False" }, "geometry": { "type": "Point", "coordinates": [ -122.752064873450323, 45.401699985389492 ] } },
{ "type": "Feature", "properties": { "rte": 76, "dir": 0, "rte_desc": "76-Beaverton\/Tualatin", "dir_desc": "To Tualatin", "type": "BUS", "stop_seq": 625, "stop_id": 9224, "stop_name": "SW Durham & 79th", "jurisdic": "Tigard", "zipcode": "97224", "frequent": "False" }, "geometry": { "type": "Point", "coordinates": [ -122.757820866626318, 45.404199446755868 ] } },
{ "type": "Feature", "properties": { "rte": 76, "dir": 0, "rte_desc": "76-Beaverton\/Tualatin", "dir_desc": "To Tualatin", "type": "BUS", "stop_seq": 1500, "stop_id": 5003, "stop_name": "SW Sagert & 72nd", "jurisdic": "Tualatin", "zipcode": "97062", "frequent": "False" }, "geometry": { "type": "Point", "coordinates": [ -122.751518308927601, 45.37534296899139 ] } },
{ "type": "Feature", "properties": { "rte": 76, "dir": 0, "rte_desc": "76-Beaverton\/Tualatin", "dir_desc": "To Tualatin", "type": "BUS", "stop_seq": 500, "stop_id": 9070, "stop_name": "SW Hall & Sattler", "jurisdic": "Tigard", "zipcode": "97224", "frequent": "False" }, "geometry": { "type": "Point", "coordinates": [ -122.764589640545111, 45.409967665530417 ] } },
{ "type": "Feature", "properties": { "rte": 76, "dir": 0, "rte_desc": "76-Beaverton\/Tualatin", "dir_desc": "To Tualatin", "type": "BUS", "stop_seq": 300, "stop_id": 12468, "stop_name": "SW Hall & Wall", "jurisdic": "Tigard", "zipcode": "97223", "frequent": "False" }, "geometry": { "type": "Point", "coordinates": [ -122.765834426077745, 45.421824084375686 ] } },
{ "type": "Feature", "properties": { "rte": 76, "dir": 0, "rte_desc": "76-Beaverton\/Tualatin", "dir_desc": "To Tualatin", "type": "BUS", "stop_seq": 27, "stop_id": 12404, "stop_name": "SW Greenburg & Washington Square Rd", "jurisdic": "Tigard", "zipcode": "97223", "frequent": "False" }, "geometry": { "type": "Point", "coordinates": [ -122.77652004967031, 45.446077230521745 ] } },
{ "type": "Feature", "properties": { "rte": 76, "dir": 0, "rte_desc": "76-Beaverton\/Tualatin", "dir_desc": "To Tualatin", "type": "BUS", "stop_seq": 1400, "stop_id": 8506, "stop_name": "SW Sagert & Martinazzi", "jurisdic": "Tualatin", "zipcode": "97062", "frequent": "False" }, "geometry": { "type": "Point", "coordinates": [ -122.759974169255301, 45.375319160904574 ] } },
{ "type": "Feature", "properties": { "rte": 76, "dir": 0, "rte_desc": "76-Beaverton\/Tualatin", "dir_desc": "To Tualatin", "type": "BUS", "stop_seq": 29, "stop_id": 2235, "stop_name": "SW Greenburg & North Dakota", "jurisdic": "Tigard", "zipcode": "97223", "frequent": "False" }, "geometry": { "type": "Point", "coordinates": [ -122.779581524442236, 45.438859039424962 ] } },
{ "type": "Feature", "properties": { "rte": 76, "dir": 0, "rte_desc": "76-Beaverton\/Tualatin", "dir_desc": "To Tualatin", "type": "BUS", "stop_seq": 780, "stop_id": 9565, "stop_name": "SW Durham & 72nd", "jurisdic": "Tigard", "zipcode": "97224", "frequent": "False" }, "geometry": { "type": "Point", "coordinates": [ -122.749395447901193, 45.398908203026814 ] } },
{ "type": "Feature", "properties": { "rte": 76, "dir": 0, "rte_desc": "76-Beaverton\/Tualatin", "dir_desc": "To Tualatin", "type": "BUS", "stop_seq": 550, "stop_id": 10631, "stop_name": "SW Hall & Avon", "jurisdic": "Tigard", "zipcode": "97224", "frequent": "False" }, "geometry": { "type": "Point", "coordinates": [ -122.76464250281883, 45.405592165607835 ] } },
{ "type": "Feature", "properties": { "rte": 76, "dir": 0, "rte_desc": "76-Beaverton\/Tualatin", "dir_desc": "To Tualatin", "type": "BUS", "stop_seq": 1, "stop_id": 9981, "stop_name": "Beaverton Transit Center", "jurisdic": "Beaverton", "zipcode": "97005", "frequent": "False" }, "geometry": { "type": "Point", "coordinates": [ -122.801760460464521, 45.490955156913948 ] } },
{ "type": "Feature", "properties": { "rte": 76, "dir": 0, "rte_desc": "76-Beaverton\/Tualatin", "dir_desc": "To Tualatin", "type": "BUS", "stop_seq": 1350, "stop_id": 8274, "stop_name": "SW Martinazzi & Mohawk", "jurisdic": "Tualatin", "zipcode": "97062", "frequent": "False" }, "geometry": { "type": "Point", "coordinates": [ -122.760968022519705, 45.376666038746563 ] } },
{ "type": "Feature", "properties": { "rte": 76, "dir": 0, "rte_desc": "76-Beaverton\/Tualatin", "dir_desc": "To Tualatin", "type": "BUS", "stop_seq": 5, "stop_id": 13197, "stop_name": "SW Watson & 5th", "jurisdic": "Beaverton", "zipcode": "97005", "frequent": "False" }, "geometry": { "type": "Point", "coordinates": [ -122.806832564395521, 45.483715114881896 ] } },
{ "type": "Feature", "properties": { "rte": 76, "dir": 0, "rte_desc": "76-Beaverton\/Tualatin", "dir_desc": "To Tualatin", "type": "BUS", "stop_seq": 22, "stop_id": 2296, "stop_name": "SW Hall & Scholls Ferry", "jurisdic": "Beaverton", "zipcode": "97223", "frequent": "False" }, "geometry": { "type": "Point", "coordinates": [ -122.782041541716211, 45.456531542301647 ] } },
{ "type": "Feature", "properties": { "rte": 76, "dir": 0, "rte_desc": "76-Beaverton\/Tualatin", "dir_desc": "To Tualatin", "type": "BUS", "stop_seq": 850, "stop_id": 11945, "stop_name": "17000 Block SW 72nd", "jurisdic": "Tigard", "zipcode": "97224", "frequent": "False" }, "geometry": { "type": "Point", "coordinates": [ -122.749741066124713, 45.397159003402528 ] } },
{ "type": "Feature", "properties": { "rte": 76, "dir": 0, "rte_desc": "76-Beaverton\/Tualatin", "dir_desc": "To Tualatin", "type": "BUS", "stop_seq": 34, "stop_id": 2233, "stop_name": "SW Greenburg & Center", "jurisdic": "Tigard", "zipcode": "97223", "frequent": "False" }, "geometry": { "type": "Point", "coordinates": [ -122.768570014109585, 45.434033884171271 ] } },
{ "type": "Feature", "properties": { "rte": 76, "dir": 0, "rte_desc": "76-Beaverton\/Tualatin", "dir_desc": "To Tualatin", "type": "BUS", "stop_seq": 19, "stop_id": 2276, "stop_name": "SW Hall & Creekside", "jurisdic": "Beaverton", "zipcode": "97008", "frequent": "False" }, "geometry": { "type": "Point", "coordinates": [ -122.792545748946054, 45.460106838251122 ] } },
{ "type": "Feature", "properties": { "rte": 76, "dir": 0, "rte_desc": "76-Beaverton\/Tualatin", "dir_desc": "To Tualatin", "type": "BUS", "stop_seq": 1150, "stop_id": 13078, "stop_name": "SW Boones Ferry Rd & Martinazzi", "jurisdic": "Tualatin", "zipcode": "97062", "frequent": "False" }, "geometry": { "type": "Point", "coordinates": [ -122.759670065995891, 45.384746255931233 ] } },
{ "type": "Feature", "properties": { "rte": 76, "dir": 0, "rte_desc": "76-Beaverton\/Tualatin", "dir_desc": "To Tualatin", "type": "BUS", "stop_seq": 1200, "stop_id": 13079, "stop_name": "SW Boones Ferry Rd & Nyberg", "jurisdic": "Tualatin", "zipcode": "97062", "frequent": "False" }, "geometry": { "type": "Point", "coordinates": [ -122.764363084945842, 45.382865616521272 ] } },
{ "type": "Feature", "properties": { "rte": 76, "dir": 0, "rte_desc": "76-Beaverton\/Tualatin", "dir_desc": "To Tualatin", "type": "BUS", "stop_seq": 1250, "stop_id": 13080, "stop_name": "SW Warm Springs & Boones Ferry", "jurisdic": "Tualatin", "zipcode": "97062", "frequent": "False" }, "geometry": { "type": "Point", "coordinates": [ -122.76355376694093, 45.379474672181431 ] } },
{ "type": "Feature", "properties": { "rte": 76, "dir": 0, "rte_desc": "76-Beaverton\/Tualatin", "dir_desc": "To Tualatin", "type": "BUS", "stop_seq": 1300, "stop_id": 13081, "stop_name": "SW Warm Springs & Martinazzi", "jurisdic": "Tualatin", "zipcode": "97062", "frequent": "False" }, "geometry": { "type": "Point", "coordinates": [ -122.759837894019881, 45.378869731984281 ] } },
{ "type": "Feature", "properties": { "rte": 76, "dir": 0, "rte_desc": "76-Beaverton\/Tualatin", "dir_desc": "To Tualatin", "type": "BUS", "stop_seq": 1100, "stop_id": 495, "stop_name": "18200 Block SW Boones Ferry Rd", "jurisdic": "Tualatin", "zipcode": "97224", "frequent": "False" }, "geometry": { "type": "Point", "coordinates": [ -122.757268013031023, 45.387046274369276 ] } }
]
}
