{
"type": "FeatureCollection",
"crs": { "type": "name", "properties": { "name": "urn:ogc:def:crs:OGC:1.3:CRS84" } },
                                                                                
"features": [
{ "type": "Feature", "properties": { "rte": "76", "rte_desc": "76-UO\/Warren", "dir": "0", "dir_desc": "Outbound", "stop_id": "2159", "stop_name": "University of Oregon Station - Bay E", "stop_seq": "1" }, "geometry": { "type": "Point", "coordinates": [ -123.0786178, 44.0464445 ] } },
{ "type": "Feature", "properties": { "rte": "76", "rte_desc": "76-UO\/Warren", "dir": "0", "dir_desc": "Outbound", "stop_id": "1043", "stop_name": "N\/S of 11th W of Alder", "stop_seq": "2" }, "geometry": { "type": "Point", "coordinates": [ -123.0813033, 44.0477616 ] } },
{ "type": "Feature", "properties": { "rte": "76", "rte_desc": "76-UO\/Warren", "dir": "0", "dir_desc": "Outbound", "stop_id": "1047", "stop_name": "N\/S of 11th W of High", "stop_seq": "3" }, "geometry": { "type": "Point", "coordinates": [ -123.0891843, 44.0477628 ] } },
{ "type": "Feature", "properties": { "rte": "76", "rte_desc": "76-UO\/Warren", "dir": "0", "dir_desc": "Outbound", "stop_id": "987", "stop_name": "N\/S of 11th E of Olive", "stop_seq": "4" }, "geometry": { "type": "Point", "coordinates": [ -123.093894899999981, 44.0477019 ] } },
{ "type": "Feature", "properties": { "rte": "76", "rte_desc": "76-UO\/Warren", "dir": "0", "dir_desc": "Outbound", "stop_id": "988", "stop_name": "N\/S of 11th W of Lincoln", "stop_seq": "5" }, "geometry": { "type": "Point", "coordinates": [ -123.0975793, 44.0477708 ] } },
{ "type": "Feature", "properties": { "rte": "76", "rte_desc": "76-UO\/Warren", "dir": "0", "dir_desc": "Outbound", "stop_id": "989", "stop_name": "N\/S of 11th E of Jefferson", "stop_seq": "6" }, "geometry": { "type": "Point", "coordinates": [ -123.1016543, 44.0477881 ] } },
{ "type": "Feature", "properties": { "rte": "76", "rte_desc": "76-UO\/Warren", "dir": "0", "dir_desc": "Outbound", "stop_id": "990", "stop_name": "N\/S of 11th W of Monroe", "stop_seq": "7" }, "geometry": { "type": "Point", "coordinates": [ -123.1052749, 44.0477737 ] } },
{ "type": "Feature", "properties": { "rte": "76", "rte_desc": "76-UO\/Warren", "dir": "0", "dir_desc": "Outbound", "stop_id": "991", "stop_name": "N\/S of 11th W of Jackson", "stop_seq": "8" }, "geometry": { "type": "Point", "coordinates": [ -123.1082866, 44.0477944 ] } },
{ "type": "Feature", "properties": { "rte": "76", "rte_desc": "76-UO\/Warren", "dir": "0", "dir_desc": "Outbound", "stop_id": "992", "stop_name": "N\/S of 11th W of Polk", "stop_seq": "9" }, "geometry": { "type": "Point", "coordinates": [ -123.11293, 44.0478449 ] } },
{ "type": "Feature", "properties": { "rte": "76", "rte_desc": "76-UO\/Warren", "dir": "0", "dir_desc": "Outbound", "stop_id": "993", "stop_name": "N\/S of 11th W of Almaden", "stop_seq": "10" }, "geometry": { "type": "Point", "coordinates": [ -123.1161287, 44.0478016 ] } },
{ "type": "Feature", "properties": { "rte": "76", "rte_desc": "76-UO\/Warren", "dir": "0", "dir_desc": "Outbound", "stop_id": "994", "stop_name": "N\/S of 11th W of Chambers", "stop_seq": "11" }, "geometry": { "type": "Point", "coordinates": [ -123.1185334, 44.0477997 ] } },
{ "type": "Feature", "properties": { "rte": "76", "rte_desc": "76-UO\/Warren", "dir": "0", "dir_desc": "Outbound", "stop_id": "995", "stop_name": "N\/S of 11th W of Grant", "stop_seq": "12" }, "geometry": { "type": "Point", "coordinates": [ -123.1208263, 44.0478358 ] } },
{ "type": "Feature", "properties": { "rte": "76", "rte_desc": "76-UO\/Warren", "dir": "0", "dir_desc": "Outbound", "stop_id": "996", "stop_name": "N\/S of 11th W of Arthur", "stop_seq": "13" }, "geometry": { "type": "Point", "coordinates": [ -123.125073, 44.0478964 ] } },
{ "type": "Feature", "properties": { "rte": "76", "rte_desc": "76-UO\/Warren", "dir": "0", "dir_desc": "Outbound", "stop_id": "998", "stop_name": "N\/S of 11th W of City View", "stop_seq": "14" }, "geometry": { "type": "Point", "coordinates": [ -123.12825, 44.0479748 ] } },
{ "type": "Feature", "properties": { "rte": "76", "rte_desc": "76-UO\/Warren", "dir": "0", "dir_desc": "Outbound", "stop_id": "1000", "stop_name": "N\/S of 11th E of Wilson", "stop_seq": "15" }, "geometry": { "type": "Point", "coordinates": [ -123.1312882, 44.047941 ] } },
{ "type": "Feature", "properties": { "rte": "76", "rte_desc": "76-UO\/Warren", "dir": "0", "dir_desc": "Outbound", "stop_id": "430", "stop_name": "W\/S of Oak Patch S of 11th", "stop_seq": "16" }, "geometry": { "type": "Point", "coordinates": [ -123.1354701, 44.0471813 ] } },
{ "type": "Feature", "properties": { "rte": "76", "rte_desc": "76-UO\/Warren", "dir": "0", "dir_desc": "Outbound", "stop_id": "432", "stop_name": "W\/S of Oak Patch N of 15th", "stop_seq": "17" }, "geometry": { "type": "Point", "coordinates": [ -123.1354868, 44.0451376 ] } },
{ "type": "Feature", "properties": { "rte": "76", "rte_desc": "76-UO\/Warren", "dir": "0", "dir_desc": "Outbound", "stop_id": "434", "stop_name": "W\/S of Oak Patch S of 15th", "stop_seq": "18" }, "geometry": { "type": "Point", "coordinates": [ -123.135432399999985, 44.0432171 ] } },
{ "type": "Feature", "properties": { "rte": "76", "rte_desc": "76-UO\/Warren", "dir": "0", "dir_desc": "Outbound", "stop_id": "401", "stop_name": "N\/S of 18th W of Oak Patch", "stop_seq": "19" }, "geometry": { "type": "Point", "coordinates": [ -123.136046799999988, 44.0411639 ] } },
{ "type": "Feature", "properties": { "rte": "76", "rte_desc": "76-UO\/Warren", "dir": "0", "dir_desc": "Outbound", "stop_id": "399", "stop_name": "N\/S of 18th W of Buck", "stop_seq": "20" }, "geometry": { "type": "Point", "coordinates": [ -123.1397643, 44.0407076 ] } },
{ "type": "Feature", "properties": { "rte": "76", "rte_desc": "76-UO\/Warren", "dir": "0", "dir_desc": "Outbound", "stop_id": "397", "stop_name": "N\/S of 18th W of Quaker", "stop_seq": "21" }, "geometry": { "type": "Point", "coordinates": [ -123.1436087, 44.0407475 ] } },
{ "type": "Feature", "properties": { "rte": "76", "rte_desc": "76-UO\/Warren", "dir": "0", "dir_desc": "Outbound", "stop_id": "395", "stop_name": "N\/S of 18th W of Mistletoe", "stop_seq": "22" }, "geometry": { "type": "Point", "coordinates": [ -123.1458418, 44.0407666 ] } },
{ "type": "Feature", "properties": { "rte": "76", "rte_desc": "76-UO\/Warren", "dir": "0", "dir_desc": "Outbound", "stop_id": "1218", "stop_name": "W\/S of Bailey Hill S of 18th", "stop_seq": "23" }, "geometry": { "type": "Point", "coordinates": [ -123.1484526, 44.0402205 ] } },
{ "type": "Feature", "properties": { "rte": "76", "rte_desc": "76-UO\/Warren", "dir": "0", "dir_desc": "Outbound", "stop_id": "437", "stop_name": "W\/S of Bailey Hill N of Westleigh", "stop_seq": "24" }, "geometry": { "type": "Point", "coordinates": [ -123.150175, 44.0383668 ] } },
{ "type": "Feature", "properties": { "rte": "76", "rte_desc": "76-UO\/Warren", "dir": "0", "dir_desc": "Outbound", "stop_id": "438", "stop_name": "W\/S of Warren N of Blackburn", "stop_seq": "25" }, "geometry": { "type": "Point", "coordinates": [ -123.1518949, 44.0351023 ] } },
{ "type": "Feature", "properties": { "rte": "76", "rte_desc": "76-UO\/Warren", "dir": "0", "dir_desc": "Outbound", "stop_id": "1239", "stop_name": "W\/S of Warren S of Bible College", "stop_seq": "26" }, "geometry": { "type": "Point", "coordinates": [ -123.1518693, 44.0325926 ] } },
{ "type": "Feature", "properties": { "rte": "76", "rte_desc": "76-UO\/Warren", "dir": "0", "dir_desc": "Outbound", "stop_id": "440", "stop_name": "S\/S of Wilshire E of Warren", "stop_seq": "27" }, "geometry": { "type": "Point", "coordinates": [ -123.150744, 44.031118 ] } }
]
}
