{
"type": "FeatureCollection",
"crs": { "type": "name", "properties": { "name": "urn:ogc:def:crs:OGC:1.3:CRS84" } },
                                                                                
"features": [
{ "type": "Feature", "properties": { "rte": "78", "rte_desc": "78-UO\/Seneca Station", "dir": "0", "dir_desc": "Outbound", "stop_id": "01550", "stop_name": "W\/S of Kincaid N of 14th", "stop_seq": "1" }, "geometry": { "type": "Point", "coordinates": [ -123.0787245, 44.0445733 ] } },
{ "type": "Feature", "properties": { "rte": "78", "rte_desc": "78-UO\/Seneca Station", "dir": "0", "dir_desc": "Outbound", "stop_id": "01333", "stop_name": "W\/S of Alder N of 17th", "stop_seq": "2" }, "geometry": { "type": "Point", "coordinates": [ -123.080238699999981, 44.0413005 ] } },
{ "type": "Feature", "properties": { "rte": "78", "rte_desc": "78-UO\/Seneca Station", "dir": "0", "dir_desc": "Outbound", "stop_id": "00328", "stop_name": "N\/S of 18th W of Alder", "stop_seq": "3" }, "geometry": { "type": "Point", "coordinates": [ -123.0812783, 44.040029 ] } },
{ "type": "Feature", "properties": { "rte": "78", "rte_desc": "78-UO\/Seneca Station", "dir": "0", "dir_desc": "Outbound", "stop_id": "01312", "stop_name": "N\/S of 18th E of Ferry", "stop_seq": "4" }, "geometry": { "type": "Point", "coordinates": [ -123.0850107, 44.040055 ] } },
{ "type": "Feature", "properties": { "rte": "78", "rte_desc": "78-UO\/Seneca Station", "dir": "0", "dir_desc": "Outbound", "stop_id": "01303", "stop_name": "N\/S of 18th E of High", "stop_seq": "5" }, "geometry": { "type": "Point", "coordinates": [ -123.0878613, 44.0400722 ] } },
{ "type": "Feature", "properties": { "rte": "78", "rte_desc": "78-UO\/Seneca Station", "dir": "0", "dir_desc": "Outbound", "stop_id": "00429", "stop_name": "N\/S of 18th W of Oak", "stop_seq": "6" }, "geometry": { "type": "Point", "coordinates": [ -123.0916315, 44.0401022 ] } },
{ "type": "Feature", "properties": { "rte": "78", "rte_desc": "78-UO\/Seneca Station", "dir": "0", "dir_desc": "Outbound", "stop_id": "00428", "stop_name": "N\/S of 18th W of Willamette", "stop_seq": "7" }, "geometry": { "type": "Point", "coordinates": [ -123.0932614, 44.040023 ] } },
{ "type": "Feature", "properties": { "rte": "78", "rte_desc": "78-UO\/Seneca Station", "dir": "0", "dir_desc": "Outbound", "stop_id": "00426", "stop_name": "N\/S of 18th W of Lincoln", "stop_seq": "8" }, "geometry": { "type": "Point", "coordinates": [ -123.0976901, 44.0401374 ] } },
{ "type": "Feature", "properties": { "rte": "78", "rte_desc": "78-UO\/Seneca Station", "dir": "0", "dir_desc": "Outbound", "stop_id": "00424", "stop_name": "N\/S of 18th E of Jefferson", "stop_seq": "9" }, "geometry": { "type": "Point", "coordinates": [ -123.1004615, 44.0403123 ] } },
{ "type": "Feature", "properties": { "rte": "78", "rte_desc": "78-UO\/Seneca Station", "dir": "0", "dir_desc": "Outbound", "stop_id": "00421", "stop_name": "N\/S of 18th W of Madison", "stop_seq": "10" }, "geometry": { "type": "Point", "coordinates": [ -123.1031707, 44.0403098 ] } },
{ "type": "Feature", "properties": { "rte": "78", "rte_desc": "78-UO\/Seneca Station", "dir": "0", "dir_desc": "Outbound", "stop_id": "00420", "stop_name": "N\/S of 18th W of Friendly", "stop_seq": "11" }, "geometry": { "type": "Point", "coordinates": [ -123.1061966, 44.0403129 ] } },
{ "type": "Feature", "properties": { "rte": "78", "rte_desc": "78-UO\/Seneca Station", "dir": "0", "dir_desc": "Outbound", "stop_id": "00417", "stop_name": "N\/S of 18th W of Van Buren", "stop_seq": "12" }, "geometry": { "type": "Point", "coordinates": [ -123.109775, 44.040388 ] } },
{ "type": "Feature", "properties": { "rte": "78", "rte_desc": "78-UO\/Seneca Station", "dir": "0", "dir_desc": "Outbound", "stop_id": "00415", "stop_name": "N\/S of 18th W of Polk", "stop_seq": "13" }, "geometry": { "type": "Point", "coordinates": [ -123.1131804, 44.0403986 ] } },
{ "type": "Feature", "properties": { "rte": "78", "rte_desc": "78-UO\/Seneca Station", "dir": "0", "dir_desc": "Outbound", "stop_id": "00414", "stop_name": "N\/S of 18th E of Chambers", "stop_seq": "14" }, "geometry": { "type": "Point", "coordinates": [ -123.116881799999987, 44.0404592 ] } },
{ "type": "Feature", "properties": { "rte": "78", "rte_desc": "78-UO\/Seneca Station", "dir": "0", "dir_desc": "Outbound", "stop_id": "00411", "stop_name": "N\/S of 18th W of Grant", "stop_seq": "15" }, "geometry": { "type": "Point", "coordinates": [ -123.120729699999984, 44.0404689 ] } },
{ "type": "Feature", "properties": { "rte": "78", "rte_desc": "78-UO\/Seneca Station", "dir": "0", "dir_desc": "Outbound", "stop_id": "00410", "stop_name": "N\/S of 18th E of Garfield", "stop_seq": "16" }, "geometry": { "type": "Point", "coordinates": [ -123.1226661, 44.0405258 ] } },
{ "type": "Feature", "properties": { "rte": "78", "rte_desc": "78-UO\/Seneca Station", "dir": "0", "dir_desc": "Outbound", "stop_id": "00408", "stop_name": "N\/S of 18th W of Arthur", "stop_seq": "17" }, "geometry": { "type": "Point", "coordinates": [ -123.124965, 44.0404668 ] } },
{ "type": "Feature", "properties": { "rte": "78", "rte_desc": "78-UO\/Seneca Station", "dir": "0", "dir_desc": "Outbound", "stop_id": "00406", "stop_name": "N\/S of 18th W of City View", "stop_seq": "18" }, "geometry": { "type": "Point", "coordinates": [ -123.128611500000019, 44.040588 ] } },
{ "type": "Feature", "properties": { "rte": "78", "rte_desc": "78-UO\/Seneca Station", "dir": "0", "dir_desc": "Outbound", "stop_id": "00403", "stop_name": "N\/S of 18th W of Wilson", "stop_seq": "19" }, "geometry": { "type": "Point", "coordinates": [ -123.1329314, 44.0405876 ] } },
{ "type": "Feature", "properties": { "rte": "78", "rte_desc": "78-UO\/Seneca Station", "dir": "0", "dir_desc": "Outbound", "stop_id": "00401", "stop_name": "N\/S of 18th W of Oak Patch", "stop_seq": "20" }, "geometry": { "type": "Point", "coordinates": [ -123.136046799999988, 44.0411639 ] } },
{ "type": "Feature", "properties": { "rte": "78", "rte_desc": "78-UO\/Seneca Station", "dir": "0", "dir_desc": "Outbound", "stop_id": "00399", "stop_name": "N\/S of 18th W of Buck", "stop_seq": "21" }, "geometry": { "type": "Point", "coordinates": [ -123.1397643, 44.0407076 ] } },
{ "type": "Feature", "properties": { "rte": "78", "rte_desc": "78-UO\/Seneca Station", "dir": "0", "dir_desc": "Outbound", "stop_id": "00397", "stop_name": "N\/S of 18th W of Quaker", "stop_seq": "22" }, "geometry": { "type": "Point", "coordinates": [ -123.1436087, 44.0407475 ] } },
{ "type": "Feature", "properties": { "rte": "78", "rte_desc": "78-UO\/Seneca Station", "dir": "0", "dir_desc": "Outbound", "stop_id": "00395", "stop_name": "N\/S of 18th W of Mistletoe", "stop_seq": "23" }, "geometry": { "type": "Point", "coordinates": [ -123.1458418, 44.0407666 ] } },
{ "type": "Feature", "properties": { "rte": "78", "rte_desc": "78-UO\/Seneca Station", "dir": "0", "dir_desc": "Outbound", "stop_id": "01613", "stop_name": "E\/S of Bailey Hill N of 18th", "stop_seq": "24" }, "geometry": { "type": "Point", "coordinates": [ -123.1479504, 44.0413271 ] } },
{ "type": "Feature", "properties": { "rte": "78", "rte_desc": "78-UO\/Seneca Station", "dir": "0", "dir_desc": "Outbound", "stop_id": "01614", "stop_name": "E\/S of Bailey Hill N of Plumtree", "stop_seq": "25" }, "geometry": { "type": "Point", "coordinates": [ -123.1479749, 44.04371 ] } },
{ "type": "Feature", "properties": { "rte": "78", "rte_desc": "78-UO\/Seneca Station", "dir": "0", "dir_desc": "Outbound", "stop_id": "01009", "stop_name": "S\/S of 11th E of Bailey Hill", "stop_seq": "26" }, "geometry": { "type": "Point", "coordinates": [ -123.1472811, 44.047955 ] } },
{ "type": "Feature", "properties": { "rte": "78", "rte_desc": "78-UO\/Seneca Station", "dir": "0", "dir_desc": "Outbound", "stop_id": "01215", "stop_name": "Seneca Sta. (Fred Meyer)", "stop_seq": "27" }, "geometry": { "type": "Point", "coordinates": [ -123.141282799999985, 44.0490791 ] } }
]
}
