{
"type": "FeatureCollection",
"crs": { "type": "name", "properties": { "name": "urn:ogc:def:crs:OGC:1.3:CRS84" } },
                                                                                
"features": [
{ "type": "Feature", "properties": { "rte": 78, "dir": 0, "rte_desc": "78-Beaverton\/Lake Oswego", "dir_desc": "To Lake Oswego TC", "type": "BUS", "stop_seq": 150, "stop_id": 6178, "stop_name": "SW Watson & 1st", "jurisdic": "Beaverton", "zipcode": "97005", "frequent": "False" }, "geometry": { "type": "Point", "coordinates": [ -122.806309607602657, 45.486075047362995 ] } },
{ "type": "Feature", "properties": { "rte": 78, "dir": 0, "rte_desc": "78-Beaverton\/Lake Oswego", "dir_desc": "To Lake Oswego TC", "type": "BUS", "stop_seq": 2150, "stop_id": 2812, "stop_name": "8000 Block SW Hunziker", "jurisdic": "Tigard", "zipcode": "97223", "frequent": "False" }, "geometry": { "type": "Point", "coordinates": [ -122.758931354612344, 45.427881174263895 ] } },
{ "type": "Feature", "properties": { "rte": 78, "dir": 0, "rte_desc": "78-Beaverton\/Lake Oswego", "dir_desc": "To Lake Oswego TC", "type": "BUS", "stop_seq": 2050, "stop_id": 2815, "stop_name": "SW Hunziker & Hall", "jurisdic": "Tigard", "zipcode": "97223", "frequent": "False" }, "geometry": { "type": "Point", "coordinates": [ -122.763744065853217, 45.42975735744664 ] } },
{ "type": "Feature", "properties": { "rte": 78, "dir": 0, "rte_desc": "78-Beaverton\/Lake Oswego", "dir_desc": "To Lake Oswego TC", "type": "BUS", "stop_seq": 2250, "stop_id": 2818, "stop_name": "SW Hunziker & 72nd", "jurisdic": "Tigard", "zipcode": "97223", "frequent": "False" }, "geometry": { "type": "Point", "coordinates": [ -122.75244477892862, 45.425784769844775 ] } },
{ "type": "Feature", "properties": { "rte": 78, "dir": 0, "rte_desc": "78-Beaverton\/Lake Oswego", "dir_desc": "To Lake Oswego TC", "type": "BUS", "stop_seq": 2350, "stop_id": 2494, "stop_name": "6900 Block SW Hampton", "jurisdic": "Tigard", "zipcode": "97223", "frequent": "False" }, "geometry": { "type": "Point", "coordinates": [ -122.748526701282529, 45.42739868748275 ] } },
{ "type": "Feature", "properties": { "rte": 78, "dir": 0, "rte_desc": "78-Beaverton\/Lake Oswego", "dir_desc": "To Lake Oswego TC", "type": "BUS", "stop_seq": 2300, "stop_id": 2496, "stop_name": "SW Hampton & 72nd", "jurisdic": "Tigard", "zipcode": "97223", "frequent": "False" }, "geometry": { "type": "Point", "coordinates": [ -122.750351980297623, 45.42755022517678 ] } },
{ "type": "Feature", "properties": { "rte": 78, "dir": 0, "rte_desc": "78-Beaverton\/Lake Oswego", "dir_desc": "To Lake Oswego TC", "type": "BUS", "stop_seq": 2950, "stop_id": 672, "stop_name": "Kerr & Jefferson Pkwy", "jurisdic": "Lake Oswego", "zipcode": "97035", "frequent": "False" }, "geometry": { "type": "Point", "coordinates": [ -122.718475607588118, 45.431097803560995 ] } },
{ "type": "Feature", "properties": { "rte": 78, "dir": 0, "rte_desc": "78-Beaverton\/Lake Oswego", "dir_desc": "To Lake Oswego TC", "type": "BUS", "stop_seq": 2000, "stop_id": 1123, "stop_name": "SW Commercial & Hall", "jurisdic": "Tigard", "zipcode": "97223", "frequent": "False" }, "geometry": { "type": "Point", "coordinates": [ -122.766604576136103, 45.428570503316152 ] } },
{ "type": "Feature", "properties": { "rte": 78, "dir": 0, "rte_desc": "78-Beaverton\/Lake Oswego", "dir_desc": "To Lake Oswego TC", "type": "BUS", "stop_seq": 1350, "stop_id": 2231, "stop_name": "SW Greenburg & Cascade", "jurisdic": "Tigard", "zipcode": "97223", "frequent": "False" }, "geometry": { "type": "Point", "coordinates": [ -122.779425356941886, 45.44132680630419 ] } },
{ "type": "Feature", "properties": { "rte": 78, "dir": 0, "rte_desc": "78-Beaverton\/Lake Oswego", "dir_desc": "To Lake Oswego TC", "type": "BUS", "stop_seq": 1650, "stop_id": 2237, "stop_name": "SW Greenburg & 92nd", "jurisdic": "Tigard", "zipcode": "97223", "frequent": "False" }, "geometry": { "type": "Point", "coordinates": [ -122.772130278427682, 45.436009584598381 ] } },
{ "type": "Feature", "properties": { "rte": 78, "dir": 0, "rte_desc": "78-Beaverton\/Lake Oswego", "dir_desc": "To Lake Oswego TC", "type": "BUS", "stop_seq": 1658, "stop_id": 2240, "stop_name": "SW Greenburg & Lincoln", "jurisdic": "Tigard", "zipcode": "97223", "frequent": "False" }, "geometry": { "type": "Point", "coordinates": [ -122.770357440574358, 45.435120836816552 ] } },
{ "type": "Feature", "properties": { "rte": 78, "dir": 0, "rte_desc": "78-Beaverton\/Lake Oswego", "dir_desc": "To Lake Oswego TC", "type": "BUS", "stop_seq": 1550, "stop_id": 2243, "stop_name": "SW Greenburg & 95th", "jurisdic": "Tigard", "zipcode": "97223", "frequent": "False" }, "geometry": { "type": "Point", "coordinates": [ -122.774221318966042, 45.436728035261424 ] } },
{ "type": "Feature", "properties": { "rte": 78, "dir": 0, "rte_desc": "78-Beaverton\/Lake Oswego", "dir_desc": "To Lake Oswego TC", "type": "BUS", "stop_seq": 1450, "stop_id": 2246, "stop_name": "SW Greenburg & 98th", "jurisdic": "Tigard", "zipcode": "97223", "frequent": "False" }, "geometry": { "type": "Point", "coordinates": [ -122.777618263003788, 45.437359212575274 ] } },
{ "type": "Feature", "properties": { "rte": 78, "dir": 0, "rte_desc": "78-Beaverton\/Lake Oswego", "dir_desc": "To Lake Oswego TC", "type": "BUS", "stop_seq": 2600, "stop_id": 2257, "stop_name": "SW Haines & Lesser", "jurisdic": "Portland", "zipcode": "97219", "frequent": "False" }, "geometry": { "type": "Point", "coordinates": [ -122.741220616585551, 45.436879774673351 ] } },
{ "type": "Feature", "properties": { "rte": 78, "dir": 0, "rte_desc": "78-Beaverton\/Lake Oswego", "dir_desc": "To Lake Oswego TC", "type": "BUS", "stop_seq": 750, "stop_id": 2263, "stop_name": "7800 Block SW Hall", "jurisdic": "Beaverton", "zipcode": "97008", "frequent": "False" }, "geometry": { "type": "Point", "coordinates": [ -122.801281687029189, 45.463059517069247 ] } },
{ "type": "Feature", "properties": { "rte": 78, "dir": 0, "rte_desc": "78-Beaverton\/Lake Oswego", "dir_desc": "To Lake Oswego TC", "type": "BUS", "stop_seq": 450, "stop_id": 2266, "stop_name": "SW Hall & Allen", "jurisdic": "Beaverton", "zipcode": "97008", "frequent": "False" }, "geometry": { "type": "Point", "coordinates": [ -122.805580896988147, 45.475507855666535 ] } },
{ "type": "Feature", "properties": { "rte": 78, "dir": 0, "rte_desc": "78-Beaverton\/Lake Oswego", "dir_desc": "To Lake Oswego TC", "type": "BUS", "stop_seq": 3500, "stop_id": 1222, "stop_name": "Country Club & Iron Mtn", "jurisdic": "Lake Oswego", "zipcode": "97034", "frequent": "False" }, "geometry": { "type": "Point", "coordinates": [ -122.679114979324922, 45.422850067198659 ] } },
{ "type": "Feature", "properties": { "rte": 78, "dir": 0, "rte_desc": "78-Beaverton\/Lake Oswego", "dir_desc": "To Lake Oswego TC", "type": "BUS", "stop_seq": 3450, "stop_id": 1224, "stop_name": "Country Club & Knaus Rd", "jurisdic": "Lake Oswego", "zipcode": "97034", "frequent": "False" }, "geometry": { "type": "Point", "coordinates": [ -122.689283708469588, 45.422966241470263 ] } },
{ "type": "Feature", "properties": { "rte": 78, "dir": 0, "rte_desc": "78-Beaverton\/Lake Oswego", "dir_desc": "To Lake Oswego TC", "type": "BUS", "stop_seq": 3250, "stop_id": 1225, "stop_name": "2500 Block Country Club", "jurisdic": "Lake Oswego", "zipcode": "97034", "frequent": "False" }, "geometry": { "type": "Point", "coordinates": [ -122.701278959069555, 45.424542089680543 ] } },
{ "type": "Feature", "properties": { "rte": 78, "dir": 0, "rte_desc": "78-Beaverton\/Lake Oswego", "dir_desc": "To Lake Oswego TC", "type": "BUS", "stop_seq": 3400, "stop_id": 1228, "stop_name": "Country Club & Bridge", "jurisdic": "Lake Oswego", "zipcode": "97034", "frequent": "False" }, "geometry": { "type": "Point", "coordinates": [ -122.693141393181207, 45.422986448746911 ] } },
{ "type": "Feature", "properties": { "rte": 78, "dir": 0, "rte_desc": "78-Beaverton\/Lake Oswego", "dir_desc": "To Lake Oswego TC", "type": "BUS", "stop_seq": 3350, "stop_id": 1232, "stop_name": "Country Club & Uplands", "jurisdic": "Lake Oswego", "zipcode": "97034", "frequent": "False" }, "geometry": { "type": "Point", "coordinates": [ -122.695790161203448, 45.423164999711361 ] } },
{ "type": "Feature", "properties": { "rte": 78, "dir": 0, "rte_desc": "78-Beaverton\/Lake Oswego", "dir_desc": "To Lake Oswego TC", "type": "BUS", "stop_seq": 1801, "stop_id": 3673, "stop_name": "SW Main & Scoffins", "jurisdic": "Tigard", "zipcode": "97223", "frequent": "False" }, "geometry": { "type": "Point", "coordinates": [ -122.768226897827361, 45.43256910232386 ] } },
{ "type": "Feature", "properties": { "rte": 78, "dir": 0, "rte_desc": "78-Beaverton\/Lake Oswego", "dir_desc": "To Lake Oswego TC", "type": "BUS", "stop_seq": 1000, "stop_id": 2272, "stop_name": "SW Hall & Cascade", "jurisdic": "Beaverton", "zipcode": "97008", "frequent": "False" }, "geometry": { "type": "Point", "coordinates": [ -122.787425223141526, 45.458776803424826 ] } },
{ "type": "Feature", "properties": { "rte": 78, "dir": 0, "rte_desc": "78-Beaverton\/Lake Oswego", "dir_desc": "To Lake Oswego TC", "type": "BUS", "stop_seq": 700, "stop_id": 2280, "stop_name": "SW Hall & Green Lane", "jurisdic": "Beaverton", "zipcode": "97008", "frequent": "False" }, "geometry": { "type": "Point", "coordinates": [ -122.803479188816482, 45.464190166922315 ] } },
{ "type": "Feature", "properties": { "rte": 78, "dir": 0, "rte_desc": "78-Beaverton\/Lake Oswego", "dir_desc": "To Lake Oswego TC", "type": "BUS", "stop_seq": 850, "stop_id": 2283, "stop_name": "SW Hall & Greenway", "jurisdic": "Beaverton", "zipcode": "97008", "frequent": "False" }, "geometry": { "type": "Point", "coordinates": [ -122.796420667546954, 45.461255570262701 ] } },
{ "type": "Feature", "properties": { "rte": 78, "dir": 0, "rte_desc": "78-Beaverton\/Lake Oswego", "dir_desc": "To Lake Oswego TC", "type": "BUS", "stop_seq": 650, "stop_id": 2286, "stop_name": "SW Hall & Hart", "jurisdic": "Beaverton", "zipcode": "97008", "frequent": "False" }, "geometry": { "type": "Point", "coordinates": [ -122.80391040924485, 45.466542174663338 ] } },
{ "type": "Feature", "properties": { "rte": 78, "dir": 0, "rte_desc": "78-Beaverton\/Lake Oswego", "dir_desc": "To Lake Oswego TC", "type": "BUS", "stop_seq": 3300, "stop_id": 1234, "stop_name": "Country Club & Wembley Park", "jurisdic": "Lake Oswego", "zipcode": "97034", "frequent": "False" }, "geometry": { "type": "Point", "coordinates": [ -122.698260630286384, 45.423780151875405 ] } },
{ "type": "Feature", "properties": { "rte": 78, "dir": 0, "rte_desc": "78-Beaverton\/Lake Oswego", "dir_desc": "To Lake Oswego TC", "type": "BUS", "stop_seq": 950, "stop_id": 2290, "stop_name": "SW Hall & Nimbus", "jurisdic": "Beaverton", "zipcode": "97008", "frequent": "False" }, "geometry": { "type": "Point", "coordinates": [ -122.789170519813439, 45.459152620271901 ] } },
{ "type": "Feature", "properties": { "rte": 78, "dir": 0, "rte_desc": "78-Beaverton\/Lake Oswego", "dir_desc": "To Lake Oswego TC", "type": "BUS", "stop_seq": 800, "stop_id": 2292, "stop_name": "SW Hall & Ridgecrest", "jurisdic": "Beaverton", "zipcode": "97008", "frequent": "False" }, "geometry": { "type": "Point", "coordinates": [ -122.798519154610545, 45.461866325399562 ] } },
{ "type": "Feature", "properties": { "rte": 78, "dir": 0, "rte_desc": "78-Beaverton\/Lake Oswego", "dir_desc": "To Lake Oswego TC", "type": "BUS", "stop_seq": 400, "stop_id": 2301, "stop_name": "SW Hall & 13th", "jurisdic": "Beaverton", "zipcode": "97005", "frequent": "False" }, "geometry": { "type": "Point", "coordinates": [ -122.8057911138755, 45.477878164095443 ] } },
{ "type": "Feature", "properties": { "rte": 78, "dir": 0, "rte_desc": "78-Beaverton\/Lake Oswego", "dir_desc": "To Lake Oswego TC", "type": "BUS", "stop_seq": 550, "stop_id": 2303, "stop_name": "SW Hall & 22nd", "jurisdic": "Beaverton", "zipcode": "97008", "frequent": "False" }, "geometry": { "type": "Point", "coordinates": [ -122.805287838567295, 45.471981178053262 ] } },
{ "type": "Feature", "properties": { "rte": 78, "dir": 0, "rte_desc": "78-Beaverton\/Lake Oswego", "dir_desc": "To Lake Oswego TC", "type": "BUS", "stop_seq": 2650, "stop_id": 3387, "stop_name": "12100 Block SW Lesser", "jurisdic": "Portland", "zipcode": "97219", "frequent": "False" }, "geometry": { "type": "Point", "coordinates": [ -122.741112201604608, 45.438294733562813 ] } },
{ "type": "Feature", "properties": { "rte": 78, "dir": 0, "rte_desc": "78-Beaverton\/Lake Oswego", "dir_desc": "To Lake Oswego TC", "type": "BUS", "stop_seq": 1175, "stop_id": 13588, "stop_name": "SW Summit Dr & Greenburg", "jurisdic": "Tigard", "zipcode": "97223", "frequent": "False" }, "geometry": { "type": "Point", "coordinates": [ -122.775424074778087, 45.451343310426253 ] } },
{ "type": "Feature", "properties": { "rte": 78, "dir": 0, "rte_desc": "78-Beaverton\/Lake Oswego", "dir_desc": "To Lake Oswego TC", "type": "BUS", "stop_seq": 1100, "stop_id": 6125, "stop_name": "SW Eliander & One Embassy Centre", "jurisdic": "Tigard", "zipcode": "97223", "frequent": "False" }, "geometry": { "type": "Point", "coordinates": [ -122.78049488341172, 45.455093385161582 ] } },
{ "type": "Feature", "properties": { "rte": 78, "dir": 0, "rte_desc": "78-Beaverton\/Lake Oswego", "dir_desc": "To Lake Oswego TC", "type": "BUS", "stop_seq": 100, "stop_id": 8262, "stop_name": "SW Watson & Broadway", "jurisdic": "Beaverton", "zipcode": "97005", "frequent": "False" }, "geometry": { "type": "Point", "coordinates": [ -122.80636753678354, 45.487563149615163 ] } },
{ "type": "Feature", "properties": { "rte": 78, "dir": 0, "rte_desc": "78-Beaverton\/Lake Oswego", "dir_desc": "To Lake Oswego TC", "type": "BUS", "stop_seq": 2900, "stop_id": 3125, "stop_name": "50 Block Kerr Parkway", "jurisdic": "Lake Oswego", "zipcode": "97035", "frequent": "False" }, "geometry": { "type": "Point", "coordinates": [ -122.719501826287683, 45.434114084414311 ] } },
{ "type": "Feature", "properties": { "rte": 78, "dir": 0, "rte_desc": "78-Beaverton\/Lake Oswego", "dir_desc": "To Lake Oswego TC", "type": "BUS", "stop_seq": 3050, "stop_id": 3134, "stop_name": "Kerr & Tanglewood", "jurisdic": "Lake Oswego", "zipcode": "97035", "frequent": "False" }, "geometry": { "type": "Point", "coordinates": [ -122.711597797868379, 45.427852463453064 ] } },
{ "type": "Feature", "properties": { "rte": 78, "dir": 0, "rte_desc": "78-Beaverton\/Lake Oswego", "dir_desc": "To Lake Oswego TC", "type": "BUS", "stop_seq": 3100, "stop_id": 3137, "stop_name": "Kerr & The Grotto", "jurisdic": "Lake Oswego", "zipcode": "97035", "frequent": "False" }, "geometry": { "type": "Point", "coordinates": [ -122.707354845633503, 45.426213882856423 ] } },
{ "type": "Feature", "properties": { "rte": 78, "dir": 0, "rte_desc": "78-Beaverton\/Lake Oswego", "dir_desc": "To Lake Oswego TC", "type": "BUS", "stop_seq": 3000, "stop_id": 3141, "stop_name": "Kerr & Touchstone", "jurisdic": "Lake Oswego", "zipcode": "97035", "frequent": "False" }, "geometry": { "type": "Point", "coordinates": [ -122.715145746209913, 45.428013817799609 ] } },
{ "type": "Feature", "properties": { "rte": 78, "dir": 0, "rte_desc": "78-Beaverton\/Lake Oswego", "dir_desc": "To Lake Oswego TC", "type": "BUS", "stop_seq": 2550, "stop_id": 7844, "stop_name": "SW 68th & Baylor", "jurisdic": "Tigard", "zipcode": "97223", "frequent": "False" }, "geometry": { "type": "Point", "coordinates": [ -122.746576759212687, 45.435815796611408 ] } },
{ "type": "Feature", "properties": { "rte": 78, "dir": 0, "rte_desc": "78-Beaverton\/Lake Oswego", "dir_desc": "To Lake Oswego TC", "type": "BUS", "stop_seq": 2450, "stop_id": 7847, "stop_name": "SW 68th & Franklin", "jurisdic": "Tigard", "zipcode": "97223", "frequent": "False" }, "geometry": { "type": "Point", "coordinates": [ -122.746711970872141, 45.430161613641594 ] } },
{ "type": "Feature", "properties": { "rte": 78, "dir": 0, "rte_desc": "78-Beaverton\/Lake Oswego", "dir_desc": "To Lake Oswego TC", "type": "BUS", "stop_seq": 1200, "stop_id": 8832, "stop_name": "SW Greenburg & Lehman", "jurisdic": "Tigard", "zipcode": "97223", "frequent": "False" }, "geometry": { "type": "Point", "coordinates": [ -122.775277109106426, 45.44912682626245 ] } },
{ "type": "Feature", "properties": { "rte": 78, "dir": 0, "rte_desc": "78-Beaverton\/Lake Oswego", "dir_desc": "To Lake Oswego TC", "type": "BUS", "stop_seq": 600, "stop_id": 2279, "stop_name": "SW Hall & Denney", "jurisdic": "Beaverton", "zipcode": "97008", "frequent": "False" }, "geometry": { "type": "Point", "coordinates": [ -122.804150309167511, 45.46880865751119 ] } },
{ "type": "Feature", "properties": { "rte": 78, "dir": 0, "rte_desc": "78-Beaverton\/Lake Oswego", "dir_desc": "To Lake Oswego TC", "type": "BUS", "stop_seq": 50, "stop_id": 9982, "stop_name": "Beaverton Transit Center", "jurisdic": "Beaverton", "zipcode": "97005", "frequent": "False" }, "geometry": { "type": "Point", "coordinates": [ -122.801623061139466, 45.491048666312203 ] } },
{ "type": "Feature", "properties": { "rte": 78, "dir": 0, "rte_desc": "78-Beaverton\/Lake Oswego", "dir_desc": "To Lake Oswego TC", "type": "BUS", "stop_seq": 1150, "stop_id": 9653, "stop_name": "Washington Square Transit Center", "jurisdic": "Tigard", "zipcode": "97223", "frequent": "False" }, "geometry": { "type": "Point", "coordinates": [ -122.778791677724925, 45.452603230475205 ] } },
{ "type": "Feature", "properties": { "rte": 78, "dir": 0, "rte_desc": "78-Beaverton\/Lake Oswego", "dir_desc": "To Lake Oswego TC", "type": "BUS", "stop_seq": 2875, "stop_id": 13645, "stop_name": "Kerr & Hidalgo", "jurisdic": "Lake Oswego", "zipcode": "97219", "frequent": "False" }, "geometry": { "type": "Point", "coordinates": [ -122.727190721017394, 45.439265200300291 ] } },
{ "type": "Feature", "properties": { "rte": 78, "dir": 0, "rte_desc": "78-Beaverton\/Lake Oswego", "dir_desc": "To Lake Oswego TC", "type": "BUS", "stop_seq": 3600, "stop_id": 6, "stop_name": "A Ave & 8th St", "jurisdic": "Lake Oswego", "zipcode": "97034", "frequent": "False" }, "geometry": { "type": "Point", "coordinates": [ -122.673069943671379, 45.420220793811559 ] } },
{ "type": "Feature", "properties": { "rte": 78, "dir": 0, "rte_desc": "78-Beaverton\/Lake Oswego", "dir_desc": "To Lake Oswego TC", "type": "BUS", "stop_seq": 2500, "stop_id": 7849, "stop_name": "SW 68th & Freeway Entrance\/Dartmouth", "jurisdic": "Tigard", "zipcode": "97223", "frequent": "False" }, "geometry": { "type": "Point", "coordinates": [ -122.746612786966736, 45.433968948346724 ] } },
{ "type": "Feature", "properties": { "rte": 78, "dir": 0, "rte_desc": "78-Beaverton\/Lake Oswego", "dir_desc": "To Lake Oswego TC", "type": "BUS", "stop_seq": 300, "stop_id": 6182, "stop_name": "SW Watson & 9th", "jurisdic": "Beaverton", "zipcode": "97005", "frequent": "False" }, "geometry": { "type": "Point", "coordinates": [ -122.80680514142108, 45.481149823842692 ] } },
{ "type": "Feature", "properties": { "rte": 78, "dir": 0, "rte_desc": "78-Beaverton\/Lake Oswego", "dir_desc": "To Lake Oswego TC", "type": "BUS", "stop_seq": 350, "stop_id": 6179, "stop_name": "SW Watson & 10th", "jurisdic": "Beaverton", "zipcode": "97005", "frequent": "False" }, "geometry": { "type": "Point", "coordinates": [ -122.806188957238675, 45.479697283177607 ] } },
{ "type": "Feature", "properties": { "rte": 78, "dir": 0, "rte_desc": "78-Beaverton\/Lake Oswego", "dir_desc": "To Lake Oswego TC", "type": "BUS", "stop_seq": 1875, "stop_id": 10180, "stop_name": "Tigard Transit Center", "jurisdic": "Tigard", "zipcode": "97223", "frequent": "False" }, "geometry": { "type": "Point", "coordinates": [ -122.769114405032525, 45.430344543164729 ] } },
{ "type": "Feature", "properties": { "rte": 78, "dir": 0, "rte_desc": "78-Beaverton\/Lake Oswego", "dir_desc": "To Lake Oswego TC", "type": "BUS", "stop_seq": 3850, "stop_id": 9545, "stop_name": "Lake Oswego Transit Center", "jurisdic": "Lake Oswego", "zipcode": "97034", "frequent": "False" }, "geometry": { "type": "Point", "coordinates": [ -122.668105490190911, 45.421060215704422 ] } },
{ "type": "Feature", "properties": { "rte": 78, "dir": 0, "rte_desc": "78-Beaverton\/Lake Oswego", "dir_desc": "To Lake Oswego TC", "type": "BUS", "stop_seq": 1250, "stop_id": 12404, "stop_name": "SW Greenburg & Washington Square Rd", "jurisdic": "Tigard", "zipcode": "97223", "frequent": "False" }, "geometry": { "type": "Point", "coordinates": [ -122.77652004967031, 45.446077230521745 ] } },
{ "type": "Feature", "properties": { "rte": 78, "dir": 0, "rte_desc": "78-Beaverton\/Lake Oswego", "dir_desc": "To Lake Oswego TC", "type": "BUS", "stop_seq": 1400, "stop_id": 2235, "stop_name": "SW Greenburg & North Dakota", "jurisdic": "Tigard", "zipcode": "97223", "frequent": "False" }, "geometry": { "type": "Point", "coordinates": [ -122.779581524442236, 45.438859039424962 ] } },
{ "type": "Feature", "properties": { "rte": 78, "dir": 0, "rte_desc": "78-Beaverton\/Lake Oswego", "dir_desc": "To Lake Oswego TC", "type": "BUS", "stop_seq": 3150, "stop_id": 3127, "stop_name": "Kerr & Boones Ferry Rd", "jurisdic": "Lake Oswego", "zipcode": "97035", "frequent": "False" }, "geometry": { "type": "Point", "coordinates": [ -122.708181114125068, 45.424853777604994 ] } },
{ "type": "Feature", "properties": { "rte": 78, "dir": 0, "rte_desc": "78-Beaverton\/Lake Oswego", "dir_desc": "To Lake Oswego TC", "type": "BUS", "stop_seq": 225, "stop_id": 13197, "stop_name": "SW Watson & 5th", "jurisdic": "Beaverton", "zipcode": "97005", "frequent": "False" }, "geometry": { "type": "Point", "coordinates": [ -122.806832564395521, 45.483715114881896 ] } },
{ "type": "Feature", "properties": { "rte": 78, "dir": 0, "rte_desc": "78-Beaverton\/Lake Oswego", "dir_desc": "To Lake Oswego TC", "type": "BUS", "stop_seq": 3200, "stop_id": 1230, "stop_name": "Country Club & Sundeleaf", "jurisdic": "Lake Oswego", "zipcode": "97034", "frequent": "False" }, "geometry": { "type": "Point", "coordinates": [ -122.70520113979731, 45.424912922632814 ] } },
{ "type": "Feature", "properties": { "rte": 78, "dir": 0, "rte_desc": "78-Beaverton\/Lake Oswego", "dir_desc": "To Lake Oswego TC", "type": "BUS", "stop_seq": 1050, "stop_id": 2296, "stop_name": "SW Hall & Scholls Ferry", "jurisdic": "Beaverton", "zipcode": "97223", "frequent": "False" }, "geometry": { "type": "Point", "coordinates": [ -122.782041541716211, 45.456531542301647 ] } },
{ "type": "Feature", "properties": { "rte": 78, "dir": 0, "rte_desc": "78-Beaverton\/Lake Oswego", "dir_desc": "To Lake Oswego TC", "type": "BUS", "stop_seq": 1750, "stop_id": 2233, "stop_name": "SW Greenburg & Center", "jurisdic": "Tigard", "zipcode": "97223", "frequent": "False" }, "geometry": { "type": "Point", "coordinates": [ -122.768570014109585, 45.434033884171271 ] } },
{ "type": "Feature", "properties": { "rte": 78, "dir": 0, "rte_desc": "78-Beaverton\/Lake Oswego", "dir_desc": "To Lake Oswego TC", "type": "BUS", "stop_seq": 900, "stop_id": 2276, "stop_name": "SW Hall & Creekside", "jurisdic": "Beaverton", "zipcode": "97008", "frequent": "False" }, "geometry": { "type": "Point", "coordinates": [ -122.792545748946054, 45.460106838251122 ] } },
{ "type": "Feature", "properties": { "rte": 78, "dir": 0, "rte_desc": "78-Beaverton\/Lake Oswego", "dir_desc": "To Lake Oswego TC", "type": "BUS", "stop_seq": 2850, "stop_id": 4431, "stop_name": "PCC Sylvania Main Stop", "jurisdic": "Portland", "zipcode": "97219", "frequent": "False" }, "geometry": { "type": "Point", "coordinates": [ -122.730176730101746, 45.437959011090989 ] } },
{ "type": "Feature", "properties": { "rte": 78, "dir": 0, "rte_desc": "78-Beaverton\/Lake Oswego", "dir_desc": "To Lake Oswego TC", "type": "BUS", "stop_seq": 2200, "stop_id": 12958, "stop_name": "7500 Block SW Hunziker", "jurisdic": "Tigard", "zipcode": "97223", "frequent": "False" }, "geometry": { "type": "Point", "coordinates": [ -122.75463245438354, 45.426908556959745 ] } },
{ "type": "Feature", "properties": { "rte": 78, "dir": 0, "rte_desc": "78-Beaverton\/Lake Oswego", "dir_desc": "To Lake Oswego TC", "type": "BUS", "stop_seq": 2800, "stop_id": 4427, "stop_name": "PCC Lower Drive (G St) & H St", "jurisdic": "Portland", "zipcode": "97219", "frequent": "False" }, "geometry": { "type": "Point", "coordinates": [ -122.734042838384696, 45.441279518188878 ] } },
{ "type": "Feature", "properties": { "rte": 78, "dir": 0, "rte_desc": "78-Beaverton\/Lake Oswego", "dir_desc": "To Lake Oswego TC", "type": "BUS", "stop_seq": 3550, "stop_id": 2, "stop_name": "A Ave & Chandler", "jurisdic": "Lake Oswego", "zipcode": "97034", "frequent": "False" }, "geometry": { "type": "Point", "coordinates": [ -122.675677476374958, 45.420596643795314 ] } },
{ "type": "Feature", "properties": { "rte": 78, "dir": 0, "rte_desc": "78-Beaverton\/Lake Oswego", "dir_desc": "To Lake Oswego TC", "type": "BUS", "stop_seq": 2750, "stop_id": 3393, "stop_name": "SW Lesser & 60th", "jurisdic": "Portland", "zipcode": "97219", "frequent": "False" }, "geometry": { "type": "Point", "coordinates": [ -122.738472908834751, 45.440395876025292 ] } }
]
}
