{
"type": "FeatureCollection",
"crs": { "type": "name", "properties": { "name": "urn:ogc:def:crs:OGC:1.3:CRS84" } },
                                                                                
"features": [
{ "type": "Feature", "properties": { "rte": 79, "dir": 0, "rte_desc": "79-Clackamas\/Oregon City", "dir_desc": "To Oregon City TC", "type": "BUS", "stop_seq": 1100, "stop_id": 6201, "stop_name": "Webster & Los Verdes", "jurisdic": "Gladstone", "zipcode": "97027", "frequent": "False" }, "geometry": { "type": "Point", "coordinates": [ -122.585794032948698, 45.39623183266572 ] } },
{ "type": "Feature", "properties": { "rte": 79, "dir": 0, "rte_desc": "79-Clackamas\/Oregon City", "dir_desc": "To Oregon City TC", "type": "BUS", "stop_seq": 1300, "stop_id": 6206, "stop_name": "Webster & Oatfield", "jurisdic": "Gladstone", "zipcode": "97027", "frequent": "False" }, "geometry": { "type": "Point", "coordinates": [ -122.585506822117935, 45.388303590780687 ] } },
{ "type": "Feature", "properties": { "rte": 79, "dir": 0, "rte_desc": "79-Clackamas\/Oregon City", "dir_desc": "To Oregon City TC", "type": "BUS", "stop_seq": 1500, "stop_id": 1256, "stop_name": "E Dartmouth & Cornell", "jurisdic": "Gladstone", "zipcode": "97027", "frequent": "False" }, "geometry": { "type": "Point", "coordinates": [ -122.58797111538405, 45.382536335822628 ] } },
{ "type": "Feature", "properties": { "rte": 79, "dir": 0, "rte_desc": "79-Clackamas\/Oregon City", "dir_desc": "To Oregon City TC", "type": "BUS", "stop_seq": 1550, "stop_id": 1258, "stop_name": "E Dartmouth & Harvard", "jurisdic": "Gladstone", "zipcode": "97027", "frequent": "False" }, "geometry": { "type": "Point", "coordinates": [ -122.591201227612345, 45.381472861412071 ] } },
{ "type": "Feature", "properties": { "rte": 79, "dir": 0, "rte_desc": "79-Clackamas\/Oregon City", "dir_desc": "To Oregon City TC", "type": "BUS", "stop_seq": 1600, "stop_id": 1259, "stop_name": "E Dartmouth & Portland Ave", "jurisdic": "Gladstone", "zipcode": "97027", "frequent": "False" }, "geometry": { "type": "Point", "coordinates": [ -122.594493548669305, 45.380388332113782 ] } },
{ "type": "Feature", "properties": { "rte": 79, "dir": 0, "rte_desc": "79-Clackamas\/Oregon City", "dir_desc": "To Oregon City TC", "type": "BUS", "stop_seq": 900, "stop_id": 5538, "stop_name": "SE Strawberry & Fragrance", "jurisdic": "Clackamas Co.", "zipcode": "97267", "frequent": "False" }, "geometry": { "type": "Point", "coordinates": [ -122.578279888657377, 45.399453936090012 ] } },
{ "type": "Feature", "properties": { "rte": 79, "dir": 0, "rte_desc": "79-Clackamas\/Oregon City", "dir_desc": "To Oregon City TC", "type": "BUS", "stop_seq": 1000, "stop_id": 5541, "stop_name": "SE Strawberry & Webster", "jurisdic": "Clackamas Co.", "zipcode": "97267", "frequent": "False" }, "geometry": { "type": "Point", "coordinates": [ -122.585275190832789, 45.401295702742033 ] } },
{ "type": "Feature", "properties": { "rte": 79, "dir": 0, "rte_desc": "79-Clackamas\/Oregon City", "dir_desc": "To Oregon City TC", "type": "BUS", "stop_seq": 1800, "stop_id": 122, "stop_name": "W Arlington & Barton", "jurisdic": "Gladstone", "zipcode": "97027", "frequent": "False" }, "geometry": { "type": "Point", "coordinates": [ -122.598663593242307, 45.376600067392353 ] } },
{ "type": "Feature", "properties": { "rte": 79, "dir": 0, "rte_desc": "79-Clackamas\/Oregon City", "dir_desc": "To Oregon City TC", "type": "BUS", "stop_seq": 1750, "stop_id": 124, "stop_name": "W Arlington & Beatrice", "jurisdic": "Gladstone", "zipcode": "97027", "frequent": "False" }, "geometry": { "type": "Point", "coordinates": [ -122.596764586671483, 45.377228528180304 ] } },
{ "type": "Feature", "properties": { "rte": 79, "dir": 0, "rte_desc": "79-Clackamas\/Oregon City", "dir_desc": "To Oregon City TC", "type": "BUS", "stop_seq": 1700, "stop_id": 126, "stop_name": "W Arlington & Bellevue", "jurisdic": "Gladstone", "zipcode": "97027", "frequent": "False" }, "geometry": { "type": "Point", "coordinates": [ -122.594888933894183, 45.377867037193901 ] } },
{ "type": "Feature", "properties": { "rte": 79, "dir": 0, "rte_desc": "79-Clackamas\/Oregon City", "dir_desc": "To Oregon City TC", "type": "BUS", "stop_seq": 400, "stop_id": 8077, "stop_name": "SE 82nd Dr & Jannsen", "jurisdic": "Clackamas Co.", "zipcode": "97015", "frequent": "False" }, "geometry": { "type": "Point", "coordinates": [ -122.569272621041875, 45.414801186176646 ] } },
{ "type": "Feature", "properties": { "rte": 79, "dir": 0, "rte_desc": "79-Clackamas\/Oregon City", "dir_desc": "To Oregon City TC", "type": "BUS", "stop_seq": 800, "stop_id": 8078, "stop_name": "SE 82nd Dr & Manfield Ct", "jurisdic": "Clackamas Co.", "zipcode": "97015", "frequent": "False" }, "geometry": { "type": "Point", "coordinates": [ -122.571540315391161, 45.397143713873078 ] } },
{ "type": "Feature", "properties": { "rte": 79, "dir": 0, "rte_desc": "79-Clackamas\/Oregon City", "dir_desc": "To Oregon City TC", "type": "BUS", "stop_seq": 450, "stop_id": 8082, "stop_name": "SE 82nd Dr & Tolbert", "jurisdic": "Clackamas Co.", "zipcode": "97015", "frequent": "False" }, "geometry": { "type": "Point", "coordinates": [ -122.568320382835097, 45.412200443574271 ] } },
{ "type": "Feature", "properties": { "rte": 79, "dir": 0, "rte_desc": "79-Clackamas\/Oregon City", "dir_desc": "To Oregon City TC", "type": "BUS", "stop_seq": 550, "stop_id": 8086, "stop_name": "15900 Block SE 82nd Dr", "jurisdic": "Clackamas Co.", "zipcode": "97015", "frequent": "False" }, "geometry": { "type": "Point", "coordinates": [ -122.568988220022192, 45.408421998168606 ] } },
{ "type": "Feature", "properties": { "rte": 79, "dir": 0, "rte_desc": "79-Clackamas\/Oregon City", "dir_desc": "To Oregon City TC", "type": "BUS", "stop_seq": 2000, "stop_id": 8760, "stop_name": "Oregon City Transit Center", "jurisdic": "Oregon City", "zipcode": "97045", "frequent": "False" }, "geometry": { "type": "Point", "coordinates": [ -122.604688858932477, 45.36016916537092 ] } },
{ "type": "Feature", "properties": { "rte": 79, "dir": 0, "rte_desc": "79-Clackamas\/Oregon City", "dir_desc": "To Oregon City TC", "type": "BUS", "stop_seq": 150, "stop_id": 8006, "stop_name": "SE 82nd & McBride", "jurisdic": "Clackamas Co.", "zipcode": "97222", "frequent": "False" }, "geometry": { "type": "Point", "coordinates": [ -122.579260427224071, 45.43593930435523 ] } },
{ "type": "Feature", "properties": { "rte": 79, "dir": 0, "rte_desc": "79-Clackamas\/Oregon City", "dir_desc": "To Oregon City TC", "type": "BUS", "stop_seq": 600, "stop_id": 8072, "stop_name": "SE 82nd Dr & Greenhouse Square", "jurisdic": "Clackamas Co.", "zipcode": "97015", "frequent": "False" }, "geometry": { "type": "Point", "coordinates": [ -122.568970104262732, 45.40519435520217 ] } },
{ "type": "Feature", "properties": { "rte": 79, "dir": 0, "rte_desc": "79-Clackamas\/Oregon City", "dir_desc": "To Oregon City TC", "type": "BUS", "stop_seq": 1350, "stop_id": 4164, "stop_name": "Oatfield & E Hereford", "jurisdic": "Gladstone", "zipcode": "97027", "frequent": "False" }, "geometry": { "type": "Point", "coordinates": [ -122.585052225836009, 45.386149697108515 ] } },
{ "type": "Feature", "properties": { "rte": 79, "dir": 0, "rte_desc": "79-Clackamas\/Oregon City", "dir_desc": "To Oregon City TC", "type": "BUS", "stop_seq": 250, "stop_id": 7975, "stop_name": "SE 82nd & Harmony", "jurisdic": "Clackamas Co.", "zipcode": "97015", "frequent": "False" }, "geometry": { "type": "Point", "coordinates": [ -122.579440408021256, 45.432221527659792 ] } },
{ "type": "Feature", "properties": { "rte": 79, "dir": 0, "rte_desc": "79-Clackamas\/Oregon City", "dir_desc": "To Oregon City TC", "type": "BUS", "stop_seq": 1200, "stop_id": 6194, "stop_name": "Webster & Clayton", "jurisdic": "Gladstone", "zipcode": "97027", "frequent": "False" }, "geometry": { "type": "Point", "coordinates": [ -122.583675813993793, 45.393113116563001 ] } },
{ "type": "Feature", "properties": { "rte": 79, "dir": 0, "rte_desc": "79-Clackamas\/Oregon City", "dir_desc": "To Oregon City TC", "type": "BUS", "stop_seq": 1150, "stop_id": 6198, "stop_name": "Webster & Kraxberger Middle School", "jurisdic": "Gladstone", "zipcode": "97027", "frequent": "False" }, "geometry": { "type": "Point", "coordinates": [ -122.585028877521694, 45.394881364358056 ] } },
{ "type": "Feature", "properties": { "rte": 79, "dir": 0, "rte_desc": "79-Clackamas\/Oregon City", "dir_desc": "To Oregon City TC", "type": "BUS", "stop_seq": 350, "stop_id": 8075, "stop_name": "SE 82nd Dr & Herbert Ct", "jurisdic": "Clackamas Co.", "zipcode": "97015", "frequent": "False" }, "geometry": { "type": "Point", "coordinates": [ -122.571155196704652, 45.417621122498566 ] } },
{ "type": "Feature", "properties": { "rte": 79, "dir": 0, "rte_desc": "79-Clackamas\/Oregon City", "dir_desc": "To Oregon City TC", "type": "BUS", "stop_seq": 950, "stop_id": 5536, "stop_name": "SE Strawberry & Stanhelma", "jurisdic": "Clackamas Co.", "zipcode": "97267", "frequent": "False" }, "geometry": { "type": "Point", "coordinates": [ -122.581828489678458, 45.400630791004495 ] } },
{ "type": "Feature", "properties": { "rte": 79, "dir": 0, "rte_desc": "79-Clackamas\/Oregon City", "dir_desc": "To Oregon City TC", "type": "BUS", "stop_seq": 650, "stop_id": 8067, "stop_name": "SE 82nd Dr & Beaverlake Dr", "jurisdic": "Clackamas Co.", "zipcode": "97015", "frequent": "False" }, "geometry": { "type": "Point", "coordinates": [ -122.569095822454486, 45.402295440064613 ] } },
{ "type": "Feature", "properties": { "rte": 79, "dir": 0, "rte_desc": "79-Clackamas\/Oregon City", "dir_desc": "To Oregon City TC", "type": "BUS", "stop_seq": 300, "stop_id": 10446, "stop_name": "SE 82nd & Sunnybrook", "jurisdic": "Clackamas Co.", "zipcode": "97015", "frequent": "False" }, "geometry": { "type": "Point", "coordinates": [ -122.579328924243256, 45.430332496234676 ] } },
{ "type": "Feature", "properties": { "rte": 79, "dir": 0, "rte_desc": "79-Clackamas\/Oregon City", "dir_desc": "To Oregon City TC", "type": "BUS", "stop_seq": 1450, "stop_id": 4154, "stop_name": "Oatfield & E Exeter", "jurisdic": "Gladstone", "zipcode": "97027", "frequent": "False" }, "geometry": { "type": "Point", "coordinates": [ -122.584293631341225, 45.384609939778422 ] } },
{ "type": "Feature", "properties": { "rte": 79, "dir": 0, "rte_desc": "79-Clackamas\/Oregon City", "dir_desc": "To Oregon City TC", "type": "BUS", "stop_seq": 750, "stop_id": 8080, "stop_name": "SE 82nd Dr & Scotts Tree Way", "jurisdic": "Clackamas Co.", "zipcode": "97015", "frequent": "False" }, "geometry": { "type": "Point", "coordinates": [ -122.570225934727233, 45.398230080342323 ] } },
{ "type": "Feature", "properties": { "rte": 79, "dir": 0, "rte_desc": "79-Clackamas\/Oregon City", "dir_desc": "To Oregon City TC", "type": "BUS", "stop_seq": 850, "stop_id": 5540, "stop_name": "SE Strawberry & Stratford", "jurisdic": "Clackamas Co.", "zipcode": "97267", "frequent": "False" }, "geometry": { "type": "Point", "coordinates": [ -122.575082424592338, 45.398490511012994 ] } },
{ "type": "Feature", "properties": { "rte": 79, "dir": 0, "rte_desc": "79-Clackamas\/Oregon City", "dir_desc": "To Oregon City TC", "type": "BUS", "stop_seq": 1900, "stop_id": 135, "stop_name": "W Arlington & McLoughlin", "jurisdic": "Gladstone", "zipcode": "97027", "frequent": "False" }, "geometry": { "type": "Point", "coordinates": [ -122.600891835594226, 45.375963058754756 ] } },
{ "type": "Feature", "properties": { "rte": 79, "dir": 0, "rte_desc": "79-Clackamas\/Oregon City", "dir_desc": "To Oregon City TC", "type": "BUS", "stop_seq": 1650, "stop_id": 4456, "stop_name": "Portland Ave & W Arlington", "jurisdic": "Gladstone", "zipcode": "97027", "frequent": "False" }, "geometry": { "type": "Point", "coordinates": [ -122.593539166399651, 45.378497998722004 ] } },
{ "type": "Feature", "properties": { "rte": 79, "dir": 0, "rte_desc": "79-Clackamas\/Oregon City", "dir_desc": "To Oregon City TC", "type": "BUS", "stop_seq": 1050, "stop_id": 13149, "stop_name": "17100 Block SE Webster", "jurisdic": "Clackamas Co.", "zipcode": "97027", "frequent": "False" }, "geometry": { "type": "Point", "coordinates": [ -122.586052254889154, 45.398929645174697 ] } },
{ "type": "Feature", "properties": { "rte": 79, "dir": 0, "rte_desc": "79-Clackamas\/Oregon City", "dir_desc": "To Oregon City TC", "type": "BUS", "stop_seq": 1950, "stop_id": 3831, "stop_name": "McLoughlin & Clackamette Dr", "jurisdic": "Oregon City", "zipcode": "97045", "frequent": "False" }, "geometry": { "type": "Point", "coordinates": [ -122.601375864289778, 45.368364099971373 ] } },
{ "type": "Feature", "properties": { "rte": 79, "dir": 0, "rte_desc": "79-Clackamas\/Oregon City", "dir_desc": "To Oregon City TC", "type": "BUS", "stop_seq": 50, "stop_id": 13248, "stop_name": "Clackamas Town Center Transit Center", "jurisdic": "Clackamas Co.", "zipcode": "97086", "frequent": "False" }, "geometry": { "type": "Point", "coordinates": [ -122.568707452947379, 45.435669419483048 ] } },
{ "type": "Feature", "properties": { "rte": 79, "dir": 0, "rte_desc": "79-Clackamas\/Oregon City", "dir_desc": "To Oregon City TC", "type": "BUS", "stop_seq": 700, "stop_id": 8085, "stop_name": "16700 Block SE 82nd Dr", "jurisdic": "Clackamas Co.", "zipcode": "97015", "frequent": "False" }, "geometry": { "type": "Point", "coordinates": [ -122.569257105703457, 45.400817794598488 ] } },
{ "type": "Feature", "properties": { "rte": 79, "dir": 0, "rte_desc": "79-Clackamas\/Oregon City", "dir_desc": "To Oregon City TC", "type": "BUS", "stop_seq": 75, "stop_id": 12922, "stop_name": "Clackamas Town Center Mall", "jurisdic": "Clackamas Co.", "zipcode": "97086", "frequent": "False" }, "geometry": { "type": "Point", "coordinates": [ -122.574003185804656, 45.437506594559366 ] } },
{ "type": "Feature", "properties": { "rte": 79, "dir": 0, "rte_desc": "79-Clackamas\/Oregon City", "dir_desc": "To Oregon City TC", "type": "BUS", "stop_seq": 1250, "stop_id": 13153, "stop_name": "Webster & Cason", "jurisdic": "Gladstone", "zipcode": "97027", "frequent": "False" }, "geometry": { "type": "Point", "coordinates": [ -122.584170974101511, 45.390505290268642 ] } },
{ "type": "Feature", "properties": { "rte": 79, "dir": 0, "rte_desc": "79-Clackamas\/Oregon City", "dir_desc": "To Oregon City TC", "type": "BUS", "stop_seq": 200, "stop_id": 8050, "stop_name": "SE 82nd & Sunnyside Dr", "jurisdic": "Clackamas Co.", "zipcode": "97222", "frequent": "False" }, "geometry": { "type": "Point", "coordinates": [ -122.579366489749205, 45.433749620366022 ] } }
]
}
