{
"type": "FeatureCollection",
"crs": { "type": "name", "properties": { "name": "urn:ogc:def:crs:OGC:1.3:CRS84" } },
                                                                                
"features": [
{ "type": "Feature", "properties": { "rte": "85", "rte_desc": "85-LCC\/Springfield", "dir": "1", "dir_desc": "Inbound", "stop_id": "02304", "stop_name": "LCC Station Bay D", "stop_seq": "1" }, "geometry": { "type": "Point", "coordinates": [ -123.0351232, 44.0099128 ] } },
{ "type": "Feature", "properties": { "rte": "85", "rte_desc": "85-LCC\/Springfield", "dir": "1", "dir_desc": "Inbound", "stop_id": "01097", "stop_name": "S\/S of 30th W of Eldon Schafer", "stop_seq": "2" }, "geometry": { "type": "Point", "coordinates": [ -123.0296688, 44.0137286 ] } },
{ "type": "Feature", "properties": { "rte": "85", "rte_desc": "85-LCC\/Springfield", "dir": "1", "dir_desc": "Inbound", "stop_id": "01163", "stop_name": "E\/S of McVay Hwy N of Fir Cove Ave", "stop_seq": "3" }, "geometry": { "type": "Point", "coordinates": [ -123.0254243, 44.0176166 ] } },
{ "type": "Feature", "properties": { "rte": "85", "rte_desc": "85-LCC\/Springfield", "dir": "1", "dir_desc": "Inbound", "stop_id": "01422", "stop_name": "E\/S of Old Franklin S of Nugget Way", "stop_seq": "4" }, "geometry": { "type": "Point", "coordinates": [ -123.0272637, 44.0271988 ] } },
{ "type": "Feature", "properties": { "rte": "85", "rte_desc": "85-LCC\/Springfield", "dir": "1", "dir_desc": "Inbound", "stop_id": "01854", "stop_name": "E\/S of Old Franklin N of Dw 512", "stop_seq": "5" }, "geometry": { "type": "Point", "coordinates": [ -123.026656099999983, 44.0330163 ] } },
{ "type": "Feature", "properties": { "rte": "85", "rte_desc": "85-LCC\/Springfield", "dir": "1", "dir_desc": "Inbound", "stop_id": "01160", "stop_name": "E\/S of Old Franklin S of Nugget", "stop_seq": "6" }, "geometry": { "type": "Point", "coordinates": [ -123.0268795, 44.0351264 ] } },
{ "type": "Feature", "properties": { "rte": "85", "rte_desc": "85-LCC\/Springfield", "dir": "1", "dir_desc": "Inbound", "stop_id": "01159", "stop_name": "E\/S of Old Franklin S of 20th", "stop_seq": "7" }, "geometry": { "type": "Point", "coordinates": [ -123.0277635, 44.0385103 ] } },
{ "type": "Feature", "properties": { "rte": "85", "rte_desc": "85-LCC\/Springfield", "dir": "1", "dir_desc": "Inbound", "stop_id": "01157", "stop_name": "E\/S of Old Franklin S of 19th", "stop_seq": "8" }, "geometry": { "type": "Point", "coordinates": [ -123.0292102, 44.0414003 ] } },
{ "type": "Feature", "properties": { "rte": "85", "rte_desc": "85-LCC\/Springfield", "dir": "1", "dir_desc": "Inbound", "stop_id": "01228", "stop_name": "E\/S of Old Franklin N of 19th", "stop_seq": "9" }, "geometry": { "type": "Point", "coordinates": [ -123.029928199999986, 44.0431014 ] } }
]
}
