{
"type": "FeatureCollection",
"crs": { "type": "name", "properties": { "name": "urn:ogc:def:crs:OGC:1.3:CRS84" } },
                                                                                
"features": [
{ "type": "Feature", "properties": { "rte": 87, "dir": 0, "rte_desc": "87-Airport Way\/181st", "dir_desc": "To Gresham TC", "type": "BUS", "stop_seq": 3300, "stop_id": 2650, "stop_name": "SW Heiney & Binford Lake", "jurisdic": "Gresham", "zipcode": "97080", "frequent": "False" }, "geometry": { "type": "Point", "coordinates": [ -122.452858563647155, 45.481199014180994 ] } },
{ "type": "Feature", "properties": { "rte": 87, "dir": 0, "rte_desc": "87-Airport Way\/181st", "dir_desc": "To Gresham TC", "type": "BUS", "stop_seq": 2900, "stop_id": 2667, "stop_name": "SW Highland & Linneman", "jurisdic": "Gresham", "zipcode": "97080", "frequent": "False" }, "geometry": { "type": "Point", "coordinates": [ -122.474742448026177, 45.486226235665058 ] } },
{ "type": "Feature", "properties": { "rte": 87, "dir": 0, "rte_desc": "87-Airport Way\/181st", "dir_desc": "To Gresham TC", "type": "BUS", "stop_seq": 2850, "stop_id": 2670, "stop_name": "SW Highland & 11th St", "jurisdic": "Gresham", "zipcode": "97080", "frequent": "False" }, "geometry": { "type": "Point", "coordinates": [ -122.475674200233811, 45.488875894289734 ] } },
{ "type": "Feature", "properties": { "rte": 87, "dir": 0, "rte_desc": "87-Airport Way\/181st", "dir_desc": "To Gresham TC", "type": "BUS", "stop_seq": 2950, "stop_id": 2671, "stop_name": "SW Highland & 14th Dr", "jurisdic": "Gresham", "zipcode": "97080", "frequent": "False" }, "geometry": { "type": "Point", "coordinates": [ -122.472516724214401, 45.485433517989939 ] } },
{ "type": "Feature", "properties": { "rte": 87, "dir": 0, "rte_desc": "87-Airport Way\/181st", "dir_desc": "To Gresham TC", "type": "BUS", "stop_seq": 3350, "stop_id": 470, "stop_name": "SW Binford Lake & Towle", "jurisdic": "Gresham", "zipcode": "97080", "frequent": "False" }, "geometry": { "type": "Point", "coordinates": [ -122.448534265779131, 45.480893158244356 ] } },
{ "type": "Feature", "properties": { "rte": 87, "dir": 0, "rte_desc": "87-Airport Way\/181st", "dir_desc": "To Gresham TC", "type": "BUS", "stop_seq": 3550, "stop_id": 1569, "stop_name": "SW Eastman & Birdsdale", "jurisdic": "Gresham", "zipcode": "97080", "frequent": "False" }, "geometry": { "type": "Point", "coordinates": [ -122.447410014362219, 45.491454478216539 ] } },
{ "type": "Feature", "properties": { "rte": 87, "dir": 0, "rte_desc": "87-Airport Way\/181st", "dir_desc": "To Gresham TC", "type": "BUS", "stop_seq": 3650, "stop_id": 1577, "stop_name": "SW Eastman & Florence", "jurisdic": "Gresham", "zipcode": "97080", "frequent": "False" }, "geometry": { "type": "Point", "coordinates": [ -122.442112901120495, 45.494647177814478 ] } },
{ "type": "Feature", "properties": { "rte": 87, "dir": 0, "rte_desc": "87-Airport Way\/181st", "dir_desc": "To Gresham TC", "type": "BUS", "stop_seq": 3700, "stop_id": 1580, "stop_name": "SW Eastman & W Powell", "jurisdic": "Gresham", "zipcode": "97030", "frequent": "False" }, "geometry": { "type": "Point", "coordinates": [ -122.438093573573227, 45.496958020033041 ] } },
{ "type": "Feature", "properties": { "rte": 87, "dir": 0, "rte_desc": "87-Airport Way\/181st", "dir_desc": "To Gresham TC", "type": "BUS", "stop_seq": 3800, "stop_id": 1582, "stop_name": "600 Block NW Eastman (Townfair)", "jurisdic": "Gresham", "zipcode": "97030", "frequent": "False" }, "geometry": { "type": "Point", "coordinates": [ -122.435945169812314, 45.502047454264073 ] } },
{ "type": "Feature", "properties": { "rte": 87, "dir": 0, "rte_desc": "87-Airport Way\/181st", "dir_desc": "To Gresham TC", "type": "BUS", "stop_seq": 3750, "stop_id": 1585, "stop_name": "NW Eastman & 3rd", "jurisdic": "Gresham", "zipcode": "97030", "frequent": "False" }, "geometry": { "type": "Point", "coordinates": [ -122.436343096849825, 45.499876806784151 ] } },
{ "type": "Feature", "properties": { "rte": 87, "dir": 0, "rte_desc": "87-Airport Way\/181st", "dir_desc": "To Gresham TC", "type": "BUS", "stop_seq": 3450, "stop_id": 5853, "stop_name": "SW Towle & 14th", "jurisdic": "Gresham", "zipcode": "97080", "frequent": "False" }, "geometry": { "type": "Point", "coordinates": [ -122.447802451802801, 45.487285991737181 ] } },
{ "type": "Feature", "properties": { "rte": 87, "dir": 0, "rte_desc": "87-Airport Way\/181st", "dir_desc": "To Gresham TC", "type": "BUS", "stop_seq": 1500, "stop_id": 10994, "stop_name": "NE Airport Way & 158th", "jurisdic": "Portland", "zipcode": "97230", "frequent": "False" }, "geometry": { "type": "Point", "coordinates": [ -122.499475501991526, 45.557314328245397 ] } },
{ "type": "Feature", "properties": { "rte": 87, "dir": 0, "rte_desc": "87-Airport Way\/181st", "dir_desc": "To Gresham TC", "type": "BUS", "stop_seq": 4100, "stop_id": 13638, "stop_name": "Gresham Transit Center", "jurisdic": "Gresham", "zipcode": "97030", "frequent": "False" }, "geometry": { "type": "Point", "coordinates": [ -122.427270917545002, 45.502992514820683 ] } },
{ "type": "Feature", "properties": { "rte": 87, "dir": 0, "rte_desc": "87-Airport Way\/181st", "dir_desc": "To Gresham TC", "type": "BUS", "stop_seq": 2250, "stop_id": 11073, "stop_name": "SE 181st Ave & 180th Ave", "jurisdic": "Gresham", "zipcode": "97233", "frequent": "False" }, "geometry": { "type": "Point", "coordinates": [ -122.47713548158967, 45.518112831018996 ] } },
{ "type": "Feature", "properties": { "rte": 87, "dir": 0, "rte_desc": "87-Airport Way\/181st", "dir_desc": "To Gresham TC", "type": "BUS", "stop_seq": 150, "stop_id": 4287, "stop_name": "10000 Block NE Pacific St", "jurisdic": "Portland", "zipcode": "97220", "frequent": "False" }, "geometry": { "type": "Point", "coordinates": [ -122.560866197918358, 45.529407073026306 ] } },
{ "type": "Feature", "properties": { "rte": 87, "dir": 0, "rte_desc": "87-Airport Way\/181st", "dir_desc": "To Gresham TC", "type": "BUS", "stop_seq": 3050, "stop_id": 6742, "stop_name": "SW 14th Dr & Tegart", "jurisdic": "Gresham", "zipcode": "97080", "frequent": "False" }, "geometry": { "type": "Point", "coordinates": [ -122.464195083230294, 45.486621799482187 ] } },
{ "type": "Feature", "properties": { "rte": 87, "dir": 0, "rte_desc": "87-Airport Way\/181st", "dir_desc": "To Gresham TC", "type": "BUS", "stop_seq": 2050, "stop_id": 6920, "stop_name": "NE 181st & Glisan", "jurisdic": "Gresham", "zipcode": "97230", "frequent": "False" }, "geometry": { "type": "Point", "coordinates": [ -122.477229794351032, 45.526014418845534 ] } },
{ "type": "Feature", "properties": { "rte": 87, "dir": 0, "rte_desc": "87-Airport Way\/181st", "dir_desc": "To Gresham TC", "type": "BUS", "stop_seq": 1950, "stop_id": 6923, "stop_name": "NE 181st & Wasco", "jurisdic": "Gresham", "zipcode": "97230", "frequent": "False" }, "geometry": { "type": "Point", "coordinates": [ -122.477439645892247, 45.531851053788529 ] } },
{ "type": "Feature", "properties": { "rte": 87, "dir": 0, "rte_desc": "87-Airport Way\/181st", "dir_desc": "To Gresham TC", "type": "BUS", "stop_seq": 2300, "stop_id": 6929, "stop_name": "SE 181st & Yamhill", "jurisdic": "Gresham", "zipcode": "97233", "frequent": "False" }, "geometry": { "type": "Point", "coordinates": [ -122.476241861753337, 45.515747957180281 ] } },
{ "type": "Feature", "properties": { "rte": 87, "dir": 0, "rte_desc": "87-Airport Way\/181st", "dir_desc": "To Gresham TC", "type": "BUS", "stop_seq": 2550, "stop_id": 6935, "stop_name": "SE 182nd & Division", "jurisdic": "Gresham", "zipcode": "97030", "frequent": "False" }, "geometry": { "type": "Point", "coordinates": [ -122.475782681031589, 45.504186191909689 ] } },
{ "type": "Feature", "properties": { "rte": 87, "dir": 0, "rte_desc": "87-Airport Way\/181st", "dir_desc": "To Gresham TC", "type": "BUS", "stop_seq": 2400, "stop_id": 6938, "stop_name": "SE 182nd & Market", "jurisdic": "Gresham", "zipcode": "97233", "frequent": "False" }, "geometry": { "type": "Point", "coordinates": [ -122.475879219226812, 45.512419727975299 ] } },
{ "type": "Feature", "properties": { "rte": 87, "dir": 0, "rte_desc": "87-Airport Way\/181st", "dir_desc": "To Gresham TC", "type": "BUS", "stop_seq": 2800, "stop_id": 6941, "stop_name": "SE 182nd & W Powell", "jurisdic": "Gresham", "zipcode": "97030", "frequent": "False" }, "geometry": { "type": "Point", "coordinates": [ -122.475686851587326, 45.491334776204816 ] } },
{ "type": "Feature", "properties": { "rte": 87, "dir": 0, "rte_desc": "87-Airport Way\/181st", "dir_desc": "To Gresham TC", "type": "BUS", "stop_seq": 2600, "stop_id": 6944, "stop_name": "SE 182nd & Tibbetts", "jurisdic": "Gresham", "zipcode": "97030", "frequent": "False" }, "geometry": { "type": "Point", "coordinates": [ -122.475740615880298, 45.500859208056937 ] } },
{ "type": "Feature", "properties": { "rte": 87, "dir": 0, "rte_desc": "87-Airport Way\/181st", "dir_desc": "To Gresham TC", "type": "BUS", "stop_seq": 3100, "stop_id": 6737, "stop_name": "SW 14th Dr & Binford", "jurisdic": "Gresham", "zipcode": "97080", "frequent": "False" }, "geometry": { "type": "Point", "coordinates": [ -122.46061638074525, 45.486040400025672 ] } },
{ "type": "Feature", "properties": { "rte": 87, "dir": 0, "rte_desc": "87-Airport Way\/181st", "dir_desc": "To Gresham TC", "type": "BUS", "stop_seq": 3000, "stop_id": 6744, "stop_name": "SW 14th Dr & Pleasant View Dr", "jurisdic": "Gresham", "zipcode": "97080", "frequent": "False" }, "geometry": { "type": "Point", "coordinates": [ -122.467928816244793, 45.486581183807779 ] } },
{ "type": "Feature", "properties": { "rte": 87, "dir": 0, "rte_desc": "87-Airport Way\/181st", "dir_desc": "To Gresham TC", "type": "BUS", "stop_seq": 1900, "stop_id": 8580, "stop_name": "NE 181st & Halsey", "jurisdic": "Gresham", "zipcode": "97230", "frequent": "False" }, "geometry": { "type": "Point", "coordinates": [ -122.477428894085918, 45.5348716073361 ] } },
{ "type": "Feature", "properties": { "rte": 87, "dir": 0, "rte_desc": "87-Airport Way\/181st", "dir_desc": "To Gresham TC", "type": "BUS", "stop_seq": 1850, "stop_id": 8714, "stop_name": "NE 181st & San Rafael", "jurisdic": "Gresham", "zipcode": "97230", "frequent": "False" }, "geometry": { "type": "Point", "coordinates": [ -122.477428079915526, 45.537337975304737 ] } },
{ "type": "Feature", "properties": { "rte": 87, "dir": 0, "rte_desc": "87-Airport Way\/181st", "dir_desc": "To Gresham TC", "type": "BUS", "stop_seq": 600, "stop_id": 6506, "stop_name": "NE 102nd & Beech", "jurisdic": "Portland", "zipcode": "97220", "frequent": "False" }, "geometry": { "type": "Point", "coordinates": [ -122.557677068452435, 45.55020349733951 ] } },
{ "type": "Feature", "properties": { "rte": 87, "dir": 0, "rte_desc": "87-Airport Way\/181st", "dir_desc": "To Gresham TC", "type": "BUS", "stop_seq": 400, "stop_id": 6508, "stop_name": "NE 102nd & Brazee", "jurisdic": "Portland", "zipcode": "97220", "frequent": "False" }, "geometry": { "type": "Point", "coordinates": [ -122.557808948681057, 45.540159381379098 ] } },
{ "type": "Feature", "properties": { "rte": 87, "dir": 0, "rte_desc": "87-Airport Way\/181st", "dir_desc": "To Gresham TC", "type": "BUS", "stop_seq": 550, "stop_id": 6514, "stop_name": "NE 102nd & Fremont", "jurisdic": "Portland", "zipcode": "97220", "frequent": "False" }, "geometry": { "type": "Point", "coordinates": [ -122.557639102647656, 45.547972983706231 ] } },
{ "type": "Feature", "properties": { "rte": 87, "dir": 0, "rte_desc": "87-Airport Way\/181st", "dir_desc": "To Gresham TC", "type": "BUS", "stop_seq": 1750, "stop_id": 10699, "stop_name": "2900 Block NE 181st", "jurisdic": "Gresham", "zipcode": "97230", "frequent": "False" }, "geometry": { "type": "Point", "coordinates": [ -122.477486488383377, 45.544075464731677 ] } },
{ "type": "Feature", "properties": { "rte": 87, "dir": 0, "rte_desc": "87-Airport Way\/181st", "dir_desc": "To Gresham TC", "type": "BUS", "stop_seq": 1100, "stop_id": 10716, "stop_name": "NE Airport Way & Win Sivers Drive", "jurisdic": "Portland", "zipcode": "97220", "frequent": "False" }, "geometry": { "type": "Point", "coordinates": [ -122.538107274992385, 45.567235774874831 ] } },
{ "type": "Feature", "properties": { "rte": 87, "dir": 0, "rte_desc": "87-Airport Way\/181st", "dir_desc": "To Gresham TC", "type": "BUS", "stop_seq": 1200, "stop_id": 10717, "stop_name": "13100 Block NE Airport Way", "jurisdic": "Portland", "zipcode": "97230", "frequent": "False" }, "geometry": { "type": "Point", "coordinates": [ -122.527474569145497, 45.56261903720165 ] } },
{ "type": "Feature", "properties": { "rte": 87, "dir": 0, "rte_desc": "87-Airport Way\/181st", "dir_desc": "To Gresham TC", "type": "BUS", "stop_seq": 1550, "stop_id": 10720, "stop_name": "16400 Block NE Airport Way", "jurisdic": "Portland", "zipcode": "97230", "frequent": "False" }, "geometry": { "type": "Point", "coordinates": [ -122.495493837941893, 45.556459415414949 ] } },
{ "type": "Feature", "properties": { "rte": 87, "dir": 0, "rte_desc": "87-Airport Way\/181st", "dir_desc": "To Gresham TC", "type": "BUS", "stop_seq": 1700, "stop_id": 10721, "stop_name": "NE Airport Way & Sandy Blvd", "jurisdic": "Gresham", "zipcode": "97230", "frequent": "False" }, "geometry": { "type": "Point", "coordinates": [ -122.477303402735728, 45.546314157092567 ] } },
{ "type": "Feature", "properties": { "rte": 87, "dir": 0, "rte_desc": "87-Airport Way\/181st", "dir_desc": "To Gresham TC", "type": "BUS", "stop_seq": 200, "stop_id": 6522, "stop_name": "1200 Block NE 102nd", "jurisdic": "Portland", "zipcode": "97220", "frequent": "False" }, "geometry": { "type": "Point", "coordinates": [ -122.557940395948577, 45.531611954068232 ] } },
{ "type": "Feature", "properties": { "rte": 87, "dir": 0, "rte_desc": "87-Airport Way\/181st", "dir_desc": "To Gresham TC", "type": "BUS", "stop_seq": 2200, "stop_id": 9061, "stop_name": "181st & Burnside", "jurisdic": "Gresham", "zipcode": "97233", "frequent": "False" }, "geometry": { "type": "Point", "coordinates": [ -122.477277704661418, 45.521525290148524 ] } },
{ "type": "Feature", "properties": { "rte": 87, "dir": 0, "rte_desc": "87-Airport Way\/181st", "dir_desc": "To Gresham TC", "type": "BUS", "stop_seq": 650, "stop_id": 6528, "stop_name": "NE 102nd & Shaver", "jurisdic": "Portland", "zipcode": "97220", "frequent": "False" }, "geometry": { "type": "Point", "coordinates": [ -122.557667709893764, 45.551664309416125 ] } },
{ "type": "Feature", "properties": { "rte": 87, "dir": 0, "rte_desc": "87-Airport Way\/181st", "dir_desc": "To Gresham TC", "type": "BUS", "stop_seq": 350, "stop_id": 6530, "stop_name": "NE 102nd & Tillamook", "jurisdic": "Portland", "zipcode": "97220", "frequent": "False" }, "geometry": { "type": "Point", "coordinates": [ -122.557860599627119, 45.537436121213432 ] } },
{ "type": "Feature", "properties": { "rte": 87, "dir": 0, "rte_desc": "87-Airport Way\/181st", "dir_desc": "To Gresham TC", "type": "BUS", "stop_seq": 2750, "stop_id": 8800, "stop_name": "4100 Block SE 182nd", "jurisdic": "Gresham", "zipcode": "97030", "frequent": "False" }, "geometry": { "type": "Point", "coordinates": [ -122.47569873710637, 45.492429551981793 ] } },
{ "type": "Feature", "properties": { "rte": 87, "dir": 0, "rte_desc": "87-Airport Way\/181st", "dir_desc": "To Gresham TC", "type": "BUS", "stop_seq": 950, "stop_id": 9106, "stop_name": "NE 105th & Simpson", "jurisdic": "Portland", "zipcode": "97220", "frequent": "False" }, "geometry": { "type": "Point", "coordinates": [ -122.554630310586575, 45.565358734272579 ] } },
{ "type": "Feature", "properties": { "rte": 87, "dir": 0, "rte_desc": "87-Airport Way\/181st", "dir_desc": "To Gresham TC", "type": "BUS", "stop_seq": 1000, "stop_id": 9107, "stop_name": "11000 Block NE Holman", "jurisdic": "Portland", "zipcode": "97220", "frequent": "False" }, "geometry": { "type": "Point", "coordinates": [ -122.548257282986427, 45.568137066519597 ] } },
{ "type": "Feature", "properties": { "rte": 87, "dir": 0, "rte_desc": "87-Airport Way\/181st", "dir_desc": "To Gresham TC", "type": "BUS", "stop_seq": 1050, "stop_id": 9108, "stop_name": "NE Airport Way & Ainsworth Circle", "jurisdic": "Portland", "zipcode": "97220", "frequent": "False" }, "geometry": { "type": "Point", "coordinates": [ -122.542864385810915, 45.567080300901274 ] } },
{ "type": "Feature", "properties": { "rte": 87, "dir": 0, "rte_desc": "87-Airport Way\/181st", "dir_desc": "To Gresham TC", "type": "BUS", "stop_seq": 1250, "stop_id": 9112, "stop_name": "NE Airport Way & 138th", "jurisdic": "Portland", "zipcode": "97230", "frequent": "False" }, "geometry": { "type": "Point", "coordinates": [ -122.521542337604018, 45.5618201270048 ] } },
{ "type": "Feature", "properties": { "rte": 87, "dir": 0, "rte_desc": "87-Airport Way\/181st", "dir_desc": "To Gresham TC", "type": "BUS", "stop_seq": 1800, "stop_id": 11231, "stop_name": "NE 181st & Wilkes", "jurisdic": "Gresham", "zipcode": "97230", "frequent": "False" }, "geometry": { "type": "Point", "coordinates": [ -122.477448960170477, 45.539984287885886 ] } },
{ "type": "Feature", "properties": { "rte": 87, "dir": 0, "rte_desc": "87-Airport Way\/181st", "dir_desc": "To Gresham TC", "type": "BUS", "stop_seq": 500, "stop_id": 6521, "stop_name": "NE 102nd & Morris Ct", "jurisdic": "Portland", "zipcode": "97220", "frequent": "False" }, "geometry": { "type": "Point", "coordinates": [ -122.557691132490547, 45.544319675146717 ] } },
{ "type": "Feature", "properties": { "rte": 87, "dir": 0, "rte_desc": "87-Airport Way\/181st", "dir_desc": "To Gresham TC", "type": "BUS", "stop_seq": 1450, "stop_id": 10719, "stop_name": "NE Airport Way & 152nd Place", "jurisdic": "Portland", "zipcode": "97230", "frequent": "False" }, "geometry": { "type": "Point", "coordinates": [ -122.505668903274099, 45.558744648239873 ] } },
{ "type": "Feature", "properties": { "rte": 87, "dir": 0, "rte_desc": "87-Airport Way\/181st", "dir_desc": "To Gresham TC", "type": "BUS", "stop_seq": 1650, "stop_id": 11014, "stop_name": "NE Airport Way & Riverside", "jurisdic": "Portland", "zipcode": "97230", "frequent": "False" }, "geometry": { "type": "Point", "coordinates": [ -122.481263793053827, 45.553093897091038 ] } },
{ "type": "Feature", "properties": { "rte": 87, "dir": 0, "rte_desc": "87-Airport Way\/181st", "dir_desc": "To Gresham TC", "type": "BUS", "stop_seq": 3150, "stop_id": 6735, "stop_name": "SW 14th Dr & Battaglia", "jurisdic": "Gresham", "zipcode": "97080", "frequent": "False" }, "geometry": { "type": "Point", "coordinates": [ -122.458858484021079, 45.486461976372496 ] } },
{ "type": "Feature", "properties": { "rte": 87, "dir": 0, "rte_desc": "87-Airport Way\/181st", "dir_desc": "To Gresham TC", "type": "BUS", "stop_seq": 800, "stop_id": 13639, "stop_name": "NE 102nd & Sandy", "jurisdic": "Portland", "zipcode": "97220", "frequent": "False" }, "geometry": { "type": "Point", "coordinates": [ -122.55763946298444, 45.558615124642955 ] } },
{ "type": "Feature", "properties": { "rte": 87, "dir": 0, "rte_desc": "87-Airport Way\/181st", "dir_desc": "To Gresham TC", "type": "BUS", "stop_seq": 3200, "stop_id": 6739, "stop_name": "SW 14th Dr & Birdsdale", "jurisdic": "Gresham", "zipcode": "97080", "frequent": "False" }, "geometry": { "type": "Point", "coordinates": [ -122.455650830865707, 45.486709336808424 ] } },
{ "type": "Feature", "properties": { "rte": 87, "dir": 0, "rte_desc": "87-Airport Way\/181st", "dir_desc": "To Gresham TC", "type": "BUS", "stop_seq": 850, "stop_id": 9105, "stop_name": "NE 105th & Killingsworth", "jurisdic": "Portland", "zipcode": "97220", "frequent": "False" }, "geometry": { "type": "Point", "coordinates": [ -122.55463678067197, 45.560245131739364 ] } },
{ "type": "Feature", "properties": { "rte": 87, "dir": 0, "rte_desc": "87-Airport Way\/181st", "dir_desc": "To Gresham TC", "type": "BUS", "stop_seq": 3950, "stop_id": 1348, "stop_name": "NE Division & Main", "jurisdic": "Gresham", "zipcode": "97030", "frequent": "False" }, "geometry": { "type": "Point", "coordinates": [ -122.430201712867841, 45.504384896157291 ] } },
{ "type": "Feature", "properties": { "rte": 87, "dir": 0, "rte_desc": "87-Airport Way\/181st", "dir_desc": "To Gresham TC", "type": "BUS", "stop_seq": 2500, "stop_id": 6937, "stop_name": "SE 182nd & Lincoln", "jurisdic": "Gresham", "zipcode": "97233", "frequent": "False" }, "geometry": { "type": "Point", "coordinates": [ -122.475804474548795, 45.507676181633677 ] } },
{ "type": "Feature", "properties": { "rte": 87, "dir": 0, "rte_desc": "87-Airport Way\/181st", "dir_desc": "To Gresham TC", "type": "BUS", "stop_seq": 450, "stop_id": 8149, "stop_name": "NE 102nd & Knott", "jurisdic": "Portland", "zipcode": "97220", "frequent": "False" }, "geometry": { "type": "Point", "coordinates": [ -122.55777521832367, 45.542106890459394 ] } },
{ "type": "Feature", "properties": { "rte": 87, "dir": 0, "rte_desc": "87-Airport Way\/181st", "dir_desc": "To Gresham TC", "type": "BUS", "stop_seq": 3500, "stop_id": 5851, "stop_name": "SW Towle & 10th Dr", "jurisdic": "Gresham", "zipcode": "97080", "frequent": "False" }, "geometry": { "type": "Point", "coordinates": [ -122.447809918442161, 45.489779626565337 ] } },
{ "type": "Feature", "properties": { "rte": 87, "dir": 0, "rte_desc": "87-Airport Way\/181st", "dir_desc": "To Gresham TC", "type": "BUS", "stop_seq": 1150, "stop_id": 9110, "stop_name": "NE Airport Way & 122nd", "jurisdic": "Portland", "zipcode": "97220", "frequent": "False" }, "geometry": { "type": "Point", "coordinates": [ -122.533785123029929, 45.565499976462817 ] } },
{ "type": "Feature", "properties": { "rte": 87, "dir": 0, "rte_desc": "87-Airport Way\/181st", "dir_desc": "To Gresham TC", "type": "BUS", "stop_seq": 1350, "stop_id": 9537, "stop_name": "5200 Block NE 148th (PHC)", "jurisdic": "Portland", "zipcode": "97230", "frequent": "False" }, "geometry": { "type": "Point", "coordinates": [ -122.510406986312631, 45.560849345075312 ] } },
{ "type": "Feature", "properties": { "rte": 87, "dir": 0, "rte_desc": "87-Airport Way\/181st", "dir_desc": "To Gresham TC", "type": "BUS", "stop_seq": 50, "stop_id": 8194, "stop_name": "Gateway Transit Center", "jurisdic": "Portland", "zipcode": "97220", "frequent": "False" }, "geometry": { "type": "Point", "coordinates": [ -122.563773464516075, 45.530571493870696 ] } },
{ "type": "Feature", "properties": { "rte": 87, "dir": 0, "rte_desc": "87-Airport Way\/181st", "dir_desc": "To Gresham TC", "type": "BUS", "stop_seq": 2450, "stop_id": 6943, "stop_name": "SE 182nd & Stephens", "jurisdic": "Gresham", "zipcode": "97233", "frequent": "False" }, "geometry": { "type": "Point", "coordinates": [ -122.475840994999103, 45.509697480601261 ] } },
{ "type": "Feature", "properties": { "rte": 87, "dir": 0, "rte_desc": "87-Airport Way\/181st", "dir_desc": "To Gresham TC", "type": "BUS", "stop_seq": 900, "stop_id": 9619, "stop_name": "NE 105th & Marx", "jurisdic": "Portland", "zipcode": "97220", "frequent": "False" }, "geometry": { "type": "Point", "coordinates": [ -122.554642147677441, 45.56141677830292 ] } },
{ "type": "Feature", "properties": { "rte": 87, "dir": 0, "rte_desc": "87-Airport Way\/181st", "dir_desc": "To Gresham TC", "type": "BUS", "stop_seq": 300, "stop_id": 6518, "stop_name": "NE 102nd & Hancock", "jurisdic": "Portland", "zipcode": "97220", "frequent": "False" }, "geometry": { "type": "Point", "coordinates": [ -122.557876613467045, 45.536188622296912 ] } },
{ "type": "Feature", "properties": { "rte": 87, "dir": 0, "rte_desc": "87-Airport Way\/181st", "dir_desc": "To Gresham TC", "type": "BUS", "stop_seq": 1400, "stop_id": 10718, "stop_name": "NE Airport Way & 148th", "jurisdic": "Portland", "zipcode": "97230", "frequent": "False" }, "geometry": { "type": "Point", "coordinates": [ -122.509393816978474, 45.559438002679585 ] } },
{ "type": "Feature", "properties": { "rte": 87, "dir": 0, "rte_desc": "87-Airport Way\/181st", "dir_desc": "To Gresham TC", "type": "BUS", "stop_seq": 750, "stop_id": 10842, "stop_name": "NE 102nd & Prescott", "jurisdic": "Portland", "zipcode": "97220", "frequent": "False" }, "geometry": { "type": "Point", "coordinates": [ -122.557637376506761, 45.555276088146009 ] } },
{ "type": "Feature", "properties": { "rte": 87, "dir": 0, "rte_desc": "87-Airport Way\/181st", "dir_desc": "To Gresham TC", "type": "BUS", "stop_seq": 100, "stop_id": 10863, "stop_name": "Gateway Transit Center", "jurisdic": "Portland", "zipcode": "97220", "frequent": "False" }, "geometry": { "type": "Point", "coordinates": [ -122.563188147300949, 45.530039346105696 ] } },
{ "type": "Feature", "properties": { "rte": 87, "dir": 0, "rte_desc": "87-Airport Way\/181st", "dir_desc": "To Gresham TC", "type": "BUS", "stop_seq": 250, "stop_id": 6531, "stop_name": "NE 102nd & Weidler", "jurisdic": "Portland", "zipcode": "97220", "frequent": "False" }, "geometry": { "type": "Point", "coordinates": [ -122.557919253382451, 45.534023456659035 ] } },
{ "type": "Feature", "properties": { "rte": 87, "dir": 0, "rte_desc": "87-Airport Way\/181st", "dir_desc": "To Gresham TC", "type": "BUS", "stop_seq": 2650, "stop_id": 13199, "stop_name": "3500 Block SE 182nd", "jurisdic": "Gresham", "zipcode": "97030", "frequent": "False" }, "geometry": { "type": "Point", "coordinates": [ -122.475693893838823, 45.496761791245397 ] } },
{ "type": "Feature", "properties": { "rte": 87, "dir": 0, "rte_desc": "87-Airport Way\/181st", "dir_desc": "To Gresham TC", "type": "BUS", "stop_seq": 1600, "stop_id": 13201, "stop_name": "NE Airport Way & Mason Ct", "jurisdic": "Portland", "zipcode": "97230", "frequent": "False" }, "geometry": { "type": "Point", "coordinates": [ -122.489805308929689, 45.553801957141403 ] } },
{ "type": "Feature", "properties": { "rte": 87, "dir": 0, "rte_desc": "87-Airport Way\/181st", "dir_desc": "To Gresham TC", "type": "BUS", "stop_seq": 2700, "stop_id": 13076, "stop_name": "SE 182nd & Bush Terrace", "jurisdic": "Gresham", "zipcode": "97030", "frequent": "False" }, "geometry": { "type": "Point", "coordinates": [ -122.475700714819951, 45.494949208163 ] } },
{ "type": "Feature", "properties": { "rte": 87, "dir": 0, "rte_desc": "87-Airport Way\/181st", "dir_desc": "To Gresham TC", "type": "BUS", "stop_seq": 3850, "stop_id": 1331, "stop_name": "NW Division & Eastman Parkway", "jurisdic": "Gresham", "zipcode": "97030", "frequent": "False" }, "geometry": { "type": "Point", "coordinates": [ -122.435072376845923, 45.504370717381384 ] } },
{ "type": "Feature", "properties": { "rte": 87, "dir": 0, "rte_desc": "87-Airport Way\/181st", "dir_desc": "To Gresham TC", "type": "BUS", "stop_seq": 3600, "stop_id": 1587, "stop_name": "SW Eastman & 4th", "jurisdic": "Gresham", "zipcode": "97080", "frequent": "False" }, "geometry": { "type": "Point", "coordinates": [ -122.444619163325129, 45.493461353695643 ] } },
{ "type": "Feature", "properties": { "rte": 87, "dir": 0, "rte_desc": "87-Airport Way\/181st", "dir_desc": "To Gresham TC", "type": "BUS", "stop_seq": 2100, "stop_id": 6912, "stop_name": "NE 181st & Davis", "jurisdic": "Gresham", "zipcode": "97230", "frequent": "False" }, "geometry": { "type": "Point", "coordinates": [ -122.477245769849276, 45.523857095033705 ] } },
{ "type": "Feature", "properties": { "rte": 87, "dir": 0, "rte_desc": "87-Airport Way\/181st", "dir_desc": "To Gresham TC", "type": "BUS", "stop_seq": 1300, "stop_id": 13630, "stop_name": "Portland Habilitation Center", "jurisdic": "Portland", "zipcode": "97230", "frequent": "False" }, "geometry": { "type": "Point", "coordinates": [ -122.509873813148843, 45.561518766354865 ] } },
{ "type": "Feature", "properties": { "rte": 87, "dir": 0, "rte_desc": "87-Airport Way\/181st", "dir_desc": "To Gresham TC", "type": "BUS", "stop_seq": 2150, "stop_id": 13320, "stop_name": "SE 185th Ave\/Rockwood", "jurisdic": "Gresham", "zipcode": "97233", "frequent": "False" }, "geometry": { "type": "Point", "coordinates": [ -122.472727494733761, 45.520611325755951 ] } },
{ "type": "Feature", "properties": { "rte": 87, "dir": 0, "rte_desc": "87-Airport Way\/181st", "dir_desc": "To Gresham TC", "type": "BUS", "stop_seq": 3250, "stop_id": 13501, "stop_name": "SW Heiney & 18th Terrace", "jurisdic": "Gresham", "zipcode": "97080", "frequent": "False" }, "geometry": { "type": "Point", "coordinates": [ -122.453292017149991, 45.484009660396815 ] } },
{ "type": "Feature", "properties": { "rte": 87, "dir": 0, "rte_desc": "87-Airport Way\/181st", "dir_desc": "To Gresham TC", "type": "BUS", "stop_seq": 3400, "stop_id": 13502, "stop_name": "SW Towle & 17th Ct", "jurisdic": "Gresham", "zipcode": "97080", "frequent": "False" }, "geometry": { "type": "Point", "coordinates": [ -122.447805685558137, 45.484276823560137 ] } },
{ "type": "Feature", "properties": { "rte": 87, "dir": 0, "rte_desc": "87-Airport Way\/181st", "dir_desc": "To Gresham TC", "type": "BUS", "stop_seq": 4050, "stop_id": 13506, "stop_name": "Gresham Transit Center", "jurisdic": "Gresham", "zipcode": "97030", "frequent": "False" }, "geometry": { "type": "Point", "coordinates": [ -122.42772042672506, 45.502842852335498 ] } },
{ "type": "Feature", "properties": { "rte": 87, "dir": 0, "rte_desc": "87-Airport Way\/181st", "dir_desc": "To Gresham TC", "type": "BUS", "stop_seq": 2000, "stop_id": 13598, "stop_name": "800 Block NE 181st", "jurisdic": "Gresham", "zipcode": "97230", "frequent": "False" }, "geometry": { "type": "Point", "coordinates": [ -122.477191352670886, 45.528880506543778 ] } }
]
}
