{
"type": "FeatureCollection",
"crs": { "type": "name", "properties": { "name": "urn:ogc:def:crs:OGC:1.3:CRS84" } },
                                                                                
"features": [
{ "type": "Feature", "properties": { "rte": "98", "rte_desc": "98-Cottage Grove", "dir": "0", "dir_desc": "Outbound", "stop_id": "2114", "stop_name": "Eugene Station, Bay N", "stop_seq": "1" }, "geometry": { "type": "Point", "coordinates": [ -123.0929761, 44.0480469 ] } },
{ "type": "Feature", "properties": { "rte": "98", "rte_desc": "98-Cottage Grove", "dir": "0", "dir_desc": "Outbound", "stop_id": "1498", "stop_name": "S\/S of 13th W of Oak", "stop_seq": "2" }, "geometry": { "type": "Point", "coordinates": [ -123.0918141, 44.0454853 ] } },
{ "type": "Feature", "properties": { "rte": "98", "rte_desc": "98-Cottage Grove", "dir": "0", "dir_desc": "Outbound", "stop_id": "1037", "stop_name": "S\/S of 13th E of High", "stop_seq": "3" }, "geometry": { "type": "Point", "coordinates": [ -123.087718599999988, 44.0454938 ] } },
{ "type": "Feature", "properties": { "rte": "98", "rte_desc": "98-Cottage Grove", "dir": "0", "dir_desc": "Outbound", "stop_id": "1038", "stop_name": "S\/S of 13th E of Ferry", "stop_seq": "4" }, "geometry": { "type": "Point", "coordinates": [ -123.0846058, 44.045574 ] } },
{ "type": "Feature", "properties": { "rte": "98", "rte_desc": "98-Cottage Grove", "dir": "0", "dir_desc": "Outbound", "stop_id": "1039", "stop_name": "S\/S of 13th E of Hilyard", "stop_seq": "5" }, "geometry": { "type": "Point", "coordinates": [ -123.0814866, 44.0454836 ] } },
{ "type": "Feature", "properties": { "rte": "98", "rte_desc": "98-Cottage Grove", "dir": "0", "dir_desc": "Outbound", "stop_id": "2156", "stop_name": "University of Oregon Station - Bay C", "stop_seq": "6" }, "geometry": { "type": "Point", "coordinates": [ -123.078575300000011, 44.0461573 ] } },
{ "type": "Feature", "properties": { "rte": "98", "rte_desc": "98-Cottage Grove", "dir": "0", "dir_desc": "Outbound", "stop_id": "1067", "stop_name": "S\/S of Franklin Blvd E of Onyx", "stop_seq": "7" }, "geometry": { "type": "Point", "coordinates": [ -123.072792600000014, 44.0469893 ] } },
{ "type": "Feature", "properties": { "rte": "98", "rte_desc": "98-Cottage Grove", "dir": "0", "dir_desc": "Outbound", "stop_id": "1073", "stop_name": "S\/S of Franklin Blvd E of Walnut", "stop_seq": "8" }, "geometry": { "type": "Point", "coordinates": [ -123.0611683, 44.0446271 ] } },
{ "type": "Feature", "properties": { "rte": "98", "rte_desc": "98-Cottage Grove", "dir": "0", "dir_desc": "Outbound", "stop_id": "1162", "stop_name": "W\/S of McVay Hwy N of Bloomberg", "stop_seq": "9" }, "geometry": { "type": "Point", "coordinates": [ -123.025849599999987, 44.0183878 ] } },
{ "type": "Feature", "properties": { "rte": "98", "rte_desc": "98-Cottage Grove", "dir": "0", "dir_desc": "Outbound", "stop_id": "1096", "stop_name": "N\/S of 30th E of Eldon Schafer", "stop_seq": "10" }, "geometry": { "type": "Point", "coordinates": [ -123.0278828, 44.0138296 ] } },
{ "type": "Feature", "properties": { "rte": "98", "rte_desc": "98-Cottage Grove", "dir": "0", "dir_desc": "Outbound", "stop_id": "2305", "stop_name": "LCC Station Bay E", "stop_seq": "11" }, "geometry": { "type": "Point", "coordinates": [ -123.0352064, 44.0101051 ] } },
{ "type": "Feature", "properties": { "rte": "98", "rte_desc": "98-Cottage Grove", "dir": "0", "dir_desc": "Outbound", "stop_id": "1097", "stop_name": "S\/S of 30th W of Eldon Schafer", "stop_seq": "12" }, "geometry": { "type": "Point", "coordinates": [ -123.0296688, 44.0137286 ] } },
{ "type": "Feature", "properties": { "rte": "98", "rte_desc": "98-Cottage Grove", "dir": "0", "dir_desc": "Outbound", "stop_id": "9833", "stop_name": "N\/S of E. Oregon Ave. E of Hwy 99", "stop_seq": "13" }, "geometry": { "type": "Point", "coordinates": [ -123.0172841, 43.9179414 ] } },
{ "type": "Feature", "properties": { "rte": "98", "rte_desc": "98-Cottage Grove", "dir": "0", "dir_desc": "Outbound", "stop_id": "9830", "stop_name": "N\/S of C E of 1st", "stop_seq": "14" }, "geometry": { "type": "Point", "coordinates": [ -123.0197873, 43.9170116 ] } },
{ "type": "Feature", "properties": { "rte": "98", "rte_desc": "98-Cottage Grove", "dir": "0", "dir_desc": "Outbound", "stop_id": "9831", "stop_name": "S\/S of F St E of 2nd St", "stop_seq": "15" }, "geometry": { "type": "Point", "coordinates": [ -123.020712299999985, 43.9143211 ] } },
{ "type": "Feature", "properties": { "rte": "98", "rte_desc": "98-Cottage Grove", "dir": "0", "dir_desc": "Outbound", "stop_id": "9832", "stop_name": "S\/S of E. Oregon Ave. E of Hwy 99", "stop_seq": "16" }, "geometry": { "type": "Point", "coordinates": [ -123.0168838, 43.9178086 ] } },
{ "type": "Feature", "properties": { "rte": "98", "rte_desc": "98-Cottage Grove", "dir": "0", "dir_desc": "Outbound", "stop_id": "9828", "stop_name": "W\/S of Row River N of Village Green DW", "stop_seq": "17" }, "geometry": { "type": "Point", "coordinates": [ -123.040489599999987, 43.8024534 ] } },
{ "type": "Feature", "properties": { "rte": "98", "rte_desc": "98-Cottage Grove", "dir": "0", "dir_desc": "Outbound", "stop_id": "9800", "stop_name": "E\/S of WalMart Rd N of Thomas Ln", "stop_seq": "18" }, "geometry": { "type": "Point", "coordinates": [ -123.0406382, 43.799206 ] } },
{ "type": "Feature", "properties": { "rte": "98", "rte_desc": "98-Cottage Grove", "dir": "0", "dir_desc": "Outbound", "stop_id": "9821", "stop_name": "E\/S of Row River N of Thornton", "stop_seq": "19" }, "geometry": { "type": "Point", "coordinates": [ -123.0403472, 43.8024434 ] } },
{ "type": "Feature", "properties": { "rte": "98", "rte_desc": "98-Cottage Grove", "dir": "0", "dir_desc": "Outbound", "stop_id": "9801", "stop_name": "W\/S of Hwy 99N S of Geer", "stop_seq": "20" }, "geometry": { "type": "Point", "coordinates": [ -123.056157199999987, 43.8048156 ] } },
{ "type": "Feature", "properties": { "rte": "98", "rte_desc": "98-Cottage Grove", "dir": "0", "dir_desc": "Outbound", "stop_id": "9802", "stop_name": "W\/S of 9th S of Chadwick", "stop_seq": "21" }, "geometry": { "type": "Point", "coordinates": [ -123.059116299999985, 43.8012436 ] } },
{ "type": "Feature", "properties": { "rte": "98", "rte_desc": "98-Cottage Grove", "dir": "0", "dir_desc": "Outbound", "stop_id": "9803", "stop_name": "W\/S of 9th S of Gibbs", "stop_seq": "22" }, "geometry": { "type": "Point", "coordinates": [ -123.0591366, 43.7983921 ] } },
{ "type": "Feature", "properties": { "rte": "98", "rte_desc": "98-Cottage Grove", "dir": "0", "dir_desc": "Outbound", "stop_id": "9819", "stop_name": "W\/S of 10th St N of E Washington Ave", "stop_seq": "23" }, "geometry": { "type": "Point", "coordinates": [ -123.0580084, 43.7966131 ] } },
{ "type": "Feature", "properties": { "rte": "98", "rte_desc": "98-Cottage Grove", "dir": "0", "dir_desc": "Outbound", "stop_id": "9820", "stop_name": "W\/S of 10th St N of Quincy", "stop_seq": "24" }, "geometry": { "type": "Point", "coordinates": [ -123.058056599999986, 43.7916181 ] } },
{ "type": "Feature", "properties": { "rte": "98", "rte_desc": "98-Cottage Grove", "dir": "0", "dir_desc": "Outbound", "stop_id": "9823", "stop_name": "W\/S of S 10th St S of Tyler", "stop_seq": "25" }, "geometry": { "type": "Point", "coordinates": [ -123.0580748, 43.7892567 ] } },
{ "type": "Feature", "properties": { "rte": "98", "rte_desc": "98-Cottage Grove", "dir": "0", "dir_desc": "Outbound", "stop_id": "9804", "stop_name": "N\/S of Taylor W of 10th", "stop_seq": "26" }, "geometry": { "type": "Point", "coordinates": [ -123.0592567, 43.7868804 ] } },
{ "type": "Feature", "properties": { "rte": "98", "rte_desc": "98-Cottage Grove", "dir": "0", "dir_desc": "Outbound", "stop_id": "9822", "stop_name": "N\/S of Taylor St E of 6th St", "stop_seq": "27" }, "geometry": { "type": "Point", "coordinates": [ -123.061788299999989, 43.7868916 ] } },
{ "type": "Feature", "properties": { "rte": "98", "rte_desc": "98-Cottage Grove", "dir": "0", "dir_desc": "Outbound", "stop_id": "9834", "stop_name": "E\/S of 6th S of E Harrison Ave  CG", "stop_seq": "28" }, "geometry": { "type": "Point", "coordinates": [ -123.0619321, 43.7894389 ] } },
{ "type": "Feature", "properties": { "rte": "98", "rte_desc": "98-Cottage Grove", "dir": "0", "dir_desc": "Outbound", "stop_id": "9805", "stop_name": "E\/S of 6th S of Quincy", "stop_seq": "29" }, "geometry": { "type": "Point", "coordinates": [ -123.0618974, 43.791674 ] } },
{ "type": "Feature", "properties": { "rte": "98", "rte_desc": "98-Cottage Grove", "dir": "0", "dir_desc": "Outbound", "stop_id": "9824", "stop_name": "W\/S of S Pacific Hwy N of Harrison", "stop_seq": "30" }, "geometry": { "type": "Point", "coordinates": [ -123.0638677, 43.7909727 ] } },
{ "type": "Feature", "properties": { "rte": "98", "rte_desc": "98-Cottage Grove", "dir": "0", "dir_desc": "Outbound", "stop_id": "9827", "stop_name": "E\/S of S. River Road N of Hwy 99", "stop_seq": "31" }, "geometry": { "type": "Point", "coordinates": [ -123.069412299999982, 43.7849362 ] } },
{ "type": "Feature", "properties": { "rte": "98", "rte_desc": "98-Cottage Grove", "dir": "0", "dir_desc": "Outbound", "stop_id": "9825", "stop_name": "E\/S of S River Rd S of LCC", "stop_seq": "32" }, "geometry": { "type": "Point", "coordinates": [ -123.069439599999981, 43.7872456 ] } },
{ "type": "Feature", "properties": { "rte": "98", "rte_desc": "98-Cottage Grove", "dir": "0", "dir_desc": "Outbound", "stop_id": "9826", "stop_name": "E\/S of S River Rd S of Harrison", "stop_seq": "33" }, "geometry": { "type": "Point", "coordinates": [ -123.070028799999989, 43.7897053 ] } },
{ "type": "Feature", "properties": { "rte": "98", "rte_desc": "98-Cottage Grove", "dir": "0", "dir_desc": "Outbound", "stop_id": "9809", "stop_name": "E\/S of R St N of Harrison", "stop_seq": "34" }, "geometry": { "type": "Point", "coordinates": [ -123.075475, 43.7909651 ] } },
{ "type": "Feature", "properties": { "rte": "98", "rte_desc": "98-Cottage Grove", "dir": "0", "dir_desc": "Outbound", "stop_id": "9855", "stop_name": "E\/S of S R S of Bryant Ave", "stop_seq": "35" }, "geometry": { "type": "Point", "coordinates": [ -123.0757052, 43.7952789 ] } },
{ "type": "Feature", "properties": { "rte": "98", "rte_desc": "98-Cottage Grove", "dir": "0", "dir_desc": "Outbound", "stop_id": "9810", "stop_name": "E\/S of R St S of Main St", "stop_seq": "36" }, "geometry": { "type": "Point", "coordinates": [ -123.0756662, 43.7974466 ] } },
{ "type": "Feature", "properties": { "rte": "98", "rte_desc": "98-Cottage Grove", "dir": "0", "dir_desc": "Outbound", "stop_id": "9835", "stop_name": "S\/S of W Main W of N P", "stop_seq": "37" }, "geometry": { "type": "Point", "coordinates": [ -123.073855, 43.7976221 ] } },
{ "type": "Feature", "properties": { "rte": "98", "rte_desc": "98-Cottage Grove", "dir": "0", "dir_desc": "Outbound", "stop_id": "9811", "stop_name": "S\/S of Main W of M St", "stop_seq": "38" }, "geometry": { "type": "Point", "coordinates": [ -123.0705711, 43.7975819 ] } },
{ "type": "Feature", "properties": { "rte": "98", "rte_desc": "98-Cottage Grove", "dir": "0", "dir_desc": "Outbound", "stop_id": "9812", "stop_name": "S\/S of Main E of I St", "stop_seq": "39" }, "geometry": { "type": "Point", "coordinates": [ -123.065862600000017, 43.7975768 ] } },
{ "type": "Feature", "properties": { "rte": "98", "rte_desc": "98-Cottage Grove", "dir": "0", "dir_desc": "Outbound", "stop_id": "9813", "stop_name": "S\/S of W Main W of 5th", "stop_seq": "40" }, "geometry": { "type": "Point", "coordinates": [ -123.0633948, 43.7972491 ] } },
{ "type": "Feature", "properties": { "rte": "98", "rte_desc": "98-Cottage Grove", "dir": "0", "dir_desc": "Outbound", "stop_id": "9818", "stop_name": "S\/S of E Main St E of S 10th St", "stop_seq": "41" }, "geometry": { "type": "Point", "coordinates": [ -123.055676, 43.7972146 ] } },
{ "type": "Feature", "properties": { "rte": "98", "rte_desc": "98-Cottage Grove", "dir": "0", "dir_desc": "Outbound", "stop_id": "9815", "stop_name": "S\/S of E Main W of 15th", "stop_seq": "42" }, "geometry": { "type": "Point", "coordinates": [ -123.053057, 43.7972083 ] } },
{ "type": "Feature", "properties": { "rte": "98", "rte_desc": "98-Cottage Grove", "dir": "0", "dir_desc": "Outbound", "stop_id": "9816", "stop_name": "S\/S of E Main W of Gateway Blvd", "stop_seq": "43" }, "geometry": { "type": "Point", "coordinates": [ -123.049304699999979, 43.7971395 ] } },
{ "type": "Feature", "properties": { "rte": "98", "rte_desc": "98-Cottage Grove", "dir": "0", "dir_desc": "Outbound", "stop_id": "9817", "stop_name": "S\/S of Whiteaker E of 22nd", "stop_seq": "44" }, "geometry": { "type": "Point", "coordinates": [ -123.0431058, 43.7980384 ] } },
{ "type": "Feature", "properties": { "rte": "98", "rte_desc": "98-Cottage Grove", "dir": "0", "dir_desc": "Outbound", "stop_id": "9800", "stop_name": "E\/S of WalMart Rd N of Thomas Ln", "stop_seq": "45" }, "geometry": { "type": "Point", "coordinates": [ -123.0406382, 43.799206 ] } }
]
}
