{
"type": "FeatureCollection",
"crs": { "type": "name", "properties": { "name": "urn:ogc:def:crs:OGC:1.3:CRS84" } },
                                                                                
"features": [
{ "type": "Feature", "properties": { "rte": 99, "dir": 0, "rte_desc": "99-McLoughlin Express", "dir_desc": "To Clackamas Community College", "type": "BUS", "stop_seq": 650, "stop_id": 2838, "stop_name": "Molalla & Clairmont", "jurisdic": "Oregon City", "zipcode": "97045", "frequent": "False" }, "geometry": { "type": "Point", "coordinates": [ -122.586053912735679, 45.330718447106229 ] } },
{ "type": "Feature", "properties": { "rte": 99, "dir": 0, "rte_desc": "99-McLoughlin Express", "dir_desc": "To Clackamas Community College", "type": "BUS", "stop_seq": 625, "stop_id": 3989, "stop_name": "Molalla & Pearl", "jurisdic": "Oregon City", "zipcode": "97045", "frequent": "False" }, "geometry": { "type": "Point", "coordinates": [ -122.596747906472629, 45.349149481626569 ] } },
{ "type": "Feature", "properties": { "rte": 99, "dir": 0, "rte_desc": "99-McLoughlin Express", "dir_desc": "To Clackamas Community College", "type": "BUS", "stop_seq": 175, "stop_id": 3639, "stop_name": "SW Madison & 4th", "jurisdic": "Portland", "zipcode": "97204", "frequent": "False" }, "geometry": { "type": "Point", "coordinates": [ -122.67857274754661, 45.515189181049628 ] } },
{ "type": "Feature", "properties": { "rte": 99, "dir": 0, "rte_desc": "99-McLoughlin Express", "dir_desc": "To Clackamas Community College", "type": "BUS", "stop_seq": 250, "stop_id": 3661, "stop_name": "SE Main & Milport", "jurisdic": "Milwaukie", "zipcode": "97222", "frequent": "False" }, "geometry": { "type": "Point", "coordinates": [ -122.640879706526505, 45.452273007647555 ] } },
{ "type": "Feature", "properties": { "rte": 99, "dir": 0, "rte_desc": "99-McLoughlin Express", "dir_desc": "To Clackamas Community College", "type": "BUS", "stop_seq": 450, "stop_id": 3833, "stop_name": "SE McLoughlin & Concord", "jurisdic": "Clackamas Co.", "zipcode": "97267", "frequent": "False" }, "geometry": { "type": "Point", "coordinates": [ -122.626383330808778, 45.408576130759414 ] } },
{ "type": "Feature", "properties": { "rte": 99, "dir": 0, "rte_desc": "99-McLoughlin Express", "dir_desc": "To Clackamas Community College", "type": "BUS", "stop_seq": 350, "stop_id": 3834, "stop_name": "SE McLoughlin & Courtney", "jurisdic": "Clackamas Co.", "zipcode": "97222", "frequent": "False" }, "geometry": { "type": "Point", "coordinates": [ -122.633682944346532, 45.423037106558965 ] } },
{ "type": "Feature", "properties": { "rte": 99, "dir": 0, "rte_desc": "99-McLoughlin Express", "dir_desc": "To Clackamas Community College", "type": "BUS", "stop_seq": 400, "stop_id": 3843, "stop_name": "SE McLoughlin & Oak Grove", "jurisdic": "Clackamas Co.", "zipcode": "97267", "frequent": "False" }, "geometry": { "type": "Point", "coordinates": [ -122.63155103025646, 45.415312356798957 ] } },
{ "type": "Feature", "properties": { "rte": 99, "dir": 0, "rte_desc": "99-McLoughlin Express", "dir_desc": "To Clackamas Community College", "type": "BUS", "stop_seq": 500, "stop_id": 3851, "stop_name": "SE McLoughlin & Roethe", "jurisdic": "Clackamas Co.", "zipcode": "97267", "frequent": "False" }, "geometry": { "type": "Point", "coordinates": [ -122.618465570638335, 45.398238937542317 ] } },
{ "type": "Feature", "properties": { "rte": 99, "dir": 0, "rte_desc": "99-McLoughlin Express", "dir_desc": "To Clackamas Community College", "type": "BUS", "stop_seq": 300, "stop_id": 8225, "stop_name": "SE Jackson & 21st", "jurisdic": "Milwaukie", "zipcode": "97222", "frequent": "False" }, "geometry": { "type": "Point", "coordinates": [ -122.640490505678372, 45.444826836377771 ] } },
{ "type": "Feature", "properties": { "rte": 99, "dir": 0, "rte_desc": "99-McLoughlin Express", "dir_desc": "To Clackamas Community College", "type": "BUS", "stop_seq": 550, "stop_id": 10324, "stop_name": "McLoughlin & Gloucester", "jurisdic": "Gladstone", "zipcode": "97027", "frequent": "False" }, "geometry": { "type": "Point", "coordinates": [ -122.60364922157811, 45.378922928508715 ] } },
{ "type": "Feature", "properties": { "rte": 99, "dir": 0, "rte_desc": "99-McLoughlin Express", "dir_desc": "To Clackamas Community College", "type": "BUS", "stop_seq": 100, "stop_id": 7631, "stop_name": "SW 5th & Pine", "jurisdic": "Portland", "zipcode": "97204", "frequent": "False" }, "geometry": { "type": "Point", "coordinates": [ -122.675826575832332, 45.52224017989127 ] } },
{ "type": "Feature", "properties": { "rte": 99, "dir": 0, "rte_desc": "99-McLoughlin Express", "dir_desc": "To Clackamas Community College", "type": "BUS", "stop_seq": 125, "stop_id": 7642, "stop_name": "SW 5th & Washington", "jurisdic": "Portland", "zipcode": "97204", "frequent": "False" }, "geometry": { "type": "Point", "coordinates": [ -122.676855021854053, 45.52026995352135 ] } },
{ "type": "Feature", "properties": { "rte": 99, "dir": 0, "rte_desc": "99-McLoughlin Express", "dir_desc": "To Clackamas Community College", "type": "BUS", "stop_seq": 600, "stop_id": 8761, "stop_name": "Oregon City Transit Center", "jurisdic": "Oregon City", "zipcode": "97045", "frequent": "False" }, "geometry": { "type": "Point", "coordinates": [ -122.604518740224009, 45.360003302680049 ] } },
{ "type": "Feature", "properties": { "rte": 99, "dir": 0, "rte_desc": "99-McLoughlin Express", "dir_desc": "To Clackamas Community College", "type": "BUS", "stop_seq": 200, "stop_id": 3635, "stop_name": "SW Madison & 1st", "jurisdic": "Portland", "zipcode": "97204", "frequent": "False" }, "geometry": { "type": "Point", "coordinates": [ -122.675838874220844, 45.514455223325101 ] } },
{ "type": "Feature", "properties": { "rte": 99, "dir": 0, "rte_desc": "99-McLoughlin Express", "dir_desc": "To Clackamas Community College", "type": "BUS", "stop_seq": 700, "stop_id": 1068, "stop_name": "Clackamas Community College", "jurisdic": "Oregon City", "zipcode": "97045", "frequent": "False" }, "geometry": { "type": "Point", "coordinates": [ -122.575285942227381, 45.322757550136046 ] } },
{ "type": "Feature", "properties": { "rte": 99, "dir": 0, "rte_desc": "99-McLoughlin Express", "dir_desc": "To Clackamas Community College", "type": "BUS", "stop_seq": 150, "stop_id": 7634, "stop_name": "SW 5th & Salmon", "jurisdic": "Portland", "zipcode": "97204", "frequent": "False" }, "geometry": { "type": "Point", "coordinates": [ -122.678651079993472, 45.516939812254023 ] } },
{ "type": "Feature", "properties": { "rte": 99, "dir": 0, "rte_desc": "99-McLoughlin Express", "dir_desc": "To Clackamas Community College", "type": "BUS", "stop_seq": 525, "stop_id": 3839, "stop_name": "SE McLoughlin & Jennings", "jurisdic": "Clackamas Co.", "zipcode": "97267", "frequent": "False" }, "geometry": { "type": "Point", "coordinates": [ -122.612610823109378, 45.390599594044986 ] } }
]
}
