{
"type": "FeatureCollection",
"crs": { "type": "name", "properties": { "name": "urn:ogc:def:crs:OGC:1.3:CRS84" } },
                                                                                
"features": [
{ "type": "Feature", "properties": { "rte": 200, "dir": 0, "rte_desc": "MAX Green Line", "dir_desc": "To Clackamas Town Center", "type": "MAX", "stop_seq": 450, "stop_id": 8340, "stop_name": "Rose Quarter TC MAX Station", "jurisdic": "Portland", "zipcode": "97232", "frequent": "True" }, "geometry": { "type": "Point", "coordinates": [ -122.664916641786647, 45.530060460750306 ] } },
{ "type": "Feature", "properties": { "rte": 200, "dir": 0, "rte_desc": "MAX Green Line", "dir_desc": "To Clackamas Town Center", "type": "MAX", "stop_seq": 500, "stop_id": 8341, "stop_name": "Convention Center MAX Station", "jurisdic": "Portland", "zipcode": "97232", "frequent": "True" }, "geometry": { "type": "Point", "coordinates": [ -122.661907990670528, 45.530055571036456 ] } },
{ "type": "Feature", "properties": { "rte": 200, "dir": 0, "rte_desc": "MAX Green Line", "dir_desc": "To Clackamas Town Center", "type": "MAX", "stop_seq": 650, "stop_id": 8344, "stop_name": "Hollywood\/NE 42nd Ave TC MAX Station", "jurisdic": "Portland", "zipcode": "97232", "frequent": "True" }, "geometry": { "type": "Point", "coordinates": [ -122.620708267361678, 45.532775468543207 ] } },
{ "type": "Feature", "properties": { "rte": 200, "dir": 0, "rte_desc": "MAX Green Line", "dir_desc": "To Clackamas Town Center", "type": "MAX", "stop_seq": 750, "stop_id": 8346, "stop_name": "NE 82nd Ave MAX Station", "jurisdic": "Portland", "zipcode": "97220", "frequent": "True" }, "geometry": { "type": "Point", "coordinates": [ -122.577794357858153, 45.533223747009707 ] } },
{ "type": "Feature", "properties": { "rte": 200, "dir": 0, "rte_desc": "MAX Green Line", "dir_desc": "To Clackamas Town Center", "type": "MAX", "stop_seq": 800, "stop_id": 8347, "stop_name": "Gateway\/NE 99th Ave TC MAX Station", "jurisdic": "Portland", "zipcode": "97220", "frequent": "True" }, "geometry": { "type": "Point", "coordinates": [ -122.563577524517029, 45.530272127442544 ] } },
{ "type": "Feature", "properties": { "rte": 200, "dir": 0, "rte_desc": "MAX Green Line", "dir_desc": "To Clackamas Town Center", "type": "MAX", "stop_seq": 400, "stop_id": 7763, "stop_name": "Union Station\/NW 6th & Hoyt St MAX Stn", "jurisdic": "Portland", "zipcode": "97209", "frequent": "True" }, "geometry": { "type": "Point", "coordinates": [ -122.67651700954832, 45.5272218373672 ] } },
{ "type": "Feature", "properties": { "rte": 200, "dir": 0, "rte_desc": "MAX Green Line", "dir_desc": "To Clackamas Town Center", "type": "MAX", "stop_seq": 300, "stop_id": 7787, "stop_name": "SW 6th & Pine St MAX Station", "jurisdic": "Portland", "zipcode": "97204", "frequent": "True" }, "geometry": { "type": "Point", "coordinates": [ -122.676755576905407, 45.522327029047617 ] } },
{ "type": "Feature", "properties": { "rte": 200, "dir": 0, "rte_desc": "MAX Green Line", "dir_desc": "To Clackamas Town Center", "type": "MAX", "stop_seq": 600, "stop_id": 8343, "stop_name": "Lloyd Center\/NE 11th Ave MAX Station", "jurisdic": "Portland", "zipcode": "97232", "frequent": "True" }, "geometry": { "type": "Point", "coordinates": [ -122.653638381776418, 45.530070757047064 ] } },
{ "type": "Feature", "properties": { "rte": 200, "dir": 0, "rte_desc": "MAX Green Line", "dir_desc": "To Clackamas Town Center", "type": "MAX", "stop_seq": 100, "stop_id": 10293, "stop_name": "PSU South\/SW 6th & College St MAX Stn", "jurisdic": "Portland", "zipcode": "97201", "frequent": "True" }, "geometry": { "type": "Point", "coordinates": [ -122.68361681113268, 45.509625011245554 ] } },
{ "type": "Feature", "properties": { "rte": 200, "dir": 0, "rte_desc": "MAX Green Line", "dir_desc": "To Clackamas Town Center", "type": "MAX", "stop_seq": 150, "stop_id": 7774, "stop_name": "PSU\/SW 6th & Montgomery MAX Station", "jurisdic": "Portland", "zipcode": "97201", "frequent": "True" }, "geometry": { "type": "Point", "coordinates": [ -122.682577748705611, 45.511582659020071 ] } },
{ "type": "Feature", "properties": { "rte": 200, "dir": 0, "rte_desc": "MAX Green Line", "dir_desc": "To Clackamas Town Center", "type": "MAX", "stop_seq": 200, "stop_id": 13123, "stop_name": "SW 6th & Madison St MAX Station", "jurisdic": "Portland", "zipcode": "97204", "frequent": "True" }, "geometry": { "type": "Point", "coordinates": [ -122.680380633449886, 45.51563288102794 ] } },
{ "type": "Feature", "properties": { "rte": 200, "dir": 0, "rte_desc": "MAX Green Line", "dir_desc": "To Clackamas Town Center", "type": "MAX", "stop_seq": 350, "stop_id": 9299, "stop_name": "NW 6th & Davis St MAX Station", "jurisdic": "Portland", "zipcode": "97209", "frequent": "True" }, "geometry": { "type": "Point", "coordinates": [ -122.676429154675162, 45.524405370626695 ] } },
{ "type": "Feature", "properties": { "rte": 200, "dir": 0, "rte_desc": "MAX Green Line", "dir_desc": "To Clackamas Town Center", "type": "MAX", "stop_seq": 850, "stop_id": 13124, "stop_name": "SE Main St MAX Station", "jurisdic": "Portland", "zipcode": "97216", "frequent": "True" }, "geometry": { "type": "Point", "coordinates": [ -122.564466515636497, 45.513989074817999 ] } },
{ "type": "Feature", "properties": { "rte": 200, "dir": 0, "rte_desc": "MAX Green Line", "dir_desc": "To Clackamas Town Center", "type": "MAX", "stop_seq": 900, "stop_id": 13125, "stop_name": "SE Division St MAX Station", "jurisdic": "Portland", "zipcode": "97266", "frequent": "True" }, "geometry": { "type": "Point", "coordinates": [ -122.5666628205216, 45.503122741439391 ] } },
{ "type": "Feature", "properties": { "rte": 200, "dir": 0, "rte_desc": "MAX Green Line", "dir_desc": "To Clackamas Town Center", "type": "MAX", "stop_seq": 950, "stop_id": 13126, "stop_name": "SE Powell Blvd MAX Station", "jurisdic": "Portland", "zipcode": "97266", "frequent": "True" }, "geometry": { "type": "Point", "coordinates": [ -122.566170473542613, 45.495502627682129 ] } },
{ "type": "Feature", "properties": { "rte": 200, "dir": 0, "rte_desc": "MAX Green Line", "dir_desc": "To Clackamas Town Center", "type": "MAX", "stop_seq": 1000, "stop_id": 13127, "stop_name": "SE Holgate Blvd MAX Station", "jurisdic": "Portland", "zipcode": "97266", "frequent": "True" }, "geometry": { "type": "Point", "coordinates": [ -122.566315420094313, 45.490867940706416 ] } },
{ "type": "Feature", "properties": { "rte": 200, "dir": 0, "rte_desc": "MAX Green Line", "dir_desc": "To Clackamas Town Center", "type": "MAX", "stop_seq": 1050, "stop_id": 13128, "stop_name": "Lents\/SE Foster Rd MAX Station", "jurisdic": "Portland", "zipcode": "97266", "frequent": "True" }, "geometry": { "type": "Point", "coordinates": [ -122.56687146914237, 45.480188247680708 ] } },
{ "type": "Feature", "properties": { "rte": 200, "dir": 0, "rte_desc": "MAX Green Line", "dir_desc": "To Clackamas Town Center", "type": "MAX", "stop_seq": 1100, "stop_id": 13129, "stop_name": "SE Flavel St MAX Station", "jurisdic": "Portland", "zipcode": "97266", "frequent": "True" }, "geometry": { "type": "Point", "coordinates": [ -122.566761053345857, 45.467602038356929 ] } },
{ "type": "Feature", "properties": { "rte": 200, "dir": 0, "rte_desc": "MAX Green Line", "dir_desc": "To Clackamas Town Center", "type": "MAX", "stop_seq": 1150, "stop_id": 13130, "stop_name": "SE Fuller Rd MAX Station", "jurisdic": "Clackamas Co.", "zipcode": "97086", "frequent": "True" }, "geometry": { "type": "Point", "coordinates": [ -122.573577581402972, 45.453138457219588 ] } },
{ "type": "Feature", "properties": { "rte": 200, "dir": 0, "rte_desc": "MAX Green Line", "dir_desc": "To Clackamas Town Center", "type": "MAX", "stop_seq": 1200, "stop_id": 13132, "stop_name": "Clackamas Town Center TC MAX Station", "jurisdic": "Clackamas Co.", "zipcode": "97086", "frequent": "True" }, "geometry": { "type": "Point", "coordinates": [ -122.567769341321664, 45.435721150730174 ] } },
{ "type": "Feature", "properties": { "rte": 200, "dir": 0, "rte_desc": "MAX Green Line", "dir_desc": "To Clackamas Town Center", "type": "MAX", "stop_seq": 250, "stop_id": 7777, "stop_name": "Pioneer Courthouse\/SW 6th Ave MAX Stn", "jurisdic": "Portland", "zipcode": "97204", "frequent": "True" }, "geometry": { "type": "Point", "coordinates": [ -122.678558224856658, 45.518967582574838 ] } },
{ "type": "Feature", "properties": { "rte": 200, "dir": 0, "rte_desc": "MAX Green Line", "dir_desc": "To Clackamas Town Center", "type": "MAX", "stop_seq": 700, "stop_id": 8345, "stop_name": "NE 60th Ave MAX Station", "jurisdic": "Portland", "zipcode": "97213", "frequent": "True" }, "geometry": { "type": "Point", "coordinates": [ -122.602703268874606, 45.528766822299858 ] } }
]
}
